<?xml version='1.0' encoding='UTF-8'?>
<suburban_zones><zone code="abk" id="86" settlement_id="1095" settlement_title="Абакан" title="Абаканская"><settlement geo_id="1095" id="1095" latitude="53.722356" longitude="91.443699" title="Абакан" /><settlement geo_id="11310" id="11310" latitude="53.628151" longitude="91.635378" title="Минусинск" /><settlement geo_id="11339" id="11339" latitude="52.655251" longitude="90.11691" title="Абаза" /><settlement geo_id="100999" id="22033" latitude="53.890986" longitude="92.740445" title="Курагино" /><settlement geo_id="101036" id="22993" latitude="53.133241" longitude="90.416937" title="Аскиз" /></zone><zone code="arm" id="158" settlement_id="10987" settlement_title="Армавир" title="Армавирская"><settlement geo_id="10987" id="10987" latitude="44.998497" longitude="41.124596" title="Армавир" /><settlement geo_id="20702" id="20702" latitude="44.9095514974" longitude="40.5915878307" title="Курганинск" /></zone><zone code="am-evn" id="42" settlement_id="10262" settlement_title="Ереван" title="Армянская"><settlement geo_id="10257" id="10257" latitude="40.160351" longitude="44.027831" title="Армавир" /><settlement geo_id="10259" id="10259" latitude="40.792612" longitude="43.846967" title="Гюмри" /><settlement geo_id="10262" id="10262" latitude="40.177608" longitude="44.512591" title="Ереван" /><settlement geo_id="37792" id="28100" latitude="40.426542" longitude="44.671143" title="Раздан" /></zone><zone code="arkh" id="153" settlement_id="20" settlement_title="Архангельск" title="Архангельская"><settlement geo_id="20" id="20" latitude="64.539304" longitude="40.518735" title="Архангельск" /><settlement geo_id="10849" id="10849" latitude="64.572268" longitude="39.851963" title="Северодвинск" /><settlement geo_id="101558" id="22915" latitude="64.0421258732" longitude="44.4049012871" title="Карпогоры" /></zone><zone code="ktz-ast" id="15" settlement_id="163" settlement_title="Астана" title="Астанинская"><settlement geo_id="163" id="163" latitude="51.128422" longitude="71.430564" title="Астана" /><settlement geo_id="20809" id="22172" latitude="53.284635" longitude="69.377554" title="Кокшетау" /><settlement geo_id="29432" id="24726" latitude="52.630279433" longitude="70.4099879019" title="Макинск" /><settlement geo_id="29421" id="24737" latitude="51.8013381002" longitude="68.3477255041" title="Атбасар" /><settlement geo_id="29426" id="26659" latitude="51.6222371531" longitude="73.123843291" title="Ерейментау" /></zone><zone code="ast" id="12" settlement_id="37" settlement_title="Астрахань" title="Астраханская"><settlement geo_id="37" id="37" latitude="46.347869" longitude="48.033574" title="Астрахань" /><settlement geo_id="110275" id="23739" latitude="46.76659401" longitude="48.046913994" title="Аксарайский" /></zone><zone code="bal" id="120" settlement_id="11144" settlement_title="Балашов" title="Балашовская"><settlement geo_id="10955" id="10955" latitude="50.958538" longitude="43.788507" title="Елань" /><settlement geo_id="11144" id="11144" latitude="51.545679" longitude="43.128169" title="Балашов" /><settlement geo_id="20057" id="20057" latitude="51.938196" longitude="43.502736" title="Аркадак" /><settlement geo_id="20694" id="20694" latitude="51.19805" longitude="42.246732" title="Поворино" /><settlement geo_id="101261" id="21860" latitude="51.160218" longitude="43.697864" title="Самойловка" /><settlement geo_id="101270" id="21877" latitude="51.74634824" longitude="42.7429543063" title="Романовка" /><settlement geo_id="100780" id="22684" latitude="51.846689" longitude="42.481626" title="Мучкапский" /></zone><zone code="bel-brn" id="166" settlement_id="21015" settlement_title="Барановичи" title="Барановичская"><settlement geo_id="21015" id="21015" latitude="53.128704" longitude="26.042478" title="Барановичи" /><settlement geo_id="102205" id="23262" latitude="53.074301" longitude="26.666887" title="Клецк" /><settlement geo_id="26947" id="23296" latitude="52.75565" longitude="26.4376" title="Ганцевичи" /><settlement geo_id="26938" id="23302" latitude="52.707592" longitude="25.335451" title="Ивацевичи" /><settlement geo_id="102226" id="23307" latitude="53.032411" longitude="26.215895" title="Ляховичи" /><settlement geo_id="26005" id="23348" latitude="53.093108" longitude="25.345631" title="Слоним" /></zone><zone code="brn" id="210" settlement_id="197" settlement_title="Барнаул" title="Барнаульская"><settlement geo_id="197" id="197" latitude="53.348779" longitude="83.776282" title="Барнаул" /><settlement geo_id="975" id="975" latitude="52.535615" longitude="85.180986" title="Бийск" /><settlement geo_id="11234" id="11234" latitude="52.4951945571" longitude="82.7894800343" title="Алейск" /><settlement geo_id="11240" id="11240" latitude="53.703485" longitude="84.939802" title="Заринск" /><settlement geo_id="11242" id="11242" latitude="53.776496" longitude="81.291751" title="Камень-на-Оби" /><settlement geo_id="11246" id="11246" latitude="53.392736" longitude="83.930253" title="Новоалтайск" /><settlement geo_id="11248" id="11248" latitude="51.9928750151" longitude="81.8248743564" title="Поспелиха" /><settlement geo_id="11249" id="11249" latitude="53.010125" longitude="82.304222" title="Ребриха" /><settlement geo_id="11251" id="11251" latitude="51.5161254971" longitude="81.2028419226" title="Рубцовск" /><settlement geo_id="11253" id="11253" latitude="53.820553" longitude="83.566447" title="Тальменка" /><settlement geo_id="11254" id="11254" latitude="52.982312" longitude="84.665181" title="Троицкое" /><settlement geo_id="21130" id="21130" latitude="53.8082838056" longitude="82.3106809147" title="Сузун" /><settlement geo_id="21698" id="21698" latitude="52.2154200388" longitude="82.2590447031" title="Шипуново" /><settlement geo_id="100891" id="22606" latitude="52.817131" longitude="83.116543" title="Топчиха" /><settlement geo_id="100869" id="28922" latitude="52.6639284774" longitude="84.9333209841" title="Зональное" /></zone><zone code="belg" id="123" settlement_id="4" settlement_title="Белгород" title="Белгородская"><settlement geo_id="4" id="4" latitude="50.597467" longitude="36.588849" title="Белгород" /><settlement geo_id="20196" id="20196" latitude="50.372702" longitude="36.851989" title="Шебекино" /><settlement geo_id="101734" id="21945" latitude="50.6720758148" longitude="36.2395767116" title="Томаровка" /></zone><zone code="blgk" id="203" settlement_id="11374" settlement_title="Белогорск" title="Белогорская"><settlement geo_id="77" id="77" latitude="50.290658" longitude="127.527173" title="Благовещенск" /><settlement geo_id="11373" id="11373" latitude="49.420368" longitude="130.074103" title="Архара" /><settlement geo_id="11374" id="11374" latitude="50.928321" longitude="128.454765" title="Белогорск" /><settlement geo_id="11377" id="11377" latitude="50.376583" longitude="129.102378" title="Екатеринославка" /><settlement geo_id="11378" id="11378" latitude="50.123466" longitude="129.446074" title="Завитинск" /><settlement geo_id="11387" id="11387" latitude="51.375889" longitude="128.134147" title="Свободный" /><settlement geo_id="11388" id="11388" latitude="51.094245" longitude="128.38192" title="Серышево" /><settlement geo_id="11392" id="11392" latitude="52.007432" longitude="127.678396" title="Шимановск" /><settlement geo_id="11394" id="11394" latitude="49.011447" longitude="131.058668" title="Облучье" /><settlement geo_id="114764" id="39511" latitude="51.744483" longitude="128.080149" title="Циолковский" /></zone><zone code="blrc" id="159" settlement_id="10988" settlement_title="Белореченск" title="Белореченская"><settlement geo_id="1093" id="1093" latitude="44.622613" longitude="40.108035" title="Майкоп" /><settlement geo_id="10988" id="10988" latitude="44.752932" longitude="39.893802" title="Белореченск" /><settlement geo_id="21428" id="21428" latitude="44.292004" longitude="40.18359" title="Каменномостский" /><settlement geo_id="100624" id="26260" latitude="44.8435083932" longitude="40.093798881" title="Гиагинская" /><settlement geo_id="100625" id="26261" latitude="44.8951482686" longitude="40.492231373" title="Кошехабль" /><settlement geo_id="100627" id="26263" latitude="44.50332" longitude="40.153228" title="Тульский" /></zone><zone code="blg" id="20" settlement_id="10805" settlement_title="Бологое" title="Бологовская"><settlement geo_id="10805" id="10805" latitude="57.886081" longitude="34.062339" title="Бологое" /><settlement geo_id="10815" id="10815" latitude="57.7971896287" longitude="35.857521746" title="Максатиха" /><settlement geo_id="10818" id="10818" latitude="57.133654" longitude="33.123403" title="Осташков" /><settlement geo_id="10823" id="10823" latitude="56.5145447682" longitude="31.6499569948" title="Торопец" /><settlement geo_id="10824" id="10824" latitude="57.880057" longitude="35.005881" title="Удомля" /><settlement geo_id="10906" id="10906" latitude="58.388884" longitude="33.889178" title="Боровичи" /><settlement geo_id="10907" id="10907" latitude="57.969604" longitude="33.243136" title="Валдай" /><settlement geo_id="10908" id="10908" latitude="57.931606" longitude="30.70739" title="Волот" /><settlement geo_id="10912" id="10912" latitude="58.372798" longitude="33.298807" title="Окуловка" /><settlement geo_id="10915" id="10915" latitude="58.814107" longitude="33.402372" title="Любытино" /><settlement geo_id="10916" id="10916" latitude="57.963202" longitude="31.608553" title="Парфино" /><settlement geo_id="10923" id="10923" latitude="58.000932" longitude="31.346353" title="Старая Русса" /><settlement geo_id="20619" id="20619" latitude="57.0267560113" longitude="34.1836947883" title="Кувшиново" /><settlement geo_id="26480" id="22472" latitude="56.6465228561" longitude="32.2631880159" title="Андреаполь" /><settlement geo_id="100797" id="22483" latitude="56.8570453854" longitude="33.4660076191" title="Селижарово" /><settlement geo_id="100800" id="22486" latitude="57.4838654241" longitude="33.6996082275" title="Фирово" /><settlement geo_id="101566" id="26467" latitude="57.91864" longitude="33.632691" title="Едрово" /></zone><zone code="brt" id="183" settlement_id="976" settlement_title="Братск" title="Братская"><settlement geo_id="976" id="976" latitude="56.151382" longitude="101.634152" title="Братск" /><settlement geo_id="11262" id="11262" latitude="56.117451" longitude="101.169029" title="Вихоревка" /><settlement geo_id="11264" id="11264" latitude="56.584868" longitude="104.114409" title="Железногорск-Илимский" /><settlement geo_id="11273" id="11273" latitude="57.943039" longitude="102.741523" title="Усть-Илимск" /><settlement geo_id="20097" id="20097" latitude="56.792878" longitude="105.775672" title="Усть-Кут" /><settlement geo_id="21038" id="21038" latitude="57.1261787816" longitude="103.88818441" title="Новая Игирма" /><settlement geo_id="101403" id="22950" latitude="56.179341" longitude="107.456088" title="Магистральный" /><settlement geo_id="100925" id="22955" latitude="56.08222" longitude="99.636945" title="Чунский" /></zone><zone code="bel-br" id="167" settlement_id="153" settlement_title="Брест" title="Брестская"><settlement geo_id="153" id="153" latitude="52.08951" longitude="23.71202" title="Брест" /><settlement geo_id="21510" id="21510" latitude="52.123677" longitude="26.087561" title="Пинск" /><settlement geo_id="102227" id="23293" latitude="52.463178" longitude="25.186709" title="Белоозерск" /><settlement geo_id="102221" id="23294" latitude="52.549029" longitude="24.973012" title="Берёза" /><settlement geo_id="33001" id="23295" latitude="52.3672239113" longitude="23.416155763" title="Высокое" /><settlement geo_id="33011" id="23298" latitude="52.179935" longitude="25.145884" title="Дрогичин" /><settlement geo_id="101661" id="23300" latitude="52.20006" longitude="24.016495" title="Жабинка" /><settlement geo_id="102223" id="23301" latitude="52.128747" longitude="25.551922" title="Иваново" /><settlement geo_id="26010" id="23304" latitude="52.222309" longitude="24.319612" title="Кобрин" /><settlement geo_id="101528" id="23308" latitude="51.795273" longitude="24.083168" title="Малорита" /></zone><zone code="br" id="61" settlement_id="191" settlement_title="Брянск" title="Брянская"><settlement geo_id="191" id="191" latitude="53.2434" longitude="34.364198" title="Брянск" /><settlement geo_id="10651" id="10651" latitude="53.6100395241" longitude="34.3238406085" title="Дятьково" /><settlement geo_id="10652" id="10652" latitude="53.530622" longitude="33.724496" title="Жуковка" /><settlement geo_id="10653" id="10653" latitude="52.734747" longitude="32.232443" title="Клинцы" /><settlement geo_id="10654" id="10654" latitude="52.523305" longitude="31.947306" title="Новозыбков" /><settlement geo_id="10655" id="10655" latitude="53.134093" longitude="34.981526" title="Карачев" /><settlement geo_id="20184" id="20184" latitude="52.475089" longitude="31.665434" title="Злынка" /><settlement geo_id="20186" id="20186" latitude="52.913486" longitude="33.462934" title="Почеп" /><settlement geo_id="20189" id="20189" latitude="53.021386" longitude="32.377088" title="Сураж" /><settlement geo_id="20191" id="20191" latitude="52.84207" longitude="32.678494" title="Унеча" /><settlement geo_id="20201" id="20201" latitude="53.8879451532" longitude="34.4264262381" title="Людиново" /><settlement geo_id="21701" id="21701" latitude="53.367997" longitude="34.098098" title="Сельцо" /><settlement geo_id="100705" id="21884" latitude="53.896002" longitude="35.140314" title="Думиничи" /><settlement geo_id="100671" id="22534" latitude="53.098597" longitude="34.077624" title="Выгоничи" /><settlement geo_id="20409" id="22536" latitude="53.689982" longitude="33.497925" title="Дубровка" /><settlement geo_id="100675" id="22539" latitude="53.39402" longitude="33.231575" title="Клетня" /><settlement geo_id="100676" id="22540" latitude="52.370226" longitude="32.191362" title="Климово" /><settlement geo_id="100677" id="22541" latitude="52.414818" longitude="34.785121" title="Комаричи" /><settlement geo_id="100670" id="22543" latitude="52.588188" longitude="34.57631" title="Локоть" /><settlement geo_id="100679" id="22544" latitude="52.822087" longitude="34.493665" title="Навля" /><settlement geo_id="100680" id="22545" latitude="52.509834" longitude="33.217261" title="Погар" /><settlement geo_id="100682" id="22547" latitude="52.317606" longitude="34.073027" title="Суземка" /><settlement geo_id="102233" id="23322" latitude="52.399723" longitude="31.322917" title="Добруш" /><settlement geo_id="26899" id="24452" latitude="53.4426068274" longitude="34.4020360211" title="Фокино" /><settlement geo_id="101503" id="26435" latitude="53.736319" longitude="33.33563" title="Сеща" /><settlement geo_id="110296" id="28740" latitude="53.209601" longitude="34.667108" title="Белые Берега" /></zone><zone code="bzl" id="150" settlement_id="11086" settlement_title="Бузулук" title="Бузулукская"><settlement geo_id="11086" id="11086" latitude="52.76844" longitude="52.270568" title="Бузулук" /><settlement geo_id="20033" id="20033" latitude="52.427757" longitude="53.149345" title="Сорочинск" /><settlement geo_id="20254" id="20254" latitude="52.507578" longitude="52.815468" title="Тоцкое" /><settlement geo_id="101134" id="22404" latitude="52.514546" longitude="52.058321" title="Курманаевка" /></zone><zone code="val" id="125" settlement_id="20193" settlement_title="Валуйки" title="Валуйкинская"><settlement geo_id="20192" id="20192" latitude="50.618014" longitude="38.67057" title="Алексеевка" /><settlement geo_id="20193" id="20193" latitude="50.199312" longitude="38.121019" title="Валуйки" /><settlement geo_id="100448" id="26206" latitude="50.4901813828" longitude="37.854663291" title="Волоконовка" /></zone><zone code="vll" id="66" settlement_id="10928" settlement_title="Великие Луки" title="Великолукская"><settlement geo_id="10927" id="10927" latitude="57.007377" longitude="29.917301" title="Бежаницы" /><settlement geo_id="10928" id="10928" latitude="56.340105" longitude="30.562705" title="Великие Луки" /><settlement geo_id="10930" id="10930" latitude="56.343029" longitude="30.146983" title="Новосокольники" /><settlement geo_id="10932" id="10932" latitude="56.305564" longitude="28.468456" title="Себеж" /><settlement geo_id="20585" id="20585" latitude="56.340046" longitude="29.371595" title="Пустошка" /><settlement geo_id="20681" id="20681" latitude="56.040675" longitude="29.950645" title="Невель" /><settlement geo_id="21662" id="21662" latitude="56.32759" longitude="28.891589" title="Идрица" /><settlement geo_id="21663" id="21663" latitude="57.55305" longitude="29.943271" title="Дедовичи" /><settlement geo_id="21664" id="21664" latitude="56.827126" longitude="30.153712" title="Локня" /></zone><zone code="vil" id="29" settlement_id="11475" settlement_title="Вильнюс" title="Вильнюсская"><settlement geo_id="11475" id="11475" latitude="54.690616" longitude="25.269825" title="Вильнюс" /></zone><zone code="bel-vit" id="170" settlement_id="154" settlement_title="Витебск" title="Витебская"><settlement geo_id="154" id="154" latitude="55.184757" longitude="30.203848" title="Витебск" /><settlement geo_id="26566" id="23269" latitude="55.844319" longitude="29.965741" title="Езерище" /><settlement geo_id="" id="23273" latitude="55.363223" longitude="29.275015" title="Оболь" /><settlement geo_id="102241" id="23274" latitude="55.46928" longitude="30.009704" title="Городок" /><settlement geo_id="102247" id="23275" latitude="55.303186" longitude="29.623501" title="Шумилино" /><settlement geo_id="" id="23280" latitude="54.851117" longitude="30.208681" title="Богушевск" /><settlement geo_id="102243" id="23281" latitude="55.014179" longitude="30.790026" title="Лиозно" /></zone><zone code="vlv" id="71" settlement_id="75" settlement_title="Владивосток" title="Владивостокская"><settlement geo_id="75" id="75" latitude="43.116391" longitude="131.882421" title="Владивосток" /><settlement geo_id="974" id="974" latitude="42.846916" longitude="132.960506" title="Находка" /><settlement geo_id="11406" id="11406" latitude="43.380038" longitude="132.192004" title="Артём" /><settlement geo_id="11416" id="11416" latitude="45.455118" longitude="133.378073" title="Лесозаводск" /><settlement geo_id="11421" id="11421" latitude="43.149171" longitude="133.139399" title="Партизанск" /><settlement geo_id="11425" id="11425" latitude="44.597267" longitude="132.819101" title="Спасск-Дальний" /><settlement geo_id="11426" id="11426" latitude="43.8017" longitude="131.980815" title="Уссурийск" /><settlement geo_id="101752" id="22896" latitude="43.323585" longitude="132.350703" title="Шкотово" /><settlement geo_id="101746" id="22912" latitude="44.205739" longitude="132.438834" title="Сибирцево" /><settlement geo_id="101290" id="22914" latitude="43.286516" longitude="132.456387" title="Смоляниново" /></zone><zone code="vld" id="19" settlement_id="192" settlement_title="Владимир" title="Владимирская"><settlement geo_id="192" id="192" latitude="56.129423" longitude="40.419577" title="Владимир" /><settlement geo_id="10659" id="10659" latitude="56.201965" longitude="42.1682390847" title="Вязники" /><settlement geo_id="10661" id="10661" latitude="55.6185932076" longitude="40.6500925079" title="Гусь-Хрустальный" /><settlement geo_id="10662" id="10662" latitude="56.3432227475" longitude="40.9899090344" title="Камешково" /><settlement geo_id="10664" id="10664" latitude="56.368735" longitude="41.304341" title="Ковров" /><settlement geo_id="10666" id="10666" latitude="55.8900568828" longitude="41.7370400847" title="Красная Горбатка" /><settlement geo_id="110281" id="22515" latitude="55.1449021604" longitude="40.5471391217" title="Тума" /><settlement geo_id="98547" id="24450" latitude="55.4488600725" longitude="40.6194575079" title="Курлово" /></zone><zone code="vlg" id="13" settlement_id="38" settlement_title="Волгоград" title="Волгоградская"><settlement geo_id="38" id="38" latitude="48.707103" longitude="44.516939" title="Волгоград" /><settlement geo_id="10951" id="10951" latitude="48.7868332456" longitude="44.8155301866" title="Волжский" /><settlement geo_id="10952" id="10952" latitude="48.78618" longitude="44.475662" title="Городище" /><settlement geo_id="10957" id="10957" latitude="49.309557" longitude="44.027115" title="Иловля" /><settlement geo_id="10958" id="10958" latitude="48.691422" longitude="43.499373" title="Калач-на-Дону" /><settlement geo_id="10959" id="10959" latitude="50.092818076" longitude="45.4152005545" title="Камышин" /><settlement geo_id="10961" id="10961" latitude="47.627386" longitude="43.138331" title="Котельниково" /><settlement geo_id="10965" id="10965" latitude="50.073512" longitude="43.244655" title="Михайловка" /><settlement geo_id="10968" id="10968" latitude="50.537731" longitude="42.672321" title="Новоаннинский" /><settlement geo_id="10969" id="10969" latitude="50.973189" longitude="42.358907" title="Новониколаевский" /><settlement geo_id="10970" id="10970" latitude="47.963088" longitude="43.653676" title="Октябрьский" /><settlement geo_id="10973" id="10973" latitude="50.138653" longitude="45.204725" title="Петров Вал" /><settlement geo_id="10975" id="10975" latitude="50.829097" longitude="44.557606" title="Рудня" /><settlement geo_id="10980" id="10980" latitude="48.605934" longitude="42.842911" title="Суровикино" /><settlement geo_id="10982" id="10982" latitude="49.764162" longitude="43.656138" title="Фролово" /><settlement geo_id="10983" id="10983" latitude="48.427262" longitude="42.218105" title="Чернышковский" /><settlement geo_id="100566" id="22852" latitude="48.54265" longitude="42.503464" title="Обливская" /><settlement geo_id="101792" id="26566" latitude="48.681989" longitude="44.343232" title="Горьковский" /></zone><zone code="vol" id="34" settlement_id="21" settlement_title="Вологда" title="Вологодская"><settlement geo_id="21" id="21" latitude="59.220492" longitude="39.891568" title="Вологда" /><settlement geo_id="968" id="968" latitude="59.127406" longitude="37.90692" title="Череповец" /><settlement geo_id="20121" id="20121" latitude="58.884514" longitude="40.22996" title="Грязовец" /><settlement geo_id="20124" id="20124" latitude="59.455632" longitude="40.090241" title="Сокол" /><settlement geo_id="20125" id="20125" latitude="59.947694" longitude="40.202016" title="Харовск" /><settlement geo_id="21679" id="21679" latitude="60.473804" longitude="40.218538" title="Вожега" /><settlement geo_id="21680" id="21680" latitude="59.196016" longitude="37.150345" title="Кадуй" /><settlement geo_id="21684" id="21684" latitude="59.2097293232" longitude="38.5232906614" title="Шексна" /><settlement geo_id="100813" id="22057" latitude="58.420646" longitude="40.352501" title="Пречистое" /><settlement geo_id="110288" id="22422" latitude="58.807883" longitude="41.053006" title="Вохтога" /></zone><zone code="ua-vrzb" id="187" settlement_id="23158" settlement_title="Ворожба" title="Ворожбянская"><settlement geo_id="27319" id="23158" latitude="51.170449" longitude="34.224234" title="Ворожба" /></zone><zone code="vrn" id="129" settlement_id="193" settlement_title="Воронеж" title="Воронежская"><settlement geo_id="193" id="193" latitude="51.661535" longitude="39.200287" title="Воронеж" /><settlement geo_id="10682" id="10682" latitude="51.6813367579" longitude="39.0342486139" title="Семилуки" /><settlement geo_id="10686" id="10686" latitude="51.482169" longitude="40.420517" title="Анна" /><settlement geo_id="20214" id="20214" latitude="52.068735" longitude="39.717231" title="Усмань" /><settlement geo_id="100694" id="22666" latitude="51.9077080831" longitude="39.3712385371" title="Рамонь" /><settlement geo_id="100717" id="22754" latitude="51.8287883565" longitude="38.1205562196" title="Касторное" /><settlement geo_id="" id="33208" latitude="51.880673" longitude="39.59045" title="Краснолесный" /></zone><zone code="bel-gom" id="175" settlement_id="155" settlement_title="Гомель" title="Гомельская"><settlement geo_id="155" id="155" latitude="52.42416" longitude="31.014272" title="Гомель" /><settlement geo_id="102231" id="23319" latitude="52.714821" longitude="30.568582" title="Буда-Кошелево" /><settlement geo_id="33038" id="23320" latitude="52.254496" longitude="29.831377" title="Василевичи" /><settlement geo_id="26008" id="23330" latitude="52.348633" longitude="30.392117" title="Речица" /><settlement geo_id="33106" id="23334" latitude="51.917106" longitude="30.007913" title="Хойники" /></zone><zone code="ua-gorl" id="93" settlement_id="23045" settlement_title="Горловка" title="Горловская"><settlement geo_id="28896" id="23044" latitude="48.588674" longitude="37.986136" title="Бахмут" /><settlement geo_id="21774" id="23045" latitude="48.311261" longitude="38.043306" title="Горловка" /><settlement geo_id="27009" id="25714" latitude="48.463656" longitude="37.95932" title="Курдюмовка" /><settlement geo_id="28959" id="25756" latitude="48.716441" longitude="38.034826" title="Соледар" /></zone><zone code="gtn" id="131" settlement_id="21946" settlement_title="Пролетарский" title="Готнянская"><settlement geo_id="110297" id="21946" latitude="50.795539" longitude="35.773038" title="Пролетарский" /></zone><zone code="ua-greb" id="188" settlement_id="23137" settlement_title="Гребёнка" title="Гребенковская"><settlement geo_id="28723" id="23137" latitude="50.121514" longitude="32.432522" title="Гребёнка" /><settlement geo_id="27844" id="23140" latitude="50.020145" longitude="32.974189" title="Лубны" /><settlement geo_id="28396" id="23143" latitude="50.238152" longitude="32.506021" title="Пирятин" /><settlement geo_id="28381" id="23179" latitude="50.58108" longitude="32.38389" title="Прилуки" /><settlement geo_id="28654" id="23426" latitude="50.8429956614" longitude="32.4099915102" title="Ичня" /><settlement geo_id="27864" id="24848" latitude="50.472595" longitude="32.376051" title="Линовица" /><settlement geo_id="27891" id="24910" latitude="50.094825" longitude="32.646766" title="Лазорки" /></zone><zone code="bel-gr" id="178" settlement_id="10274" settlement_title="Гродно" title="Гродненская"><settlement geo_id="10274" id="10274" latitude="53.678122" longitude="23.829807" title="Гродно" /><settlement geo_id="26923" id="23337" latitude="53.151071" longitude="24.440638" title="Волковыск" /><settlement geo_id="101682" id="23340" latitude="53.165771" longitude="24.789217" title="Зельва" /><settlement geo_id="26007" id="23343" latitude="53.429927" longitude="24.545764" title="Мосты" /><settlement geo_id="102217" id="23347" latitude="53.014985" longitude="24.077194" title="Свислочь" /><settlement geo_id="102218" id="26961" latitude="53.571506" longitude="24.22175" title="Скидель" /></zone><zone code="grz" id="199" settlement_id="1106" settlement_title="Грозный" title="Грозненская"><settlement geo_id="1106" id="1106" latitude="43.317992" longitude="45.698197" title="Грозный" /><settlement geo_id="11025" id="11025" latitude="43.301799" longitude="45.881493" title="Аргун" /><settlement geo_id="11026" id="11026" latitude="43.348626" longitude="46.107052" title="Гудермес" /><settlement geo_id="101832" id="26654" latitude="43.307677" longitude="45.770641" title="Ханкала" /></zone><zone code="gr" id="128" settlement_id="20210" settlement_title="Грязи" title="Грязинская"><settlement geo_id="10683" id="10683" latitude="51.848317" longitude="40.810266" title="Эртиль" /><settlement geo_id="20210" id="20210" latitude="52.4861347841" longitude="39.9483236931" title="Грязи" /><settlement geo_id="20226" id="20226" latitude="51.4483097964" longitude="41.9285886614" title="Грибановский" /><settlement geo_id="20661" id="20661" latitude="51.838458661" longitude="41.4696736772" title="Жердевка" /><settlement geo_id="20266" id="22139" latitude="52.1633876833" longitude="40.4671619524" title="Добринка" /><settlement geo_id="100696" id="22667" latitude="51.6840148282" longitude="41.5812596931" title="Терновка" /><settlement geo_id="100779" id="22683" latitude="52.0902389318" longitude="40.7859654814" title="Мордово" /><settlement geo_id="100788" id="22690" latitude="52.0000397251" longitude="41.1547047037" title="Токаревка" /></zone><zone code="ua-deb" id="91" settlement_id="23047" settlement_title="Дебальцево" title="Дебальцевская"><settlement geo_id="24871" id="23047" latitude="48.336362" longitude="38.404713" title="Дебальцево" /><settlement geo_id="24874" id="23050" latitude="48.225882" longitude="38.203135" title="Енакиево" /><settlement geo_id="24878" id="23054" latitude="48.039366" longitude="38.768018" title="Снежное" /><settlement geo_id="24879" id="23072" latitude="48.0413518115" longitude="38.5828580847" title="Торез" /><settlement geo_id="24885" id="23099" latitude="48.483371" longitude="38.77863" title="Алчевск" /><settlement geo_id="28887" id="23100" latitude="48.1095582633" longitude="39.0805957094" title="Антрацит" /><settlement geo_id="24888" id="23104" latitude="48.1408766098" longitude="38.9260847121" title="Красный Луч" /><settlement geo_id="24891" id="23110" latitude="48.095911" longitude="39.370343" title="Ровеньки" /><settlement geo_id="28903" id="23113" latitude="48.049102" longitude="39.651583" title="Свердловск" /><settlement geo_id="24875" id="23231" latitude="48.1441562466" longitude="38.3491309918" title="Кировское" /><settlement geo_id="28897" id="23578" latitude="48.439141" longitude="38.698879" title="Артёмовск" /><settlement geo_id="27450" id="23582" latitude="48.408505" longitude="38.634422" title="Зоринск" /><settlement geo_id="27397" id="25436" latitude="48.32861" longitude="38.491119" title="Чернухино" /><settlement geo_id="27046" id="25709" latitude="48.316158" longitude="38.275888" title="Углегорск" /></zone><zone code="ua-dnp" id="46" settlement_id="141" settlement_title="Днепр" title="Днепропетровская"><settlement geo_id="141" id="141" latitude="48.464717" longitude="35.046181" title="Днепр" /><settlement geo_id="29024" id="22885" latitude="48.315021" longitude="35.527129" title="Синельниково" /><settlement geo_id="21775" id="23039" latitude="48.49704" longitude="34.603939" title="Днепродзержинск" /><settlement geo_id="28051" id="23040" latitude="48.643729" longitude="35.233918" title="Новомосковск" /><settlement geo_id="28268" id="23197" latitude="49.025834" longitude="35.296745" title="Перещепино" /><settlement geo_id="28398" id="23203" latitude="48.414419" longitude="33.703871" title="Пятихатки" /><settlement geo_id="27265" id="23214" latitude="48.482859" longitude="34.237728" title="Верховцево" /><settlement geo_id="24863" id="23219" latitude="48.463436" longitude="34.016877" title="Вольногорск" /><settlement geo_id="28401" id="23220" latitude="48.549742" longitude="35.855291" title="Павлоград" /><settlement geo_id="29167" id="25646" latitude="48.326128" longitude="35.709395" title="Раздоры" /><settlement geo_id="28789" id="25678" latitude="48.351313" longitude="34.113633" title="Божедаровка" /><settlement geo_id="28397" id="25689" latitude="48.201569" longitude="35.807279" title="Письменное" /></zone><zone code="ua-don" id="92" settlement_id="142" settlement_title="Донецк" title="Донецкая"><settlement geo_id="142" id="142" latitude="48.015877" longitude="37.80285" title="Донецк" /><settlement geo_id="10366" id="10366" latitude="47.097132" longitude="37.543363" title="Мариуполь" /><settlement geo_id="24876" id="23046" latitude="48.101785" longitude="37.947667" title="Макеевка" /><settlement geo_id="24873" id="23049" latitude="48.624917" longitude="37.548025" title="Дружковка" /><settlement geo_id="27704" id="23051" latitude="48.284101" longitude="37.180538" title="Красноармейск" /><settlement geo_id="28784" id="23055" latitude="48.12089" longitude="37.846038" title="Ясиноватая" /><settlement geo_id="27302" id="23059" latitude="47.60214" longitude="37.488518" title="Волноваха" /><settlement geo_id="27732" id="23064" latitude="47.989175" longitude="37.305495" title="Курахово" /><settlement geo_id="27915" id="23209" latitude="48.248498" longitude="36.726231" title="Межевая" /><settlement geo_id="28837" id="23228" latitude="48.148374" longitude="37.732199" title="Авдеевка" /><settlement geo_id="27638" id="23229" latitude="48.512229" longitude="37.727008" title="Константиновка" /><settlement geo_id="24880" id="23237" latitude="48.030904" longitude="38.153129" title="Харцызск" /><settlement geo_id="28417" id="23655" latitude="47.373363" longitude="37.062288" title="Розовка" /><settlement geo_id="27803" id="25515" latitude="47.328729" longitude="36.69411" title="Камыш-Заря" /><settlement geo_id="28369" id="25654" latitude="48.117245" longitude="36.370867" title="Просяная" /><settlement geo_id="27490" id="25670" latitude="48.176026" longitude="36.472147" title="Демурино" /><settlement geo_id="27425" id="25690" latitude="48.126876" longitude="36.233959" title="Чаплино" /><settlement geo_id="27062" id="25701" latitude="47.462195" longitude="37.646959" title="Андреевка" /><settlement geo_id="27026" id="25706" latitude="48.225217" longitude="37.316014" title="Новогродовка" /><settlement geo_id="29151" id="25708" latitude="47.835035" longitude="37.649909" title="Оленовка" /><settlement geo_id="27027" id="25712" latitude="48.329753" longitude="37.839612" title="Новгородское" /><settlement geo_id="29150" id="25715" latitude="48.240768" longitude="37.612121" title="Очеретино" /><settlement geo_id="28125" id="25721" latitude="47.8035866574" longitude="38.0064236373" title="Новый Свет" /><settlement geo_id="28532" id="25739" latitude="48.237021" longitude="36.989332" title="Удачное" /><settlement geo_id="27780" id="25745" latitude="47.305544" longitude="37.603108" title="Кальчик" /><settlement geo_id="101709" id="26557" latitude="48.578714" longitude="37.616573" title="Алексеево-Дружковка" /></zone><zone code="ego" id="33" settlement_id="22102" settlement_title="Артёмовский" title="Егоршинская"><settlement geo_id="11163" id="11163" latitude="57.669006" longitude="63.030939" title="Ирбит" /><settlement geo_id="20685" id="20685" latitude="58.051088" longitude="65.26583" title="Тавда" /><settlement geo_id="20695" id="20695" latitude="57.85629" longitude="61.686997" title="Алапаевск" /><settlement geo_id="20705" id="20705" latitude="58.037322" longitude="63.695701" title="Туринск" /><settlement geo_id="37168" id="22102" latitude="57.365741" longitude="61.876554" title="Артёмовский" /></zone><zone code="ekt" id="3" settlement_id="54" settlement_title="Екатеринбург" title="Екатеринбургская"><settlement geo_id="54" id="54" latitude="56.838607" longitude="60.605514" title="Екатеринбург" /><settlement geo_id="11160" id="11160" latitude="57.008387" longitude="61.520835" title="Асбест" /><settlement geo_id="11164" id="11164" latitude="56.427714" longitude="61.922214" title="Каменск-Уральский" /><settlement geo_id="11170" id="11170" latitude="57.247284" longitude="60.095352" title="Новоуральск" /><settlement geo_id="11171" id="11171" latitude="56.903126" longitude="59.889117" title="Первоуральск" /><settlement geo_id="11200" id="11200" latitude="56.061377" longitude="60.241528" title="Верхний Уфалей" /><settlement geo_id="20224" id="20224" latitude="56.813301" longitude="59.930718" title="Ревда" /><settlement geo_id="20225" id="20225" latitude="57.062836" longitude="63.745394" title="Талица" /><settlement geo_id="20233" id="20233" latitude="56.777725" longitude="62.051428" title="Богданович" /><settlement geo_id="20256" id="20256" latitude="56.883892" longitude="62.045433" title="Сухой Лог" /><settlement geo_id="20654" id="20654" latitude="57.491263" longitude="60.18358" title="Невьянск" /><settlement geo_id="20664" id="20664" latitude="56.848811" longitude="62.714582" title="Камышлов" /><settlement geo_id="20684" id="20684" latitude="57.364437" longitude="61.43079" title="Реж" /><settlement geo_id="21726" id="21726" latitude="56.431211" longitude="60.309852" title="Полевской" /><settlement geo_id="37169" id="22095" latitude="56.694558" longitude="60.834351" title="Арамиль" /><settlement geo_id="100834" id="22098" latitude="57.069514" longitude="64.554163" title="Тугулым" /><settlement geo_id="37126" id="22099" latitude="56.976399" longitude="63.267679" title="Пышма" /><settlement geo_id="100835" id="22103" latitude="57.245521" longitude="58.72225" title="Шаля" /><settlement geo_id="110271" id="22916" latitude="56.791157" longitude="59.526" title="Дружинино" /></zone><zone code="el" id="126" settlement_id="10713" settlement_title="Елец" title="Елецкая"><settlement geo_id="10713" id="10713" latitude="52.6057462445" longitude="38.5234174127" title="Елец" /><settlement geo_id="20213" id="20213" latitude="53.013629" longitude="39.163937" title="Лебедянь" /><settlement geo_id="100734" id="22133" latitude="53.208467" longitude="39.447171" title="Лев Толстой" /><settlement geo_id="100736" id="22136" latitude="52.147895" longitude="38.285254" title="Тербуны" /><settlement geo_id="100806" id="22497" latitude="53.421378" longitude="38.65477" title="Куркино" /><settlement geo_id="100731" id="23188" latitude="52.324416" longitude="38.364099" title="Долгоруково" /><settlement geo_id="100735" id="26279" latitude="52.753571" longitude="38.312705" title="Становое" /></zone><zone code="ua-zh" id="54" settlement_id="10343" settlement_title="Житомир" title="Житомирская"><settlement geo_id="10343" id="10343" latitude="50.26804" longitude="28.69917" title="Житомир" /><settlement geo_id="27659" id="23666" latitude="50.3159966655" longitude="29.0197418444" title="Коростышев" /><settlement geo_id="27401" id="23682" latitude="50.455427" longitude="28.683244" title="Черняхов" /><settlement geo_id="28488" id="25014" latitude="50.367644" longitude="28.692156" title="Троковичи" /><settlement geo_id="27653" id="25025" latitude="50.041517" longitude="29.518187" title="Корнин" /><settlement geo_id="29091" id="25068" latitude="50.691542" longitude="28.624249" title="Новая Боровая" /></zone><zone code="bel-zhl" id="174" settlement_id="23325" settlement_title="Жлобин" title="Жлобинская"><settlement geo_id="26966" id="23325" latitude="52.889081" longitude="30.036709" title="Жлобин" /><settlement geo_id="26027" id="23331" latitude="53.095361361" longitude="30.0570088096" title="Рогачев" /><settlement geo_id="26004" id="23332" latitude="52.630323" longitude="29.712326" title="Светлогорск" /></zone><zone code="ua-zhm" id="57" settlement_id="22884" settlement_title="Жмеринка" title="Жмеринская"><settlement geo_id="963" id="963" latitude="49.233082" longitude="28.468213" title="Винница" /><settlement geo_id="27361" id="22433" latitude="48.533634" longitude="28.746598" title="Вапнярка" /><settlement geo_id="28590" id="22884" latitude="49.033462" longitude="28.11272" title="Жмеринка" /><settlement geo_id="27932" id="23029" latitude="48.457762" longitude="27.774287" title="Могилёв-Подольский" /><settlement geo_id="27210" id="23696" latitude="49.035826" longitude="27.723875" title="Бар" /><settlement geo_id="28690" id="23699" latitude="49.105356" longitude="28.335622" title="Гнивань" /><settlement geo_id="28464" id="25114" latitude="48.788026" longitude="28.47238" title="Рахни-Лесные" /><settlement geo_id="27255" id="25138" latitude="48.606483" longitude="27.7808" title="Вендичаны" /><settlement geo_id="27177" id="25154" latitude="49.086378" longitude="28.141932" title="Браилов" /></zone><zone code="ua-zap" id="48" settlement_id="960" settlement_title="Запорожье" title="Запорожская"><settlement geo_id="960" id="960" latitude="47.838796" longitude="35.139561" title="Запорожье" /><settlement geo_id="10367" id="10367" latitude="46.868626" longitude="35.355936" title="Мелитополь" /><settlement geo_id="24881" id="23086" latitude="47.494697" longitude="34.64664" title="Энергодар" /><settlement geo_id="24866" id="23196" latitude="47.6551216673" longitude="34.6222638135" title="Марганец" /><settlement geo_id="28941" id="23221" latitude="48.124897" longitude="35.510018" title="Славгород" /><settlement geo_id="28480" id="23641" latitude="47.232779" longitude="35.718646" title="Токмак" /><settlement geo_id="27369" id="23644" latitude="47.439769" longitude="35.278264" title="Васильевка" /><settlement geo_id="27272" id="23646" latitude="47.024969" longitude="34.880338" title="Весёлое" /><settlement geo_id="27312" id="23647" latitude="47.943284" longitude="35.437904" title="Вольнянск" /><settlement geo_id="28221" id="23651" latitude="47.559674" longitude="35.785654" title="Орехов" /><settlement geo_id="28340" id="23652" latitude="47.47554" longitude="36.260512" title="Пологи" /><settlement geo_id="27263" id="25468" latitude="47.219422" longitude="36.314539" title="Верхний Токмак" /><settlement geo_id="28472" id="25500" latitude="47.8276926992" longitude="36.1255101487" title="Терноватое" /><settlement geo_id="28036" id="25510" latitude="47.080963" longitude="35.314494" title="Новобогдановка" /><settlement geo_id="27738" id="25524" latitude="47.72237" longitude="35.194466" title="Кушугум" /><settlement geo_id="27506" id="25537" latitude="47.380863" longitude="35.031739" title="Днепрорудное" /></zone><zone code="zim" id="181" settlement_id="11265" settlement_title="Зима" title="Зиминская"><settlement geo_id="11265" id="11265" latitude="53.925611" longitude="102.051017" title="Зима" /><settlement geo_id="11271" id="11271" latitude="54.55712" longitude="100.578038" title="Тулун" /><settlement geo_id="100921" id="23731" latitude="54.323558" longitude="101.503803" title="Куйтун" /></zone><zone code="ua-zn" id="36" settlement_id="23092" settlement_title="Знаменка" title="Знаменская"><settlement geo_id="20221" id="20221" latitude="48.523083" longitude="32.261911" title="Кировоград" /><settlement geo_id="28865" id="23088" latitude="48.666068" longitude="33.13868" title="Александрия" /><settlement geo_id="27443" id="23092" latitude="48.720252" longitude="32.647101" title="Знаменка" /><settlement geo_id="28344" id="23095" latitude="48.245425" longitude="31.413821" title="Помошная" /><settlement geo_id="27663" id="23404" latitude="49.428218749" longitude="31.3151526824" title="Корсунь-Шевченковский" /></zone><zone code="ua-if" id="216" settlement_id="10345" settlement_title="Ивано-Франковск" title="Ивано-Франковская"><settlement geo_id="10345" id="10345" latitude="48.922629" longitude="24.711108" title="Ивано-Франковск" /><settlement geo_id="28465" id="23082" latitude="48.0545394598" longitude="24.2121006296" title="Рахов" /><settlement geo_id="27138" id="23623" latitude="49.0634216066" longitude="23.8718921377" title="Болехов" /><settlement geo_id="27768" id="23624" latitude="49.0129806704" longitude="24.3494806772" title="Калуш" /><settlement geo_id="27619" id="23625" latitude="48.534024" longitude="25.063388" title="Коломыя" /><settlement geo_id="28755" id="23629" latitude="49.137602" longitude="24.731534" title="Галич" /><settlement geo_id="27521" id="23631" latitude="48.982165416" longitude="23.9872903862" title="Долина" /><settlement geo_id="28174" id="23633" latitude="48.6239559196" longitude="24.5850815344" title="Надворная" /><settlement geo_id="24882" id="25922" latitude="48.447823229" longitude="24.5516930952" title="Яремча" /><settlement geo_id="26998" id="25924" latitude="48.2947474112" longitude="24.5681816931" title="Ворохта" /><settlement geo_id="29240" id="25926" latitude="49.039083" longitude="24.759421" title="Езуполь" /><settlement geo_id="27169" id="25933" latitude="49.0008283638" longitude="24.1976770845" title="Брошнев-Осада" /><settlement geo_id="27898" id="25937" latitude="48.5525008163" longitude="24.7358785076" title="Ланчин" /><settlement geo_id="27489" id="25938" latitude="48.508874" longitude="24.616011" title="Делятин" /><settlement geo_id="29238" id="25945" latitude="48.7366132095" longitude="24.8452695344" title="Отыня" /><settlement geo_id="27189" id="25957" latitude="49.216697" longitude="24.647433" title="Бурштын" /><settlement geo_id="28785" id="26007" latitude="48.2565785431" longitude="24.3541966296" title="Ясиня" /></zone><zone code="iv" id="45" settlement_id="5" settlement_title="Иваново" title="Ивановская"><settlement geo_id="5" id="5" latitude="57.000348" longitude="40.973921" title="Иваново" /><settlement geo_id="10665" id="10665" latitude="56.291079" longitude="39.385906" title="Кольчугино" /><settlement geo_id="10688" id="10688" latitude="57.221215" longitude="41.923651" title="Вичуга" /><settlement geo_id="10689" id="10689" latitude="57.441276" longitude="42.142123" title="Кинешма" /><settlement geo_id="10690" id="10690" latitude="56.9519303748" longitude="41.1389427407" title="Кохма" /><settlement geo_id="10691" id="10691" latitude="56.850726214" longitude="41.3518398651" title="Шуя" /><settlement geo_id="20229" id="20229" latitude="56.857746" longitude="40.56525" title="Тейково" /><settlement geo_id="20597" id="20597" latitude="56.566547" longitude="40.119533" title="Гаврилов Посад" /><settlement geo_id="20682" id="20682" latitude="57.245073" longitude="41.113483" title="Фурманов" /><settlement geo_id="20757" id="20757" latitude="56.48556" longitude="39.6691" title="Юрьев-Польский" /><settlement geo_id="100702" id="22391" latitude="56.5893400324" longitude="41.212016" title="Савино" /><settlement geo_id="" id="40769" latitude="57.281597" longitude="40.914551" title="Малаховский" /></zone><zone code="izh" id="75" settlement_id="44" settlement_title="Ижевск" title="Ижевская"><settlement geo_id="44" id="44" latitude="56.852775" longitude="53.211463" title="Ижевск" /><settlement geo_id="11114" id="11114" latitude="56.119897" longitude="54.301187" title="Нефтекамск" /><settlement geo_id="11149" id="11149" latitude="57.0418407152" longitude="54.0162791312" title="Воткинск" /><settlement geo_id="11151" id="11151" latitude="56.446036" longitude="52.203149" title="Можга" /><settlement geo_id="11152" id="11152" latitude="56.449297" longitude="53.78008" title="Сарапул" /><settlement geo_id="20012" id="20012" latitude="56.52534" longitude="53.013879" title="Агрыз" /><settlement geo_id="20072" id="20072" latitude="56.260151" longitude="54.228777" title="Камбарка" /><settlement geo_id="20243" id="20243" latitude="56.771222" longitude="54.138373" title="Чайковский" /><settlement geo_id="20252" id="20252" latitude="56.507897" longitude="57.205036" title="Октябрьский" /><settlement geo_id="20656" id="20656" latitude="56.27162" longitude="54.927073" title="Янаул" /><settlement geo_id="20679" id="20679" latitude="56.498187" longitude="56.078697" title="Чернушка" /><settlement geo_id="20691" id="20691" latitude="56.592293" longitude="57.76179" title="Красноуфимск" /><settlement geo_id="101158" id="21987" latitude="56.427961" longitude="55.596733" title="Куеда" /><settlement geo_id="110305" id="22107" latitude="56.842123" longitude="59.067221" title="Бисерть" /><settlement geo_id="101326" id="22117" latitude="57.557449" longitude="53.050557" title="Игра" /><settlement geo_id="101336" id="22128" latitude="56.989076" longitude="52.181907" title="Ува" /></zone><zone code="ua-ilv" id="94" settlement_id="23062" settlement_title="Иловайск" title="Иловайская"><settlement geo_id="28868" id="23056" latitude="47.79951" longitude="38.48985" title="Амвросиевка" /><settlement geo_id="27049" id="23062" latitude="47.921746" longitude="38.196834" title="Иловайск" /><settlement geo_id="27627" id="25723" latitude="47.667158355" longitude="38.0628921837" title="Комсомольское" /><settlement geo_id="27294" id="25758" latitude="47.6926164145" longitude="38.1639304943" title="Войковский" /></zone><zone code="ikt" id="180" settlement_id="63" settlement_title="Иркутск" title="Иркутская"><settlement geo_id="63" id="63" latitude="52.286387" longitude="104.28066" title="Иркутск" /><settlement geo_id="11256" id="11256" latitude="52.550732" longitude="103.91398" title="Ангарск" /><settlement geo_id="11257" id="11257" latitude="51.515532" longitude="104.141805" title="Байкальск" /><settlement geo_id="11272" id="11272" latitude="52.728915" longitude="103.650248" title="Усолье-Сибирское" /><settlement geo_id="11274" id="11274" latitude="53.147724" longitude="103.085625" title="Черемхово" /><settlement geo_id="11275" id="11275" latitude="52.227382" longitude="104.11578" title="Шелехов" /><settlement geo_id="20096" id="20096" latitude="51.658214" longitude="103.722728" title="Слюдянка" /><settlement geo_id="" id="22943" latitude="51.870264" longitude="104.809724" title="Порт Байкал" /><settlement geo_id="100918" id="22956" latitude="53.567695" longitude="102.518122" title="Залари" /><settlement geo_id="110944" id="23732" latitude="53.35696" longitude="102.759778" title="Кутулик" /><settlement geo_id="100487" id="26211" latitude="51.541749" longitude="104.058044" title="Утулик" /></zone><zone code="yshk" id="77" settlement_id="41" settlement_title="Йошкар-Ола" title="Йошкар-Олинская"><settlement geo_id="41" id="41" latitude="56.634407" longitude="47.899878" title="Йошкар-Ола" /><settlement geo_id="11075" id="11075" latitude="57.285675" longitude="47.840659" title="Яранск" /><settlement geo_id="110307" id="21978" latitude="56.152422" longitude="48.324757" title="Красногорский" /></zone><zone code="kzn" id="74" settlement_id="43" settlement_title="Казань" title="Казанская"><settlement geo_id="43" id="43" latitude="55.795793" longitude="49.106585" title="Казань" /><settlement geo_id="11125" id="11125" latitude="55.842368" longitude="48.562601" title="Зеленодольск" /><settlement geo_id="20020" id="20020" latitude="56.230577" longitude="51.033543" title="Вятские Поляны" /><settlement geo_id="20586" id="20586" latitude="54.964749" longitude="48.265408" title="Буинск" /><settlement geo_id="20721" id="20721" latitude="55.863158" longitude="48.360929" title="Волжск" /><settlement geo_id="110301" id="21915" latitude="55.838441" longitude="48.707304" title="Васильево" /><settlement geo_id="100514" id="21917" latitude="56.076825" longitude="49.886493" title="Арск" /><settlement geo_id="101350" id="21918" latitude="55.931493" longitude="49.307677" title="Высокая Гора" /><settlement geo_id="110302" id="21921" latitude="55.80064" longitude="48.527324" title="Нижние Вязовые" /><settlement geo_id="101354" id="21930" latitude="56.181605" longitude="50.920104" title="Кукмор" /><settlement geo_id="110303" id="21931" latitude="56.190176" longitude="50.398658" title="Шемордан" /><settlement geo_id="101329" id="22120" latitude="56.284089" longitude="51.512057" title="Кизнер" /><settlement geo_id="101234" id="22866" latitude="55.68667" longitude="47.943563" title="Урмары" /><settlement geo_id="110304" id="23990" latitude="55.46018" longitude="48.420811" title="Куланга" /><settlement geo_id="37122" id="24531" latitude="56.2444" longitude="51.293973" title="Сосновка" /></zone><zone code="ua-kzt" id="58" settlement_id="23027" settlement_title="Казатин" title="Казатинская"><settlement geo_id="28476" id="22631" latitude="49.365972" longitude="29.709006" title="Тетиев" /><settlement geo_id="27764" id="23027" latitude="49.705985" longitude="28.831593" title="Казатин" /><settlement geo_id="28614" id="23402" latitude="49.242858" longitude="30.096353" title="Жашков" /><settlement geo_id="27099" id="23669" latitude="49.888511" longitude="28.614762" title="Бердичев" /><settlement geo_id="27412" id="23683" latitude="50.018638" longitude="28.145177" title="Чуднов" /><settlement geo_id="27770" id="23701" latitude="49.461435" longitude="28.553333" title="Калиновка" /><settlement geo_id="28362" id="23704" latitude="49.438566" longitude="29.294842" title="Погребище" /><settlement geo_id="27231" id="25012" latitude="49.982332" longitude="28.246266" title="Великие Коровинцы" /><settlement geo_id="28683" id="25143" latitude="49.78784" longitude="28.733426" title="Глуховцы" /></zone><zone code="kld" id="6" settlement_id="22" settlement_title="Калининград" title="Калининградская"><settlement geo_id="22" id="22" latitude="54.70739" longitude="20.507307" title="Калининград" /><settlement geo_id="10858" id="10858" latitude="54.654745" longitude="19.912416" title="Балтийск" /><settlement geo_id="10860" id="10860" latitude="55.082369" longitude="21.879178" title="Советск" /><settlement geo_id="20136" id="20136" latitude="54.635735" longitude="21.06923" title="Гвардейск" /><settlement geo_id="20137" id="20137" latitude="54.793049" longitude="20.629029" title="Гурьевск" /><settlement geo_id="20138" id="20138" latitude="54.584276" longitude="22.197999" title="Гусев" /><settlement geo_id="20139" id="20139" latitude="54.959475" longitude="20.471294" title="Зеленоградск" /><settlement geo_id="20142" id="20142" latitude="54.6277095477" longitude="22.5784000815" title="Нестеров" /><settlement geo_id="20144" id="20144" latitude="54.948799" longitude="20.22441" title="Пионерский" /><settlement geo_id="20145" id="20145" latitude="54.855253" longitude="21.100438" title="Полесск" /><settlement geo_id="20148" id="20148" latitude="55.042937" longitude="21.659846" title="Славск" /><settlement geo_id="20149" id="20149" latitude="54.628653" longitude="21.818138" title="Черняховск" /><settlement geo_id="20578" id="20578" latitude="54.731867" longitude="20.003909" title="Приморск" /><settlement geo_id="20580" id="20580" latitude="54.570463" longitude="20.17573" title="Ладушкин" /><settlement geo_id="20603" id="20603" latitude="54.463592" longitude="19.934847" title="Мамоново" /><settlement geo_id="20620" id="20620" latitude="54.939284" longitude="20.398566" title="Сокольники" /><settlement geo_id="20671" id="20671" latitude="54.615157" longitude="21.214093" title="Знаменск" /><settlement geo_id="10859" id="26489" latitude="54.932529" longitude="20.157809" title="Светлогорск" /></zone><zone code="bel-kln" id="176" settlement_id="23326" settlement_title="Калинковичи" title="Калинковичская"><settlement geo_id="21274" id="21274" latitude="52.078368" longitude="29.20232" title="Мозырь" /><settlement geo_id="102234" id="23323" latitude="51.820144" longitude="29.151785" title="Ельск" /><settlement geo_id="33027" id="23324" latitude="52.219093" longitude="27.853334" title="Житковичи" /><settlement geo_id="102235" id="23326" latitude="52.139078" longitude="29.315864" title="Калинковичи" /></zone><zone code="klg" id="8" settlement_id="6" settlement_title="Калуга" title="Калужская"><settlement geo_id="6" id="6" latitude="54.533419" longitude="36.279277" title="Калуга" /><settlement geo_id="10695" id="10695" latitude="54.0368853442" longitude="35.758594545" title="Козельск" /><settlement geo_id="10696" id="10696" latitude="54.7738720234" longitude="35.915117545" title="Кондрово" /><settlement geo_id="20207" id="20207" latitude="54.117313" longitude="35.342953" title="Сухиничи" /><settlement geo_id="100704" id="21881" latitude="54.3086440501" longitude="34.5277802408" title="Барятино" /><settlement geo_id="100703" id="21885" latitude="54.3880541175" longitude="35.7391739683" title="Бабынино" /><settlement geo_id="100706" id="21889" latitude="54.9884453218" longitude="35.3096298571" title="Износки" /><settlement geo_id="37164" id="22494" latitude="53.816622" longitude="36.118572" title="Белёв" /><settlement geo_id="100774" id="22531" latitude="55.0826988656" longitude="35.0099877619" title="Тёмкино" /></zone><zone code="knsh" id="76" settlement_id="20074" settlement_title="Канаш" title="Канашская"><settlement geo_id="45" id="45" latitude="56.1439" longitude="47.248887" title="Чебоксары" /><settlement geo_id="20006" id="20006" latitude="54.759181" longitude="46.267899" title="Ардатов" /><settlement geo_id="20073" id="20073" latitude="54.849952" longitude="46.578471" title="Алатырь" /><settlement geo_id="20074" id="20074" latitude="55.509603" longitude="47.476479" title="Канаш" /><settlement geo_id="20077" id="20077" latitude="55.827874" longitude="47.38835" title="Цивильск" /><settlement geo_id="101225" id="21906" latitude="54.404054" longitude="45.783445" title="Чамзинка" /><settlement geo_id="110306" id="21907" latitude="54.434315" longitude="45.831684" title="Комсомольский" /><settlement geo_id="101212" id="21909" latitude="54.584353" longitude="46.084668" title="Атяшево" /><settlement geo_id="100535" id="22862" latitude="55.293513" longitude="47.033555" title="Ибреси" /></zone><zone code="knd" id="69" settlement_id="10895" settlement_title="Кандалакша" title="Кандалакшинская"><settlement geo_id="10895" id="10895" latitude="67.159907" longitude="32.418025" title="Кандалакша" /><settlement geo_id="20156" id="20156" latitude="67.374047" longitude="32.48786" title="Полярные Зори" /></zone><zone code="ktz-kar" id="16" settlement_id="164" settlement_title="Караганды" title="Карагандинская"><settlement geo_id="164" id="164" latitude="49.806406" longitude="73.085485" title="Караганды" /><settlement geo_id="35393" id="21095" latitude="50.0794607278" longitude="72.9260162991" title="Темиртау" /><settlement geo_id="29533" id="24627" latitude="48.258083" longitude="72.857708" title="Акадыр" /><settlement geo_id="29532" id="24628" latitude="49.5768043777" longitude="72.8926079537" title="Абай" /></zone><zone code="krtl" id="114" settlement_id="11203" settlement_title="Карталы" title="Карталинская"><settlement geo_id="11198" id="11198" latitude="53.383165" longitude="60.988442" title="Варна" /><settlement geo_id="11203" id="11203" latitude="53.054125" longitude="60.642734" title="Карталы" /></zone><zone code="kau" id="30" settlement_id="11476" settlement_title="Каунас" title="Каунасская"><settlement geo_id="11476" id="11476" latitude="54.894539" longitude="23.909964" title="Каунас" /></zone><zone code="kmr" id="83" settlement_id="64" settlement_title="Кемерово" title="Кемеровская"><settlement geo_id="64" id="64" latitude="55.354881" longitude="86.086838" title="Кемерово" /><settlement geo_id="11297" id="11297" latitude="55.278339" longitude="85.615706" title="Топки" /></zone><zone code="kem" id="68" settlement_id="20126" settlement_title="Кемь" title="Кемская"><settlement geo_id="10936" id="10936" latitude="63.743303" longitude="34.303373" title="Сегежа" /><settlement geo_id="10938" id="10938" latitude="64.542007" longitude="34.775518" title="Беломорск" /><settlement geo_id="20126" id="20126" latitude="64.955422" longitude="34.568756" title="Кемь" /><settlement geo_id="22420" id="24502" latitude="65.3539" longitude="34.265976" title="Старая Кузема" /><settlement geo_id="101075" id="26293" latitude="66.075391" longitude="33.060868" title="Лоухи" /><settlement geo_id="101648" id="26521" latitude="65.897092" longitude="33.709542" title="Амбарный" /><settlement geo_id="101639" id="26522" latitude="63.893756" longitude="34.267144" title="Надвоицы" /><settlement geo_id="101741" id="26582" latitude="64.302253" longitude="34.420477" title="Летнереченский" /></zone><zone code="ua-kiv" id="50" settlement_id="143" settlement_title="Киев" title="Киевская"><settlement geo_id="143" id="143" latitude="50.450097" longitude="30.523397" title="Киев" /><settlement geo_id="10369" id="10369" latitude="49.812239" longitude="30.109252" title="Белая Церковь" /><settlement geo_id="27154" id="21913" latitude="50.348196" longitude="30.956142" title="Борисполь" /><settlement geo_id="27165" id="22615" latitude="50.514415" longitude="30.813546" title="Бровары" /><settlement geo_id="28780" id="22617" latitude="50.238006" longitude="31.792826" title="Яготин" /><settlement geo_id="28562" id="22619" latitude="50.051862" longitude="29.944107" title="Фастов" /><settlement geo_id="27820" id="22623" latitude="49.840788" longitude="30.784793" title="Кагарлык" /><settlement geo_id="27211" id="22624" latitude="50.346632" longitude="31.312962" title="Барышевка" /><settlement geo_id="27955" id="22626" latitude="49.648784" longitude="30.96907" title="Мироновка" /><settlement geo_id="28208" id="22629" latitude="49.657337" longitude="30.650171" title="Ольшаница" /><settlement geo_id="27150" id="22634" latitude="50.627906" longitude="29.889856" title="Бородянка" /><settlement geo_id="24883" id="22635" latitude="50.516936" longitude="30.248715" title="Ирпень" /><settlement geo_id="27116" id="22636" latitude="50.328208" longitude="31.499888" title="Березань" /><settlement geo_id="27136" id="23423" latitude="50.763497" longitude="31.370973" title="Бобровица" /><settlement geo_id="28138" id="23432" latitude="50.903321" longitude="31.603886" title="Носовка" /><settlement geo_id="26994" id="23615" latitude="50.547211" longitude="30.218793" title="Буча" /><settlement geo_id="27164" id="23617" latitude="50.314651" longitude="30.2985" title="Боярка" /><settlement geo_id="27341" id="23618" latitude="50.384027" longitude="30.368101" title="Вишнёвое" /><settlement geo_id="28533" id="23620" latitude="50.149447" longitude="30.741397" title="Украинка" /><settlement geo_id="29073" id="23622" latitude="49.694599" longitude="30.508115" title="Ракитное" /><settlement geo_id="27989" id="23671" latitude="50.773851" longitude="29.296291" title="Малин" /><settlement geo_id="29093" id="23678" latitude="49.944452" longitude="29.462237" title="Попельня" /><settlement geo_id="28317" id="24880" latitude="51.102406" longitude="32.441706" title="Плиски" /><settlement geo_id="29057" id="24882" latitude="50.824864" longitude="31.549955" title="Кобыжча" /><settlement geo_id="27410" id="25047" latitude="50.873533" longitude="28.936515" title="Чоповичи" /><settlement geo_id="27666" id="25168" latitude="49.981074" longitude="29.732706" title="Кожанка" /><settlement geo_id="28499" id="25188" latitude="50.140171" longitude="30.75198" title="Триполье" /><settlement geo_id="29076" id="25190" latitude="49.63626" longitude="30.831359" title="Карапыши" /><settlement geo_id="27774" id="25194" latitude="50.226031" longitude="30.226068" title="Калиновка" /><settlement geo_id="28680" id="25209" latitude="50.255863" longitude="30.30476" title="Глеваха" /><settlement geo_id="29074" id="25212" latitude="50.59291" longitude="30.943028" title="Великая Дымерка" /><settlement geo_id="28308" id="25215" latitude="50.694591" longitude="29.62925" title="Песковка" /><settlement geo_id="27481" id="25216" latitude="50.65542" longitude="29.795689" title="Загальцы" /></zone><zone code="kir" id="72" settlement_id="46" settlement_title="Киров" title="Кировская"><settlement geo_id="46" id="46" latitude="58.602901" longitude="49.668077" title="Киров" /><settlement geo_id="11071" id="11071" latitude="58.5363668142" longitude="50.0251853094" title="Кирово-Чепецк" /><settlement geo_id="11072" id="11072" latitude="58.5174922266" longitude="49.4586765423" title="Лянгасово" /><settlement geo_id="11150" id="11150" latitude="58.132943" longitude="52.666536" title="Глазов" /><settlement geo_id="20021" id="20021" latitude="58.403712" longitude="51.134054" title="Зуевка" /><settlement geo_id="20022" id="20022" latitude="59.345706" longitude="52.22458" title="Кирс" /><settlement geo_id="20023" id="20023" latitude="58.30390926" longitude="48.286352172" title="Котельнич" /><settlement geo_id="20024" id="20024" latitude="60.629501" longitude="47.258341" title="Луза" /><settlement geo_id="20026" id="20026" latitude="59.396637" longitude="48.962582" title="Мураши" /><settlement geo_id="20028" id="20028" latitude="58.680316" longitude="52.20818" title="Омутнинск" /><settlement geo_id="101321" id="22110" latitude="57.973093" longitude="53.005255" title="Балезино" /><settlement geo_id="101340" id="22132" latitude="58.249075" longitude="52.111126" title="Яр" /><settlement geo_id="101106" id="22717" latitude="58.302258" longitude="47.108538" title="Ленинское" /><settlement geo_id="101096" id="22721" latitude="59.848121" longitude="48.275058" title="Опарино" /><settlement geo_id="101097" id="22722" latitude="58.403294" longitude="49.0534488135" title="Оричи" /><settlement geo_id="101101" id="22725" latitude="58.282212" longitude="47.505095" title="Свеча" /><settlement geo_id="101105" id="22729" latitude="58.35428" longitude="51.592096" title="Фалёнки" /><settlement geo_id="101107" id="22730" latitude="59.044023" longitude="49.272361" title="Юрья" /><settlement geo_id="110299" id="33191" latitude="58.5581581285" longitude="50.1806136221" title="Каринторф" /></zone><zone code="kl" id="32" settlement_id="11477" settlement_title="Клайпеда" title="Клайпедская"><settlement geo_id="11477" id="11477" latitude="55.695905" longitude="21.149836" title="Клайпеда" /></zone><zone code="ua-kov" id="215" settlement_id="23035" settlement_title="Ковель" title="Ковельская"><settlement geo_id="27275" id="23033" latitude="50.843647" longitude="24.33597" title="Владимир-Волынский" /><settlement geo_id="27800" id="23034" latitude="51.606942" longitude="24.961069" title="Камень-Каширский" /><settlement geo_id="27598" id="23035" latitude="51.221334" longitude="24.712045" title="Ковель" /><settlement geo_id="27876" id="23036" latitude="51.215087" longitude="24.043227" title="Любомль" /><settlement geo_id="29006" id="23037" latitude="51.442905" longitude="24.428302" title="Старая Выжевка" /><settlement geo_id="" id="23145" latitude="51.311134" longitude="26.303462" title="Антоновка" /><settlement geo_id="24903" id="23152" latitude="51.316926" longitude="25.891386" title="Кузнецовск" /><settlement geo_id="28650" id="23686" latitude="50.6380532559" longitude="24.3678547566" title="Иваничи" /><settlement geo_id="27993" id="23690" latitude="51.292634" longitude="25.533688" title="Маневичи" /><settlement geo_id="28426" id="23692" latitude="50.9102928161" longitude="25.2593253228" title="Рожище" /><settlement geo_id="28507" id="23693" latitude="51.078196" longitude="24.531966" title="Турийск" /><settlement geo_id="27847" id="25760" latitude="51.240664" longitude="24.364286" title="Луков" /><settlement geo_id="28269" id="25766" latitude="50.9876979776" longitude="25.1564299524" title="Переспа" /><settlement geo_id="27459" id="25768" latitude="51.629365" longitude="24.251854" title="Заболотье" /><settlement geo_id="28692" id="25785" latitude="51.0824789883" longitude="25.0074334868" title="Голобы" /><settlement geo_id="28542" id="25786" latitude="51.244213" longitude="24.931999" title="Уховецк" /><settlement geo_id="28318" id="25787" latitude="51.272219" longitude="25.132074" title="Поворск" /><settlement geo_id="27875" id="25788" latitude="51.179115" longitude="24.62011" title="Люблинец" /><settlement geo_id="28553" id="25797" latitude="50.862343" longitude="24.164982" title="Устилуг" /><settlement geo_id="28187" id="25798" latitude="50.928522" longitude="24.385487" title="Овадное" /><settlement geo_id="28463" id="25898" latitude="51.306314" longitude="25.994006" title="Рафаловка" /></zone><zone code="ua-kon" id="52" settlement_id="20553" settlement_title="Конотоп" title="Конотопская"><settlement geo_id="20553" id="20553" latitude="51.22324" longitude="33.187739" title="Конотоп" /><settlement geo_id="28682" id="23159" latitude="51.679695" longitude="33.937748" title="Глухов" /><settlement geo_id="27675" id="23160" latitude="51.551802" longitude="33.36356" title="Кролевец" /><settlement geo_id="28772" id="23162" latitude="51.910454" longitude="33.744566" title="Ямполь" /><settlement geo_id="28809" id="23163" latitude="51.858314" longitude="33.479487" title="Шостка" /><settlement geo_id="28788" id="23180" latitude="51.814555" longitude="31.942371" title="Щорс" /><settlement geo_id="29054" id="23183" latitude="51.187777" longitude="32.841551" title="Бахмач" /><settlement geo_id="28119" id="23187" latitude="51.993346" longitude="33.256494" title="Новгород-Северский" /><settlement geo_id="27656" id="23428" latitude="51.576208" longitude="32.987952" title="Короп" /><settlement geo_id="27912" id="23431" latitude="51.5319000035" longitude="32.2351208702" title="Мена" /><settlement geo_id="28924" id="23434" latitude="52.203653" longitude="32.582198" title="Семёновка" /><settlement geo_id="27188" id="23508" latitude="51.202874" longitude="33.847984" title="Бурынь" /><settlement geo_id="27535" id="23509" latitude="52.044009" longitude="33.945087" title="Дружба" /><settlement geo_id="28927" id="23510" latitude="52.18241" longitude="34.02207" title="Середина-Буда" /><settlement geo_id="28906" id="24763" latitude="51.952982" longitude="33.943772" title="Свесса" /><settlement geo_id="28395" id="24764" latitude="51.915836" longitude="33.278573" title="Пироговка" /><settlement geo_id="27314" id="24766" latitude="51.764023" longitude="33.480954" title="Воронеж (Сумской)" /><settlement geo_id="28867" id="24801" latitude="51.452895" longitude="33.219784" title="Алтыновка" /><settlement geo_id="27983" id="24858" latitude="51.4639354098" longitude="32.331582997" title="Макошино" /></zone><zone code="kon" id="89" settlement_id="21687" settlement_title="Коноша" title="Коношская"><settlement geo_id="10843" id="10843" latitude="61.063038" longitude="42.081903" title="Вельск" /><settlement geo_id="20724" id="20724" latitude="61.068884" longitude="43.231378" title="Октябрьский" /><settlement geo_id="21687" id="21687" latitude="60.974555" longitude="40.246896" title="Коноша" /><settlement geo_id="21688" id="21688" latitude="61.032927" longitude="42.488989" title="Кулой" /></zone><zone code="ua-krs" id="53" settlement_id="23670" settlement_title="Коростень" title="Коростенская"><settlement geo_id="28092" id="23075" latitude="50.598321" longitude="27.593142" title="Новоград-Волынский" /><settlement geo_id="28185" id="23076" latitude="51.3245" longitude="28.819368" title="Овруч" /><settlement geo_id="28199" id="23667" latitude="51.228364" longitude="27.648379" title="Олевск" /><settlement geo_id="27658" id="23670" latitude="50.957273" longitude="28.635459" title="Коростень" /><settlement geo_id="27853" id="23675" latitude="51.033946" longitude="28.382735" title="Лугины" /><settlement geo_id="29092" id="25026" latitude="51.11749" longitude="28.052053" title="Новые Белокоровичи" /><settlement geo_id="27558" id="25031" latitude="51.152744" longitude="27.975815" title="Диброва" /><settlement geo_id="28670" id="25036" latitude="51.142727" longitude="28.714967" title="Игнатполь" /><settlement geo_id="28274" id="25037" latitude="51.362212" longitude="28.844379" title="Першотравневое" /><settlement geo_id="27355" id="25039" latitude="51.565449" longitude="29.038445" title="Выступовичи" /><settlement geo_id="28765" id="25062" latitude="50.806149" longitude="28.065637" title="Яблонец" /></zone><zone code="kst" id="43" settlement_id="7" settlement_title="Кострома" title="Костромская"><settlement geo_id="7" id="7" latitude="57.767683" longitude="40.926418" title="Кострома" /><settlement geo_id="10700" id="10700" latitude="58.466348" longitude="41.544739" title="Буй" /><settlement geo_id="10702" id="10702" latitude="57.462742" longitude="40.55156" title="Нерехта" /><settlement geo_id="10703" id="10703" latitude="58.368468" longitude="42.343836" title="Галич" /><settlement geo_id="10704" id="10704" latitude="58.366446" longitude="45.516054" title="Шарья" /><settlement geo_id="20217" id="20217" latitude="58.334858" longitude="44.745587" title="Мантурово" /><settlement geo_id="20621" id="20621" latitude="58.292709" longitude="43.859808" title="Нея" /><settlement geo_id="102538" id="21756" latitude="58.400416" longitude="43.003485" title="Антропово" /><settlement geo_id="102544" id="21764" latitude="58.355257" longitude="46.31348" title="Поназырево" /><settlement geo_id="102546" id="21767" latitude="57.926125" longitude="41.675262" title="Судиславль" /></zone><zone code="ktl" id="90" settlement_id="10846" settlement_title="Котлас" title="Котласская"><settlement geo_id="10846" id="10846" latitude="61.25297" longitude="46.633217" title="Котлас" /><settlement geo_id="21686" id="21686" latitude="61.244553" longitude="46.87941" title="Вычегодский" /><settlement geo_id="21691" id="21691" latitude="61.755857" longitude="48.54701" title="Урдома" /></zone><zone code="ua-krsg" id="189" settlement_id="23120" settlement_title="Красноград" title="Красноградская"><settlement geo_id="27703" id="23120" latitude="49.3608019697" longitude="35.448137254" title="Красноград" /></zone><zone code="krr" id="154" settlement_id="35" settlement_title="Краснодар" title="Краснодарская"><settlement geo_id="35" id="35" latitude="45.023877" longitude="38.970157" title="Краснодар" /><settlement geo_id="970" id="970" latitude="44.734979" longitude="37.776018" title="Новороссийск" /><settlement geo_id="10991" id="10991" latitude="44.648137" longitude="39.127913" title="Горячий Ключ" /><settlement geo_id="10997" id="10997" latitude="44.911432" longitude="37.999098" title="Крымск" /><settlement geo_id="20183" id="20183" latitude="44.881872" longitude="38.143804" title="Абинск" /><settlement geo_id="20264" id="20264" latitude="45.199247" longitude="39.231914" title="Динская" /><settlement geo_id="20688" id="20688" latitude="45.459049" longitude="39.47123" title="Кореновск" /><settlement geo_id="20693" id="20693" latitude="45.223229" longitude="39.692321" title="Усть-Лабинск" /><settlement geo_id="21129" id="21129" latitude="46.0872347603" longitude="38.9411797778" title="Каневская" /><settlement geo_id="21141" id="21141" latitude="45.6293884538" longitude="38.9404348995" title="Тимашевск" /><settlement geo_id="100631" id="22919" latitude="45.7978210276" longitude="38.987715" title="Брюховецкая" /><settlement geo_id="100639" id="22926" latitude="44.871105" longitude="38.68978" title="Северская" /><settlement geo_id="100641" id="22929" latitude="45.36878" longitude="40.180114" title="Тбилисская" /><settlement geo_id="117216" id="22930" latitude="44.870485" longitude="38.339323" title="Ахтырский" /><settlement geo_id="" id="22935" latitude="44.867893" longitude="38.390815" title="Холмский" /><settlement geo_id="100632" id="26217" latitude="45.580852" longitude="39.647346" title="Выселки" /><settlement geo_id="101450" id="26424" latitude="46.1531936507" longitude="38.9584609312" title="Стародеревянковская" /><settlement geo_id="121562" id="36318" latitude="44.837131" longitude="37.654418" title="Верхнебаканский" /></zone><zone code="ua-krl" id="95" settlement_id="23063" settlement_title="Лиман" title="Краснолиманская"><settlement geo_id="27711" id="23063" latitude="48.965130107" longitude="37.8272734921" title="Лиман" /><settlement geo_id="101475" id="23067" latitude="49.0753223723" longitude="37.55126" title="Святогорск" /><settlement geo_id="" id="23411" latitude="48.869276" longitude="38.093508" title="Северск" /><settlement geo_id="28775" id="25735" latitude="49.0660762783" longitude="37.634107074" title="Яровая" /></zone><zone code="krsk" id="85" settlement_id="62" settlement_title="Красноярск" title="Красноярская"><settlement geo_id="62" id="62" latitude="56.010569" longitude="92.852545" title="Красноярск" /><settlement geo_id="11302" id="11302" latitude="56.304548" longitude="90.517527" title="Ачинск" /><settlement geo_id="11303" id="11303" latitude="55.964607" longitude="92.381691" title="Дивногорск" /><settlement geo_id="11307" id="11307" latitude="56.21248" longitude="95.73648" title="Канск" /><settlement geo_id="20084" id="20084" latitude="56.2127878644" longitude="89.5276640476" title="Боготол" /><settlement geo_id="20089" id="20089" latitude="56.239711" longitude="96.069346" title="Иланский" /><settlement geo_id="20090" id="20090" latitude="58.22919" longitude="92.470972" title="Лесосибирск" /><settlement geo_id="20091" id="20091" latitude="56.010926" longitude="90.395302" title="Назарово" /><settlement geo_id="20092" id="20092" latitude="55.302945" longitude="89.832175" title="Ужур" /><settlement geo_id="20093" id="20093" latitude="55.806083" longitude="94.329779" title="Уяр" /><settlement geo_id="101002" id="22050" latitude="56.20167" longitude="96.511641" title="Нижний Ингаш" /><settlement geo_id="100997" id="26303" latitude="56.163548" longitude="91.390937" title="Козулька" /></zone><zone code="ua-krmn" id="190" settlement_id="21609" settlement_title="Кременчуг" title="Кременчугская"><settlement geo_id="21609" id="21609" latitude="49.031517" longitude="33.436409" title="Кременчуг" /><settlement geo_id="28402" id="23094" latitude="48.911836" longitude="33.338717" title="Павлыш" /><settlement geo_id="28904" id="23096" latitude="49.045763" longitude="33.254793" title="Светловодск" /><settlement geo_id="24902" id="23139" latitude="49.01156" longitude="33.636688" title="Комсомольск" /><settlement geo_id="28575" id="23144" latitude="49.784265" longitude="33.2069" title="Хорол" /><settlement geo_id="28681" id="23523" latitude="49.399313" longitude="33.227037" title="Глобино" /><settlement geo_id="28918" id="23533" latitude="49.603254" longitude="33.187811" title="Семёновка" /><settlement geo_id="28023" id="24928" latitude="49.1765804588" longitude="33.2515796833" title="Недогарки" /></zone><zone code="ua-krr" id="47" settlement_id="10347" settlement_title="Кривой Рог" title="Криворожская"><settlement geo_id="10347" id="10347" latitude="47.910481" longitude="33.39178" title="Кривой Рог" /><settlement geo_id="21773" id="23042" latitude="47.5858041552" longitude="34.3911902712" title="Никополь" /><settlement geo_id="28889" id="23200" latitude="47.65823" longitude="33.694137" title="Апостолово" /></zone><zone code="bel-kr" id="172" settlement_id="23316" settlement_title="Кричев" title="Кричевская"><settlement geo_id="26006" id="23315" latitude="53.609402" longitude="31.926029" title="Климовичи" /><settlement geo_id="26015" id="23316" latitude="53.739195" longitude="31.711544" title="Кричев" /><settlement geo_id="26887" id="23318" latitude="53.376268" longitude="32.060729" title="Костюковичи" /></zone><zone code="kav" id="157" settlement_id="10996" settlement_title="Кропоткин" title="Кропоткинская"><settlement geo_id="10996" id="10996" latitude="45.435313" longitude="40.571219" title="Кропоткин" /><settlement geo_id="20675" id="20675" latitude="45.35989" longitude="40.700077" title="Гулькевичи" /></zone><zone code="krym" id="41" settlement_id="146" settlement_title="Симферополь" title="Крымская"><settlement geo_id="146" id="146" latitude="44.952116" longitude="34.102411" title="Симферополь" /><settlement geo_id="959" id="959" latitude="44.616649" longitude="33.52536" title="Севастополь" /><settlement geo_id="11463" id="11463" latitude="45.199698" longitude="33.353032" title="Евпатория" /><settlement geo_id="11464" id="11464" latitude="45.361677" longitude="36.432377" title="Керчь" /><settlement geo_id="11469" id="11469" latitude="45.030285" longitude="35.3841" title="Феодосия" /><settlement geo_id="20556" id="20556" latitude="45.1442" longitude="33.597974" title="Саки" /><settlement geo_id="28892" id="23019" latitude="46.113957" longitude="33.702668" title="Армянск" /><settlement geo_id="27217" id="23020" latitude="44.755291" longitude="33.8485" title="Бахчисарай" /><settlement geo_id="27693" id="23021" latitude="45.960529" longitude="33.780931" title="Красноперекопск" /><settlement geo_id="27555" id="23023" latitude="45.710711" longitude="34.387347" title="Джанкой" /><settlement geo_id="27700" id="23726" latitude="45.502679" longitude="34.294183" title="Красногвардейское" /><settlement geo_id="27282" id="26151" latitude="45.168112" longitude="35.377951" title="Владиславовка" /><settlement geo_id="27219" id="26164" latitude="45.374938" longitude="36.300822" title="Багерово" /><settlement geo_id="28961" id="26181" latitude="45.886822" longitude="34.449484" title="Соленое Озеро" /></zone><zone code="ua-kup" id="191" settlement_id="23121" settlement_title="Купянск" title="Купянская"><settlement geo_id="27728" id="23121" latitude="49.652505" longitude="37.64329" title="Купянск" /><settlement geo_id="27147" id="23480" latitude="49.3632537688" longitude="37.6131103747" title="Боровая" /><settlement geo_id="27235" id="23482" latitude="50.03488" longitude="37.40341" title="Великий Бурлук" /><settlement geo_id="27300" id="23483" latitude="50.282789" longitude="36.919592" title="Волчанск" /><settlement geo_id="27483" id="23484" latitude="49.8521202712" longitude="37.7293263201" title="Двуречная" /><settlement geo_id="28379" id="25608" latitude="50.1601252918" longitude="37.345284746" title="Приколотное" /><settlement geo_id="29183" id="25613" latitude="49.2684506594" longitude="37.6052781567" title="Пески-Радьковские" /></zone><zone code="kurg" id="115" settlement_id="53" settlement_title="Курган" title="Курганская"><settlement geo_id="53" id="53" latitude="55.441606" longitude="65.344316" title="Курган" /><settlement geo_id="11159" id="11159" latitude="56.094123" longitude="63.610343" title="Шадринск" /><settlement geo_id="20612" id="20612" latitude="55.219793" longitude="67.230256" title="Макушино" /><settlement geo_id="20625" id="20625" latitude="55.070936" longitude="67.887839" title="Петухово" /><settlement geo_id="20640" id="20640" latitude="56.263175" longitude="62.93812" title="Далматово" /><settlement geo_id="20646" id="20646" latitude="56.287968" longitude="62.597001" title="Катайск" /><settlement geo_id="10298" id="22193" latitude="54.865472" longitude="69.135602" title="Петропавловск" /><settlement geo_id="100472" id="22822" latitude="55.373017" longitude="65.817929" title="Варгаши" /><settlement geo_id="100828" id="22825" latitude="55.36983" longitude="64.458382" title="Юргамыш" /><settlement geo_id="100820" id="22826" latitude="55.331449" longitude="63.915623" title="Мишкино" /><settlement geo_id="29600" id="24563" latitude="54.9340530759" longitude="68.5379146412" title="Мамлютка" /><settlement geo_id="29594" id="24569" latitude="54.90629" longitude="70.442866" title="Булаево" /></zone><zone code="kur" id="63" settlement_id="8" settlement_title="Курск" title="Курская"><settlement geo_id="8" id="8" latitude="51.730361" longitude="36.192647" title="Курск" /><settlement geo_id="20707" id="20707" latitude="51.656478" longitude="35.651241" title="Курчатов" /><settlement geo_id="20710" id="20710" latitude="51.8777" longitude="36.914127" title="Щигры" /><settlement geo_id="100741" id="22733" latitude="52.057456" longitude="37.538698" title="Долгое" /><settlement geo_id="100744" id="22737" latitude="52.218517" longitude="37.028142" title="Колпны" /><settlement geo_id="100716" id="22753" latitude="52.084385" longitude="36.374187" title="Золотухино" /><settlement geo_id="100724" id="22757" latitude="51.848002" longitude="37.720726" title="Кшенский" /><settlement geo_id="100722" id="22759" latitude="52.317392" longitude="36.308134" title="Поныри" /><settlement geo_id="100723" id="22760" latitude="51.2320679432" longitude="36.697188" title="Пристень" /><settlement geo_id="100725" id="22762" latitude="51.413797582" longitude="36.7444531032" title="Солнцево" /><settlement geo_id="100728" id="22765" latitude="51.88419" longitude="37.258345" title="Черемисиново" /></zone><zone code="bel-lid" id="179" settlement_id="21144" settlement_title="Лида" title="Лидская"><settlement geo_id="21144" id="21144" latitude="53.888092" longitude="25.282459" title="Лида" /><settlement geo_id="102214" id="23338" latitude="54.1557404417" longitude="25.3009488992" title="Вороново" /></zone><zone code="lip" id="127" settlement_id="9" settlement_title="Липецк" title="Липецкая"><settlement geo_id="9" id="9" latitude="52.61022" longitude="39.594719" title="Липецк" /></zone><zone code="lis" id="121" settlement_id="10678" settlement_title="Лиски" title="Лискинская"><settlement geo_id="10673" id="10673" latitude="51.1147409513" longitude="40.0406876455" title="Бобров" /><settlement geo_id="10678" id="10678" latitude="50.980433" longitude="39.509282" title="Лиски" /><settlement geo_id="10679" id="10679" latitude="50.8497075683" longitude="39.1009171825" title="Острогожск" /><settlement geo_id="10681" id="10681" latitude="50.183311" longitude="39.602999" title="Россошь" /><settlement geo_id="10684" id="10684" latitude="51.121276" longitude="40.724359" title="Таловая" /><settlement geo_id="10685" id="10685" latitude="49.698583" longitude="39.862218" title="Кантемировка" /><settlement geo_id="100688" id="22669" latitude="50.70889" longitude="39.433717" title="Каменка" /><settlement geo_id="100693" id="22675" latitude="50.401649" longitude="39.640357" title="Подгоренский" /><settlement geo_id="101720" id="26574" latitude="51.1179410311" longitude="40.303399746" title="Хреновое" /></zone><zone code="ua-lzv" id="192" settlement_id="23122" settlement_title="Лозовая" title="Лозовская"><settlement geo_id="27838" id="23122" latitude="48.89165" longitude="36.318339" title="Лозовая" /><settlement geo_id="29178" id="23487" latitude="49.285275" longitude="35.768056" title="Кегичёвка" /><settlement geo_id="29045" id="23491" latitude="49.148214" longitude="35.871623" title="Сахновщина" /></zone><zone code="ua-lug" id="96" settlement_id="222" settlement_title="Луганск" title="Луганская"><settlement geo_id="222" id="222" latitude="48.574039" longitude="39.307806" title="Луганск" /><settlement geo_id="27687" id="23103" latitude="48.341471" longitude="39.714765" title="Краснодон" /><settlement geo_id="28997" id="23115" latitude="49.277656" longitude="38.928083" title="Старобельск" /><settlement geo_id="103822" id="23576" latitude="48.573103" longitude="39.184962" title="Александровск" /><settlement geo_id="27454" id="23580" latitude="48.573657" longitude="38.946648" title="Зимогорье" /><settlement geo_id="27851" id="23584" latitude="48.405580176" longitude="39.2079468258" title="Лутугино" /><settlement geo_id="27080" id="23595" latitude="49.548837" longitude="38.71718" title="Белокуракино" /><settlement geo_id="28097" id="23597" latitude="48.95033" longitude="39.028171" title="Новоайдар" /><settlement geo_id="" id="23600" latitude="48.676746" longitude="39.447563" title="Станица Луганская" /><settlement geo_id="28490" id="23601" latitude="49.92264" longitude="38.288835" title="Троицкое" /><settlement geo_id="28278" id="25420" latitude="48.771507" longitude="39.279199" title="Петровка" /></zone><zone code="bel-lun" id="177" settlement_id="23306" settlement_title="Лунинец" title="Лунинецкая"><settlement geo_id="102225" id="23306" latitude="52.243966" longitude="26.80462" title="Лунинец" /><settlement geo_id="102230" id="23309" latitude="52.214502" longitude="27.475045" title="Микашевичи" /><settlement geo_id="101405" id="23311" latitude="51.855346" longitude="26.776533" title="Столин" /></zone><zone code="ua-lut" id="214" settlement_id="20222" settlement_title="Луцк" title="Луцкая"><settlement geo_id="20222" id="20222" latitude="50.7598411299" longitude="25.3509293386" title="Луцк" /><settlement geo_id="27742" id="23687" latitude="50.831327" longitude="25.459578" title="Киверцы" /></zone><zone code="ua-lv" id="211" settlement_id="144" settlement_title="Львов" title="Львовская"><settlement geo_id="144" id="144" latitude="49.839678" longitude="24.029709" title="Львов" /><settlement geo_id="27444" id="23128" latitude="49.78889" longitude="24.891919" title="Золочев" /><settlement geo_id="28452" id="23131" latitude="50.2837427443" longitude="24.6253992434" title="Радехов" /><settlement geo_id="29036" id="23132" latitude="49.515374" longitude="23.213421" title="Самбор" /><settlement geo_id="28958" id="23133" latitude="50.464976" longitude="24.256856" title="Сокаль" /><settlement geo_id="28584" id="23134" latitude="49.531324" longitude="22.85034" title="Хыров" /><settlement geo_id="24898" id="23135" latitude="50.396855" longitude="24.229184" title="Червоноград" /><settlement geo_id="28992" id="23136" latitude="49.2592865855" longitude="23.8405790317" title="Стрый" /><settlement geo_id="27532" id="23556" latitude="49.354985" longitude="23.544189" title="Дрогобыч" /><settlement geo_id="27929" id="23557" latitude="49.150426372" longitude="23.8747228572" title="Моршин" /><settlement geo_id="24897" id="23559" latitude="49.2829187473" longitude="23.5121282275" title="Трускавец" /><settlement geo_id="28712" id="23561" latitude="49.7873092989" longitude="23.6302000317" title="Городок" /><settlement geo_id="29203" id="23563" latitude="50.0487893273" longitude="23.9699325979" title="Жолква" /><settlement geo_id="27793" id="23564" latitude="50.0986275795" longitude="24.3584156455" title="Каменка-Бугская" /><settlement geo_id="27937" id="23566" latitude="49.8185131147" longitude="23.1295185554" title="Мостиска" /><settlement geo_id="28393" id="23568" latitude="49.7165523754" longitude="23.9085965662" title="Пустомыты" /><settlement geo_id="28932" id="23569" latitude="49.034951" longitude="23.504758" title="Сколе" /><settlement geo_id="29005" id="23570" latitude="49.444324" longitude="23.004057" title="Старый Самбор" /><settlement geo_id="28506" id="23571" latitude="49.151585" longitude="23.025912" title="Турка" /><settlement geo_id="29214" id="23572" latitude="49.944389" longitude="23.383416" title="Яворов" /><settlement geo_id="28010" id="25796" latitude="50.4492283648" longitude="24.816888127" title="Марьяновка" /><settlement geo_id="26993" id="26027" latitude="49.9041997719" longitude="23.9380291213" title="Брюховичи" /><settlement geo_id="29201" id="26030" latitude="49.9356873565" longitude="23.582099635" title="Новояворовск" /><settlement geo_id="27689" id="26037" latitude="49.916993" longitude="24.616457" title="Красное" /><settlement geo_id="28172" id="26040" latitude="49.6908537399" longitude="22.81981" title="Нижанковичи" /><settlement geo_id="28545" id="26046" latitude="50.3783576965" longitude="23.7320660159" title="Угнев" /><settlement geo_id="27073" id="26047" latitude="50.3884645228" longitude="24.0218226985" title="Белз" /><settlement geo_id="28945" id="26051" latitude="48.8486340471" longitude="23.4455577778" title="Славское" /><settlement geo_id="27541" id="26054" latitude="49.4948579586" longitude="23.3848866299" title="Дубляны" /><settlement geo_id="28984" id="26058" latitude="50.380679" longitude="24.662725" title="Стоянов" /><settlement geo_id="28790" id="26059" latitude="49.6558201133" longitude="23.8704519841" title="Щирец" /><settlement geo_id="29013" id="26063" latitude="49.7993426652" longitude="23.3850216826" title="Судовая Вишня" /><settlement geo_id="28446" id="26073" latitude="50.229926" longitude="23.637079" title="Рава-Русская" /><settlement geo_id="27512" id="26075" latitude="50.1206549309" longitude="23.8329583967" title="Добросин" /><settlement geo_id="29213" id="26078" latitude="49.3287318342" longitude="24.105665127" title="Гнездычев" /><settlement geo_id="28612" id="26080" latitude="49.3770805508" longitude="24.1589865186" title="Жидачов" /><settlement geo_id="28569" id="26082" latitude="49.39939" longitude="24.308042" title="Ходоров" /><settlement geo_id="29205" id="26086" latitude="49.715208" longitude="23.732319" title="Великий Любень" /><settlement geo_id="27625" id="26087" latitude="49.658027" longitude="23.681145" title="Комарно" /></zone><zone code="lgv" id="64" settlement_id="20637" settlement_title="Льгов" title="Льговская"><settlement geo_id="10706" id="10706" latitude="52.125208" longitude="35.061779" title="Дмитриев-Льговский" /><settlement geo_id="10708" id="10708" latitude="51.2074" longitude="35.308487" title="Суджа" /><settlement geo_id="20637" id="20637" latitude="51.637505" longitude="35.266618" title="Льгов" /><settlement geo_id="100714" id="22751" latitude="51.288551" longitude="34.732121" title="Глушково" /><settlement geo_id="100718" id="22755" latitude="51.83963" longitude="35.29046" title="Конышевка" /><settlement geo_id="100719" id="22756" latitude="51.410998" longitude="34.898961" title="Коренёво" /></zone><zone code="mgt" id="116" settlement_id="235" settlement_title="Магнитогорск" title="Магнитогорская"><settlement geo_id="235" id="235" latitude="53.411677" longitude="58.984415" title="Магнитогорск" /><settlement geo_id="20259" id="20259" latitude="53.926886" longitude="58.321557" title="Белорецк" /><settlement geo_id="20716" id="20716" latitude="52.719108" longitude="58.648463" title="Сибай" /><settlement geo_id="37173" id="24522" latitude="53.809934" longitude="58.644627" title="Абзаково" /></zone><zone code="mhc" id="200" settlement_id="28" settlement_title="Махачкала" title="Махачкалинская"><settlement geo_id="28" id="28" latitude="42.984913" longitude="47.504646" title="Махачкала" /><settlement geo_id="11007" id="11007" latitude="42.055006" longitude="48.307323" title="Дербент" /><settlement geo_id="11011" id="11011" latitude="43.2614505143" longitude="46.5889012255" title="Хасавюрт" /><settlement geo_id="21519" id="21519" latitude="43.2055234042" longitude="46.8667614833" title="Кизилюрт" /><settlement geo_id="21521" id="21521" latitude="42.546589" longitude="47.884494" title="Избербаш" /><settlement geo_id="21732" id="21732" latitude="42.122171" longitude="48.205093" title="Дагестанские Огни" /><settlement geo_id="118741" id="21840" latitude="42.16572" longitude="48.113048" title="Мамедкала" /><settlement geo_id="101819" id="26637" latitude="41.877746" longitude="48.390649" title="Белиджи" /><settlement geo_id="101820" id="26638" latitude="42.388951" longitude="47.987031" title="Новокаякент" /></zone><zone code="mkn" id="202" settlement_id="21695" settlement_title="Микунь" title="Микуньская"><settlement geo_id="10943" id="10943" latitude="63.6009082651" longitude="53.8989071734" title="Сосногорск" /><settlement geo_id="10945" id="10945" latitude="63.562057" longitude="53.68448" title="Ухта" /><settlement geo_id="21150" id="21150" latitude="62.717125" longitude="56.161665" title="Троицко-Печорск" /><settlement geo_id="21695" id="21695" latitude="62.360567" longitude="50.074007" title="Микунь" /><settlement geo_id="130886" id="39298" latitude="62.215051" longitude="49.794748" title="Илья-Шор" /><settlement geo_id="130890" id="39299" latitude="62.090532" longitude="49.420151" title="Межег" /></zone><zone code="mv" id="198" settlement_id="11063" settlement_title="Минеральные Воды" title="Минераловодская"><settlement geo_id="30" id="30" latitude="43.484605" longitude="43.60709" title="Нальчик" /><settlement geo_id="33" id="33" latitude="43.020603" longitude="44.681888" title="Владикавказ" /><settlement geo_id="1092" id="1092" latitude="43.225727" longitude="44.764641" title="Назрань" /><settlement geo_id="1104" id="1104" latitude="44.238476" longitude="42.068437" title="Черкесск" /><settlement geo_id="11019" id="11019" latitude="44.088253" longitude="41.986089" title="Усть-Джегута" /><settlement geo_id="11022" id="11022" latitude="43.75318" longitude="44.646126" title="Моздок" /><settlement geo_id="11023" id="11023" latitude="43.19376" longitude="44.533792" title="Беслан" /><settlement geo_id="11055" id="11055" latitude="44.786067" longitude="44.145434" title="Будённовск" /><settlement geo_id="11056" id="11056" latitude="44.168272" longitude="43.476403" title="Георгиевск" /><settlement geo_id="11057" id="11057" latitude="44.048323" longitude="42.85475" title="Ессентуки" /><settlement geo_id="11058" id="11058" latitude="44.131480077" longitude="43.0247621536" title="Железноводск" /><settlement geo_id="11059" id="11059" latitude="44.412908" longitude="43.850175" title="Зеленокумск" /><settlement geo_id="11062" id="11062" latitude="43.903693" longitude="42.719105" title="Кисловодск" /><settlement geo_id="11063" id="11063" latitude="44.208799" longitude="43.13834" title="Минеральные Воды" /><settlement geo_id="11064" id="11064" latitude="44.630763" longitude="41.962337" title="Невинномысск" /><settlement geo_id="11066" id="11066" latitude="43.956059" longitude="43.645421" title="Новопавловск" /><settlement geo_id="11067" id="11067" latitude="44.037249" longitude="43.05317" title="Пятигорск" /><settlement geo_id="20172" id="20172" latitude="43.620707" longitude="44.065831" title="Майский" /><settlement geo_id="20173" id="20173" latitude="43.5630213141" longitude="43.8586737961" title="Нарткала" /><settlement geo_id="20174" id="20174" latitude="43.748608" longitude="44.055223" title="Прохладный" /><settlement geo_id="20175" id="20175" latitude="43.4805290544" longitude="44.1307854094" title="Терек" /><settlement geo_id="101413" id="22810" latitude="44.678034" longitude="41.823316" title="Кочубеевское" /><settlement geo_id="101410" id="22813" latitude="44.454688" longitude="42.500554" title="Курсавка" /><settlement geo_id="100575" id="22938" latitude="43.3440891119" longitude="44.2054921389" title="Эльхотово" /><settlement geo_id="100642" id="26221" latitude="44.820678" longitude="41.38164" title="Успенское" /><settlement geo_id="101790" id="26624" latitude="44.376918" longitude="41.958405" title="Эркен-Шахар" /></zone><zone code="bel-min" id="164" settlement_id="157" settlement_title="Минск" title="Минская"><settlement geo_id="157" id="157" latitude="53.906077" longitude="27.554914" title="Минск" /><settlement geo_id="21193" id="23255" latitude="54.21573" longitude="28.525975" title="Борисов" /><settlement geo_id="26034" id="23256" latitude="54.101261" longitude="28.343347" title="Жодино" /><settlement geo_id="101766" id="23257" latitude="54.01701" longitude="28.062261" title="Смолевичи" /><settlement geo_id="26855" id="23258" latitude="53.513737" longitude="28.141613" title="Марьина Горка" /><settlement geo_id="26846" id="23260" latitude="53.476733" longitude="26.747517" title="Столбцы" /><settlement geo_id="26018" id="23261" latitude="53.681023" longitude="27.16421" title="Дзержинск" /><settlement geo_id="26022" id="23263" latitude="54.294407" longitude="29.064495" title="Крупки" /><settlement geo_id="26745" id="23264" latitude="54.506091" longitude="26.940245" title="Вилейка" /><settlement geo_id="26753" id="23265" latitude="54.003328" longitude="27.283127" title="Заславль" /><settlement geo_id="101627" id="23266" latitude="53.740524" longitude="27.327164" title="Фаниполь" /><settlement geo_id="26766" id="23282" latitude="54.404026" longitude="29.749775" title="Толочин" /><settlement geo_id="" id="23288" latitude="53.596857" longitude="27.858941" title="Руденск" /></zone><zone code="mich" id="130" settlement_id="10803" settlement_title="Мичуринск" title="Мичуринская"><settlement geo_id="10714" id="10714" latitude="53.251911" longitude="39.959469" title="Чаплыгин" /><settlement geo_id="10803" id="10803" latitude="52.9014157174" longitude="40.4502570688" title="Мичуринск" /><settlement geo_id="100759" id="22519" latitude="53.574671" longitude="39.441343" title="Милославское" /><settlement geo_id="100782" id="22677" latitude="53.2507985225" longitude="40.2916139153" title="Первомайский" /><settlement geo_id="100786" id="22678" latitude="53.231058" longitude="41.365982" title="Сосновка" /><settlement geo_id="100781" id="22681" latitude="52.8878848622" longitude="40.7802994445" title="Дмитриевка" /><settlement geo_id="100787" id="22689" latitude="53.308874" longitude="40.68524" title="Староюрьево" /></zone><zone code="bel-mgl" id="171" settlement_id="158" settlement_title="Могилёв" title="Могилёвская"><settlement geo_id="158" id="158" latitude="53.9263017138" longitude="30.3379268307" title="Могилёв" /><settlement geo_id="26016" id="23312" latitude="54.211748" longitude="30.277494" title="Шклов" /><settlement geo_id="26774" id="23313" latitude="54.266938" longitude="30.975844" title="Горки" /><settlement geo_id="102207" id="23314" latitude="53.809259" longitude="30.979085" title="Чаусы" /><settlement geo_id="26021" id="23317" latitude="53.51453" longitude="30.233969" title="Быхов" /></zone><zone code="bel-mld" id="168" settlement_id="23254" settlement_title="Молодечно" title="Молодечненская"><settlement geo_id="26001" id="23254" latitude="54.315872" longitude="26.848802" title="Молодечно" /><settlement geo_id="101481" id="23345" latitude="54.595461" longitude="25.897702" title="Островец" /><settlement geo_id="26017" id="23349" latitude="54.473148" longitude="26.387451" title="Сморгонь" /><settlement geo_id="26748" id="24758" latitude="54.220226" longitude="26.44901" title="Воложин" /><settlement geo_id="" id="39343" latitude="54.877983" longitude="27.603261" title="Парафьяново" /></zone><zone code="msk" id="1" settlement_id="213" settlement_title="Москва" title="Московская"><settlement geo_id="213" id="213" latitude="55.753676" longitude="37.619899" title="Москва" /><settlement geo_id="214" id="214" latitude="55.938288" longitude="37.520917" title="Долгопрудный" /><settlement geo_id="215" id="215" latitude="56.745844" longitude="37.200293" title="Дубна" /><settlement geo_id="216" id="216" latitu