<?xml version='1.0' encoding='UTF-8'?>
<suburban_zone id="113"><station city="Михайловск" direction="Златоустовское" esr="782204" importance="1" lat="56.406283" lon="59.248915" popular_title="" region="Свердловская область" short_title="Михайловский Завод" title="Михайловский Завод" /><station city="Каменск-Уральский" direction="Каменск-Уральское" esr="795100" importance="1" lat="56.427714" lon="61.922214" popular_title="" region="Свердловская область" short_title="Кам-Уральский" title="Каменск-Уральский" /><station city="Каменск-Уральский" direction="Каменск-Уральское" esr="795401" importance="2" lat="56.352767" lon="61.944151" popular_title="" region="Свердловская область" short_title="УАЗ" title="УАЗ" /><station direction="Каменск-Уральское" esr="795191" importance="4" lat="56.410056" lon="61.961671" popular_title="" region="Свердловская область" short_title="5 км" title="5 км" /><station direction="Каменск-Уральское" esr="795469" importance="4" lat="56.397567" lon="61.967119" popular_title="" region="Свердловская область" short_title="7 км" title="7 км" /><station direction="Каменск-Уральское" esr="795473" importance="4" lat="56.276077" lon="61.901407" popular_title="" region="Свердловская область" short_title="21 км" title="21 км" /><station direction="Каменск-Уральское" esr="795420" importance="4" lat="56.240992" lon="61.896286" popular_title="" region="Свердловская область" short_title="№1" title="№1" /><station direction="Каменск-Уральское" esr="795115" importance="4" lat="56.377824" lon="61.954970" popular_title="" region="Свердловская область" short_title="10 км" title="10 км" /><station direction="Каменск-Уральское" esr="795435" importance="4" lat="56.201409" lon="61.888755" popular_title="" region="Свердловская область" short_title="31 км" title="31 км" /><station direction="Каменск-Уральское" esr="795454" importance="3" lat="56.193838" lon="61.884410" popular_title="" region="Свердловская область" short_title="32 км" title="32 км" /><station direction="Каменск-Уральское" esr="795442" importance="4" lat="56.176702" lon="61.889565" popular_title="" region="Челябинская область" short_title="35 км" title="35 км" /><station direction="Каменск-Уральское" esr="795416" importance="4" lat="56.294961" lon="61.900383" popular_title="" region="Свердловская область" short_title="Барабаново" title="Барабаново" /><station city="Челябинск" direction="Курганское" esr="800008" importance="1" lat="55.139550" lon="61.415264" popular_title="" region="Челябинская область" short_title="Челябинск-Главный" title="Челябинск-Главный" /><station direction="Троицкое" esr="804649" importance="4" lat="54.922554" lon="61.308157" popular_title="" region="Челябинская область" short_title="26 км" title="26 км" /><station direction="Златоустовское" esr="807134" importance="4" lat="55.694255" lon="59.467789" popular_title="" region="Челябинская область" short_title="442 км" title="442 км" /><station direction="Каменск-Уральское" esr="801528" importance="4" lat="56.036668" lon="61.838649" popular_title="" region="Челябинская область" short_title="53 км" title="53 км" /><station direction="Курганское" esr="818660" importance="4" lat="55.401080" lon="64.824394" popular_title="" region="Курганская область" short_title="2324 км" title="2324 км" /><station direction="Курганское" esr="818641" importance="4" lat="55.405081" lon="64.865130" popular_title="" region="Курганская область" short_title="2327 км" title="2327 км" /><station direction="Каменск-Уральское" esr="801852" importance="4" lat="55.314920" lon="61.545361" popular_title="" region="Челябинская область" short_title="134 км" title="134 км" /><station direction="Каменск-Уральское" esr="801763" importance="4" popular_title="" region="Челябинская область" short_title="97 км" title="97 км" /><station city="Карталы" direction="Троицкое" esr="816203" importance="2" lat="53.054125" lon="60.642734" popular_title="" region="Челябинская область" short_title="Карталы-1" title="Карталы-1" /><station direction="Троицкое" esr="804691" importance="4" lat="54.844444" lon="61.262385" popular_title="" region="Челябинская область" short_title="35 км" title="35 км" /><station city="Варна" direction="Троицкое" esr="803400" importance="1" lat="53.383165" lon="60.988442" popular_title="" region="Челябинская область" short_title="Тамерлан" title="Тамерлан" /><station direction="Троицкое" esr="803487" importance="4" lat="53.552563" lon="61.120326" popular_title="" region="Челябинская область" short_title="Саламат" title="Саламат" /><station direction="Троицкое" esr="803504" importance="4" lat="53.726922" lon="61.257634" popular_title="" region="Костанайская область" short_title="Бускуль" title="Бускуль" /><station direction="Троицкое" esr="803608" importance="4" lat="53.887344" lon="61.406433" popular_title="" region="Костанайская область" short_title="Магнай" title="Магнай" /><station city="Троицк" direction="Троицкое" esr="803701" importance="3" lat="54.044262" lon="61.608446" popular_title="" region="Челябинская область" short_title="Золотая Сопка" title="Золотая Сопка" /><station direction="Троицкое" esr="804009" importance="4" lat="54.358016" lon="61.420737" popular_title="" region="Челябинская область" short_title="Упрун" title="Упрун" /><station city="Увельский" direction="Троицкое" esr="804102" importance="2" lat="54.443394" lon="61.365223" popular_title="" region="Челябинская область" short_title="Нижнеувельская" title="Нижнеувельская" /><station direction="Троицкое" esr="804206" importance="3" lat="54.531118" lon="61.305449" popular_title="" region="Челябинская область" short_title="Формачёво" title="Формачёво" /><station direction="Троицкое" esr="804403" importance="4" lat="54.580933" lon="61.276222" popular_title="" region="Челябинская область" short_title="Красносёлка" title="Красносёлка" /><station direction="Троицкое" esr="804456" importance="4" lat="54.701366" lon="61.245638" popular_title="" region="Челябинская область" short_title="Таянды" title="Таянды" /><station city="Еманжелинск" direction="Троицкое" esr="804600" importance="2" lat="54.785053" lon="61.243809" popular_title="" region="Челябинская область" short_title="Еманжелинск" title="Еманжелинск" /><station direction="Троицкое" esr="804704" importance="4" lat="54.872824" lon="61.204784" popular_title="" region="Челябинская область" short_title="Клубника" title="Клубника" /><station direction="Троицкое" esr="804719" importance="4" lat="54.946552" lon="61.167132" popular_title="" region="Челябинская область" short_title="Томино" title="Томино" /><station direction="Златоустовское" esr="804831" importance="4" lat="55.008136" lon="60.966116" popular_title="" region="Челябинская область" short_title="Биргильда" title="Биргильда" /><station direction="Троицкое" esr="804723" importance="4" lat="55.001913" lon="61.138239" popular_title="" region="Челябинская область" short_title="Полетаево-2" title="Полетаево-2" /><station direction="Златоустовское" esr="804808" importance="4" lat="55.029617" lon="61.109148" popular_title="" region="Челябинская область" short_title="Полетаево-1" title="Полетаево-1" /><station direction="Златоустовское" esr="805069" importance="4" lat="54.982843" lon="60.758271" popular_title="" region="Челябинская область" short_title="Бишкиль" title="Бишкиль" /><station direction="Златоустовское" esr="805105" importance="4" lat="54.996074" lon="60.444823" popular_title="" region="Челябинская область" short_title="Мисяш" title="Мисяш" /><station city="Чебаркуль" direction="Златоустовское" esr="805209" importance="2" lat="54.984042" lon="60.362777" popular_title="" region="Челябинская область" short_title="Чебаркуль" title="Чебаркуль" /><station direction="Златоустовское" esr="805213" importance="4" lat="54.985416" lon="60.295811" popular_title="" region="Челябинская область" short_title="Кисегач" title="Кисегач" /><station city="Миасс" direction="Златоустовское" esr="805571" importance="2" lat="55.018629" lon="60.081669" popular_title="" region="Челябинская область" short_title="Миасс-2" title="Миасс-2" /><station direction="Златоустовское" esr="805603" importance="4" lat="54.636080" lon="59.810279" popular_title="" region="Республика Башкортостан" short_title="Курамино" title="Курамино" /><station direction="Златоустовское" esr="805800" importance="4" lat="55.057674" lon="60.052710" popular_title="" region="Челябинская область" short_title="Флюсовая" title="Флюсовая" /><station direction="Златоустовское" esr="805904" importance="4" lat="55.072141" lon="59.923086" popular_title="" region="Челябинская область" short_title="Сыростан" title="Сыростан" /><station direction="Златоустовское" esr="806004" importance="4" lat="55.080141" lon="59.826087" popular_title="" region="Челябинская область" short_title="Хребет" title="Хребет" /><station direction="Златоустовское" esr="806108" importance="4" lat="55.117008" lon="59.765813" popular_title="" region="Челябинская область" short_title="Уржумка" title="Уржумка" /><station direction="Златоустовское" esr="806466" importance="4" lat="55.205868" lon="59.532749" popular_title="" region="Челябинская область" short_title="Ай" title="Ай" /><station direction="Златоустовское" esr="806517" importance="4" lat="55.224328" lon="59.496424" popular_title="" region="Челябинская область" short_title="Баритная" title="Баритная" /><station direction="Златоустовское" esr="806521" importance="4" lat="55.181296" lon="59.400007" popular_title="" region="Челябинская область" short_title="Тундуш" title="Тундуш" /><station city="Бердяуш" direction="Златоустовское" esr="806606" importance="2" lat="55.159067" lon="59.142981" popular_title="" region="Челябинская область" short_title="Бердяуш" title="Бердяуш" /><station direction="Златоустовское" esr="806708" importance="4" lat="55.098030" lon="59.001863" popular_title="" region="Челябинская область" short_title="Речная" title="Речная" /><station city="Сатка" direction="Златоустовское" esr="806803" importance="2" lat="55.039933" lon="59.017988" popular_title="" region="Челябинская область" short_title="Сатка" title="Сатка" /><station city="Бакал" direction="Златоустовское" esr="806907" importance="2" lat="54.939305" lon="58.809217" popular_title="" region="Челябинская область" short_title="Бакал" title="Бакал" /><station direction="Златоустовское" esr="807702" importance="4" lat="55.091632" lon="58.718407" popular_title="" region="Челябинская область" short_title="Кукшик" title="Кукшик" /><station direction="Златоустовское" esr="807806" importance="4" lat="55.036193" lon="58.558301" popular_title="" region="Челябинская область" short_title="Мурсалимкино" title="Мурсалимкино" /><station direction="Златоустовское" esr="807825" importance="4" lat="54.971303" lon="58.466002" popular_title="" region="Челябинская область" short_title="Тюбеляс" title="Тюбеляс" /><station city="Усть-Катав" direction="Златоустовское" esr="808508" importance="2" lat="54.936245" lon="58.181672" popular_title="" region="Челябинская область" short_title="Усть-Катав" title="Усть-Катав" /><station city="Куса" direction="Златоустовское" esr="807007" importance="2" lat="55.354260" lon="59.402513" popular_title="" region="Челябинская область" short_title="Куса" title="Куса" /><station direction="Златоустовское" esr="807100" importance="4" lat="55.459074" lon="59.452790" popular_title="" region="Челябинская область" short_title="Злоказово" title="Злоказово" /><station direction="Златоустовское" esr="807115" importance="4" lat="55.551283" lon="59.494854" popular_title="" region="Челябинская область" short_title="Ургала" title="Ургала" /><station direction="Златоустовское" esr="807122" importance="4" lat="55.744495" lon="59.453744" popular_title="" region="Челябинская область" short_title="Азям" title="Азям" /><station direction="Златоустовское" esr="807204" importance="4" lat="55.801284" lon="59.412511" popular_title="" region="Челябинская область" short_title="Ункурда" title="Ункурда" /><station direction="Златоустовское" esr="807238" importance="4" lat="55.924261" lon="59.533146" popular_title="" region="Челябинская область" short_title="Ураим" title="Ураим" /><station direction="Златоустовское" esr="807401" importance="4" lat="56.218202" lon="59.379822" popular_title="" region="Челябинская область" short_title="Арасланово" title="Арасланово" /><station direction="Златоустовское" esr="807524" importance="4" lat="56.288803" lon="59.317859" popular_title="" region="Челябинская область" short_title="Сказ" title="Сказ" /><station direction="Троицкое" esr="800402" importance="4" lat="54.941125" lon="61.318876" popular_title="" region="Челябинская область" short_title="Дубровка" title="Дубровка" /><station direction="Троицкое" esr="800506" importance="4" lat="55.042592" lon="61.366820" popular_title="" region="Челябинская область" short_title="Синеглазово" title="Синеглазово" /><station direction="Златоустовское" esr="800243" importance="3" lat="55.044011" lon="61.247843" popular_title="" region="Челябинская область" short_title="Смолино" title="Смолино" /><station city="Челябинск" direction="Златоустовское" esr="800205" importance="3" lat="55.103028" lon="61.366374" popular_title="" region="Челябинская область" short_title="Шершни" title="Шершни" /><station city="Челябинск" direction="Курганское" esr="801301" importance="3" lat="55.151502" lon="61.469631" popular_title="" region="Челябинская область" short_title="Тракторстрой" title="Тракторстрой" /><station city="Челябинск" direction="Верхнеуфалейское" esr="803307" importance="4" lat="55.237115" lon="61.286476" popular_title="" region="Челябинская область" short_title="Шагол" title="Шагол" /><station city="Челябинск" direction="Курганское" esr="801104" importance="3" lat="55.163734" lon="61.542331" popular_title="" region="Челябинская область" short_title="Чурилово" title="Чурилово" /><station city="Челябинск" direction="Каменск-Уральское" esr="801903" importance="4" lat="55.297415" lon="61.549069" popular_title="" region="Челябинская область" short_title="Баландино" title="Баландино" /><station direction="Курганское" esr="801000" importance="4" lat="55.183687" lon="61.621044" popular_title="" region="Челябинская область" short_title="Потанино" title="Потанино" /><station direction="Курганское" esr="829720" importance="4" lat="55.198659" lon="61.731244" popular_title="" region="Челябинская область" short_title="Козырево" title="Козырево" /><station direction="Верхнеуфалейское" esr="803203" importance="4" lat="55.294928" lon="61.210659" popular_title="" region="Челябинская область" short_title="Ессаульская" title="Ессаульская" /><station direction="Верхнеуфалейское" esr="803129" importance="4" lat="55.410577" lon="60.994599" popular_title="" region="Челябинская область" short_title="Ишалино" title="Ишалино" /><station city="Аргаяш" direction="Верхнеуфалейское" esr="803101" importance="2" lat="55.489396" lon="60.867697" popular_title="" region="Челябинская область" short_title="Аргаяш" title="Аргаяш" /><station direction="Верхнеуфалейское" esr="802925" importance="4" lat="55.593193" lon="60.730113" popular_title="" region="Челябинская область" short_title="Бижеляк" title="Бижеляк" /><station direction="Верхнеуфалейское" esr="802323" importance="4" lat="55.820667" lon="60.469956" popular_title="" region="Челябинская область" short_title="Тюбук" title="Тюбук" /><station direction="Верхнеуфалейское" esr="802304" importance="4" lat="55.906903" lon="60.455457" popular_title="" region="Челябинская область" short_title="Маук" title="Маук" /><station direction="Верхнеуфалейское" esr="802215" importance="4" lat="55.990987" lon="60.423335" popular_title="" region="Челябинская область" short_title="Силач" title="Силач" /><station city="Верхний Уфалей" direction="Верхнеуфалейское" esr="802107" importance="2" lat="56.061377" lon="60.241528" popular_title="" region="Челябинская область" short_title="Верх. Уфалей" title="Верхний Уфалей" /><station direction="Каменск-Уральское" esr="801800" importance="3" lat="55.586020" lon="61.595991" popular_title="" region="Челябинская область" short_title="Муслюмово" title="Муслюмово" /><station direction="Каменск-Уральское" esr="801744" importance="4" lat="55.672651" lon="61.621994" popular_title="" region="Челябинская область" short_title="Кунашак" title="Кунашак" /><station direction="Каменск-Уральское" esr="801782" importance="4" lat="55.889554" lon="61.738114" popular_title="" region="Челябинская область" short_title="Тахталым" title="Тахталым" /><station direction="Каменск-Уральское" esr="801509" importance="4" lat="56.123004" lon="61.898210" popular_title="" region="Челябинская область" short_title="Нижняя" title="Нижняя" /><station direction="Курганское" esr="829650" importance="4" lat="55.204160" lon="62.062046" popular_title="" region="Челябинская область" short_title="Чернявская" title="Чернявская" /><station direction="Курганское" esr="829504" importance="4" lat="55.204694" lon="62.238084" popular_title="" region="Курганская область" short_title="Каясан" title="Каясан" /><station direction="Курганское" esr="829449" importance="4" lat="55.205174" lon="62.385312" popular_title="" region="Курганская область" short_title="Пивкино" title="Пивкино" /><station direction="Курганское" esr="829434" importance="4" lat="55.208009" lon="62.518291" popular_title="" region="Курганская область" short_title="Алакуль" title="Алакуль" /><station city="Щучье" direction="Курганское" esr="829400" importance="2" lat="55.215637" lon="62.732891" popular_title="" region="Курганская область" short_title="Щучье" title="Щучье" /><station direction="Курганское" esr="829345" importance="4" lat="55.215554" lon="63.060389" popular_title="" region="Курганская область" short_title="Чистое" title="Чистое" /><station city="Шумиха" direction="Курганское" esr="829307" importance="2" lat="55.223605" lon="63.286916" popular_title="" region="Курганская область" short_title="Шумиха" title="Шумиха" /><station direction="Курганское" esr="829222" importance="4" lat="55.293196" lon="63.607362" popular_title="" region="Курганская область" short_title="Бутырское" title="Бутырское" /><station city="Мишкино" direction="Курганское" esr="829203" importance="2" lat="55.331449" lon="63.915623" popular_title="" region="Курганская область" short_title="Мишкино" title="Мишкино" /><station direction="Курганское" esr="829129" importance="4" lat="55.349368" lon="64.130103" popular_title="" region="Курганская область" short_title="Сладкое" title="Сладкое" /><station city="Юргамыш" direction="Курганское" esr="829106" importance="1" lat="55.369830" lon="64.458382" popular_title="" region="Курганская область" short_title="Юргамыш" title="Юргамыш" /><station direction="Курганское" esr="829025" importance="2" lat="55.392393" lon="64.749842" popular_title="" region="Курганская область" short_title="Зырянка" title="Зырянка" /><station direction="Курганское" esr="828934" importance="4" lat="55.411036" lon="64.912731" popular_title="" region="Курганская область" short_title="Логовушка" title="Логовушка" /><station direction="Курганское" esr="828554" importance="4" lat="55.425187" lon="65.257718" popular_title="" region="Курганская область" short_title="Курганка" title="Курганка" /><station city="Троицк" direction="Троицкое" esr="803909" importance="2" lat="54.112475" lon="61.570097" popular_title="" region="Челябинская область" short_title="Троицк" title="Троицк" /><station city="Миасс" direction="Златоустовское" esr="805302" importance="1" lat="55.033174" lon="60.111099" popular_title="" region="Челябинская область" short_title="Миасс-1" title="Миасс-1" /><station city="Учалы" direction="Златоустовское" esr="805707" importance="2" lat="54.370623" lon="59.440286" popular_title="" region="Республика Башкортостан" short_title="Учалы" title="Учалы" /><station city="Златоуст" direction="Златоустовское" esr="806201" importance="2" lat="55.197885" lon="59.715495" popular_title="" region="Челябинская область" short_title="Златоуст" title="Златоуст" /><station city="Усть-Катав" direction="Златоустовское" esr="807929" importance="4" lat="54.937399" lon="58.155447" popular_title="" region="Челябинская область" short_title="Пост-Завод" title="Пост-Завод" /><station direction="Златоустовское" esr="806536" importance="4" lat="55.175323" lon="59.310950" popular_title="" region="Челябинская область" short_title="Салган" title="Салган" /><station direction="Златоустовское" esr="807609" importance="4" lat="55.133976" lon="58.885532" popular_title="" region="Челябинская область" short_title="Сулея" title="Сулея" /><station direction="Златоустовское" esr="807903" importance="4" lat="54.906159" lon="58.347295" popular_title="" region="Челябинская область" short_title="Вязовая" title="Вязовая" /><station direction="Златоустовское" esr="808601" importance="4" lat="55.012600" lon="57.985663" popular_title="" region="Челябинская область" short_title="Кропачёво" title="Кропачёво" /><station city="Нязепетровск" direction="Златоустовское" esr="807308" importance="2" lat="56.017687" lon="59.590675" popular_title="" region="Челябинская область" short_title="Нязепетровская" title="Нязепетровская" /><station city="Челябинск" direction="Троицкое" esr="800559" importance="4" lat="55.124425" lon="61.409139" popular_title="" region="Челябинская область" short_title="Локомотивная-2" title="Локомотивная-2" /><station direction="Троицкое" esr="804634" importance="4" lat="54.855693" lon="61.224503" popular_title="" region="Челябинская область" short_title="23 км" title="23 км" /><station direction="Курганское" esr="829114" importance="4" lat="55.365457" lon="64.393722" popular_title="" region="Курганская область" short_title="2300 км" title="2300 км" /><station city="Курган" direction="Курганское" esr="828501" importance="1" lat="55.441564" lon="65.319753" popular_title="" region="Курганская область" short_title="Курган-Пасс." title="Курган-Пасс." /><station city="Кыштым" direction="Верхнеуфалейское" esr="802501" importance="2" lat="55.726483" lon="60.549064" popular_title="" region="Челябинская область" short_title="Кыштым" title="Кыштым" /><station direction="Курганское" esr="829059" importance="4" lat="55.378426" lon="64.556966" popular_title="" region="Курганская область" short_title="2308 км" title="2308 км" /><station direction="Троицкое" esr="803631" importance="4" lat="53.088813" lon="60.660900" popular_title="" region="Челябинская область" short_title="127 км" title="127 км" /><station direction="Троицкое" esr="803449" importance="4" lat="53.210703" lon="60.808939" popular_title="" region="Челябинская область" short_title="114 км" title="114 км" /><station direction="Троицкое" esr="803420" importance="4" lat="53.274192" lon="60.884910" popular_title="" region="Челябинская область" short_title="Гирьял" title="Гирьял" /><station direction="Троицкое" esr="803415" importance="4" lat="53.316154" lon="60.927923" popular_title="" region="Челябинская область" short_title="91 км" title="91 км" /><station direction="Троицкое" esr="804140" importance="4" lat="53.486653" lon="61.066011" popular_title="" region="Челябинская область" short_title="81 км" title="81 км" /><station direction="Троицкое" esr="804136" importance="4" lat="53.447314" lon="61.037836" popular_title="" region="Челябинская область" short_title="78 км" title="78 км" /><station direction="Златоустовское" esr="805529" importance="4" lat="54.921772" lon="59.993756" popular_title="" region="Челябинская область" short_title="Устиново" title="Устиново" /><station direction="Златоустовское" esr="806631" importance="4" lat="55.166127" lon="59.197241" popular_title="" region="Челябинская область" short_title="Жукатау" title="Жукатау" /><station direction="Верхнеуфалейское" esr="803133" importance="4" lat="55.339027" lon="61.108028" popular_title="" region="Челябинская область" short_title="Касарги" title="Касарги" /><station direction="Верхнеуфалейское" esr="802910" importance="4" lat="55.665185" lon="60.647185" popular_title="" region="Челябинская область" short_title="Татыш" title="Татыш" /><station direction="Верхнеуфалейское" esr="802338" importance="4" lat="55.759652" lon="60.485505" popular_title="" region="Челябинская область" short_title="Кувалжиха" title="Кувалжиха" /><station direction="Златоустовское" esr="808527" importance="4" lat="54.978176" lon="58.041617" popular_title="" region="Республика Башкортостан" short_title="Яхино" title="Яхино" /><station direction="Троицкое" esr="803970" importance="4" lat="54.251320" lon="61.493071" popular_title="" region="Челябинская область" short_title="92 км" title="92 км" /><station direction="Троицкое" esr="803966" importance="4" lat="54.316759" lon="61.448973" popular_title="" region="Челябинская область" short_title="86 км" title="86 км" /><station direction="Троицкое" esr="804441" importance="4" lat="54.379925" lon="61.406066" popular_title="" region="Челябинская область" short_title="77 км" title="77 км" /><station direction="Троицкое" esr="804437" importance="4" lat="54.408055" lon="61.387619" popular_title="" region="Челябинская область" short_title="74 км" title="74 км" /><station direction="Троицкое" esr="804225" importance="4" lat="54.475746" lon="61.338085" popular_title="" region="Челябинская область" short_title="66 км" title="66 км" /><station city="Златоуст" direction="Златоустовское" esr="806216" importance="4" lat="55.197148" lon="59.656122" popular_title="" region="Челябинская область" short_title="Заводская Платформа" title="Заводская Платформа" /><station direction="Златоустовское" esr="806856" importance="4" lat="54.968379" lon="58.901925" popular_title="" region="Челябинская область" short_title="Рудничное" title="Рудничное" /><station city="Сатка" direction="Златоустовское" esr="806818" importance="2" lat="55.031007" lon="58.983307" popular_title="" region="Челябинская область" short_title="Щебзаводская" title="Щебзаводская" /><station direction="Златоустовское" esr="806729" importance="4" lat="55.054195" lon="58.999110" popular_title="" region="Челябинская область" short_title="Магнезит" title="Магнезит" /><station direction="Златоустовское" esr="800258" importance="3" lat="55.032405" lon="61.173440" popular_title="" region="Челябинская область" short_title="Бутаки" title="Бутаки" /><station city="Челябинск" direction="Златоустовское" esr="800027" importance="3" lat="55.119385" lon="61.390241" popular_title="" region="Челябинская область" short_title="Подстанция" title="Подстанция" /><station city="Челябинск" direction="Троицкое" esr="800539" importance="4" lat="55.101989" lon="61.398898" popular_title="" region="Челябинская область" short_title="5 км" title="5 км" /><station direction="Курганское" esr="829716" importance="4" lat="55.192744" lon="61.701206" popular_title="" region="Челябинская область" short_title="2121 км" title="2121 км" /><station direction="Троицкое" esr="800510" importance="4" lat="55.063433" lon="61.378090" popular_title="" region="Челябинская область" short_title="10 км" title="10 км" /><station direction="Златоустовское" esr="800224" importance="3" lat="55.086552" lon="61.334925" popular_title="" region="Челябинская область" short_title="2092 км" title="2092 км" /><station city="Челябинск" direction="Златоустовское" esr="800210" importance="3" lat="55.092624" lon="61.350393" popular_title="" region="Челябинская область" short_title="Пост 1120 км" title="Пост 1120 км" /><station direction="Каменск-Уральское" esr="801975" importance="4" lat="55.220963" lon="61.555771" popular_title="" region="Челябинская область" short_title="145 км" title="145 км" /><station city="Челябинск" direction="Каменск-Уральское" esr="801987" importance="4" lat="55.171510" lon="61.556977" popular_title="" region="Челябинская область" short_title="148 км" title="148 км" /><station city="Челябинск" direction="Курганское" esr="801015" importance="3" lat="55.155652" lon="61.515422" popular_title="" region="Челябинская область" short_title="2109 км" title="2109 км" /><station direction="Курганское" esr="829612" importance="4" lat="55.214122" lon="61.971320" popular_title="" region="Челябинская область" short_title="2140 км" title="2140 км" /><station direction="Курганское" esr="809523" importance="4" lat="55.203151" lon="62.149808" popular_title="" region="Челябинская область" short_title="2147 км" title="2147 км" /><station direction="Курганское" esr="829379" importance="4" lat="55.209457" lon="62.839828" popular_title="" region="Курганская область" short_title="2196 км" title="2196 км" /><station city="Южноуральск" direction="Троицкое" esr="804307" importance="2" lat="54.461931" lon="61.269085" popular_title="" region="Челябинская область" short_title="Южноуральск" title="Южноуральск" /><station direction="Курганское" esr="828874" importance="4" lat="55.427986" lon="65.137270" popular_title="" region="Курганская область" short_title="2347 км" title="2347 км" /><station direction="Верхнеуфалейское" esr="802126" importance="4" lat="56.016918" lon="60.390999" popular_title="" region="Челябинская область" short_title="Укагач" title="Укагач" /><station direction="Троицкое" esr="803913" importance="4" lat="54.147700" lon="61.563552" popular_title="" region="Челябинская область" short_title="104 км" title="104 км" /><station direction="Златоустовское" esr="804812" importance="4" lat="55.025255" lon="61.053098" popular_title="" region="Челябинская область" short_title="2070 км" title="2070 км" /><station direction="Златоустовское" esr="806409" importance="4" lat="55.192156" lon="59.602668" popular_title="" region="Челябинская область" short_title="Аносово" title="Аносово" /><station direction="Златоустовское" esr="806127" importance="4" lat="55.158450" lon="59.730940" popular_title="" region="Челябинская область" short_title="1948 км" title="1948 км" /><station direction="Златоустовское" esr="807011" importance="4" lat="55.396277" lon="59.454467" popular_title="" region="Челябинская область" short_title="Движенец" title="Движенец" /><station direction="Златоустовское" esr="804846" importance="4" lat="55.003235" lon="60.913320" popular_title="" region="Челябинская область" short_title="2060 км" title="2060 км" /><station city="Челябинск" direction="Верхнеуфалейское" esr="801405" importance="4" lat="55.192543" lon="61.414456" popular_title="" region="Челябинская область" short_title="Электростанция" title="Электростанция" /><station direction="Златоустовское" esr="807223" importance="4" lat="55.867724" lon="59.432880" popular_title="" region="Челябинская область" short_title="403 км" title="403 км" /><station direction="Златоустовское" esr="806610" importance="4" lat="55.145576" lon="59.054055" popular_title="" region="Челябинская область" short_title="8 км" title="8 км" /><station direction="Верхнеуфалейское" esr="802111" importance="4" lat="56.044528" lon="60.325380" popular_title="" region="Челябинская область" short_title="Иткуль" title="Иткуль" /><station direction="Троицкое" esr="800421" importance="4" lat="55.010709" lon="61.355607" popular_title="" region="Челябинская область" short_title="Совхоз" title="Совхоз" /><station direction="Троицкое" esr="800417" importance="4" lat="54.989985" lon="61.347254" popular_title="" region="Челябинская область" short_title="18 км" title="18 км" /><station direction="Златоустовское" esr="806625" importance="4" lat="55.111864" lon="59.011136" popular_title="" region="Челябинская область" short_title="12 км" title="12 км" /><station direction="Златоустовское" esr="806714" importance="4" lat="55.084599" lon="59.005294" popular_title="" region="Челябинская область" short_title="15 км" title="15 км" /><station direction="Златоустовское" esr="806822" importance="4" lat="55.041037" lon="58.946568" popular_title="" region="Челябинская область" short_title="30 км" title="30 км" /><station direction="Каменск-Уральское" esr="801602" importance="4" lat="55.984922" lon="61.804083" popular_title="" region="Челябинская область" short_title="№ 2" title="№ 2" /><station direction="Златоустовское" esr="806837" importance="4" lat="55.039245" lon="58.918069" popular_title="" region="Челябинская область" short_title="32 км" title="32 км" /><station direction="Каменск-Уральское" esr="801710" importance="4" lat="55.825692" lon="61.693999" popular_title="" region="Челябинская область" short_title="75 км" title="75 км" /><station direction="Каменск-Уральское" esr="801725" importance="4" lat="55.782308" lon="61.658467" popular_title="" region="Челябинская область" short_title="№ 3" title="№ 3" /><station direction="Златоустовское" esr="806841" importance="4" lat="55.032334" lon="58.911199" popular_title="" region="Челябинская область" short_title="33 км" title="33 км" /><station direction="Каменск-Уральское" esr="801814" importance="4" lat="55.492789" lon="61.591386" popular_title="" region="Челябинская область" short_title="№ 5" title="№ 5" /><station direction="Златоустовское" esr="806860" importance="4" lat="54.953563" lon="58.882695" popular_title="" region="Челябинская область" short_title="44 км" title="44 км" /><station direction="Каменск-Уральское" esr="801833" importance="4" lat="55.397896" lon="61.583689" popular_title="" region="Челябинская область" short_title="№ 6" title="№ 6" /><station direction="Каменск-Уральское" esr="801848" importance="4" lat="55.334613" lon="61.554012" popular_title="" region="Челябинская область" short_title="132 км" title="132 км" /><station city="Челябинск" direction="Каменск-Уральское" esr="801918" importance="4" lat="55.199234" lon="61.556731" popular_title="" region="Челябинская область" short_title="Межозёрная" title="Межозёрная" /><station direction="Курганское" esr="829631" importance="4" lat="55.218686" lon="61.879908" popular_title="" region="Челябинская область" short_title="Ванюши" title="Ванюши" /><station direction="Курганское" esr="829415" importance="4" lat="55.201419" lon="62.635307" popular_title="" region="Курганская область" short_title="2182 км" title="2182 км" /><station direction="Курганское" esr="829364" importance="4" lat="55.207203" lon="62.896468" popular_title="" region="Курганская область" short_title="2200 км" title="2200 км" /><station direction="Курганское" esr="829311" importance="4" lat="55.213496" lon="63.223630" popular_title="" region="Курганская область" short_title="2221 км" title="2221 км" /><station direction="Курганское" esr="829282" importance="4" lat="55.268464" lon="63.491849" popular_title="" region="Курганская область" short_title="2240 км" title="2240 км" /><station direction="Курганское" esr="829010" importance="4" lat="55.385653" lon="64.643362" popular_title="" region="Курганская область" short_title="2315 км" title="2315 км" /><station direction="Курганское" esr="828925" importance="4" lat="55.425062" lon="64.953920" popular_title="" region="Курганская область" short_title="2335 км" title="2335 км" /><station direction="Каменск-Уральское" esr="801960" importance="4" lat="55.234734" lon="61.554665" popular_title="" region="Челябинская область" short_title="143 км" title="143 км" /><station direction="Каменск-Уральское" esr="801829" importance="4" lat="55.429724" lon="61.597779" popular_title="" region="Челябинская область" short_title="120 км" title="120 км" /><station direction="Каменск-Уральское" esr="801617" importance="4" lat="55.936119" lon="61.768572" popular_title="" region="Челябинская область" short_title="62 км" title="62 км" /><station direction="Каменск-Уральское" esr="801621" importance="4" lat="56.080467" lon="61.868828" popular_title="" region="Челябинская область" short_title="49 км" title="49 км" /><station direction="Каменск-Уральское" esr="801513" importance="4" lat="56.110049" lon="61.890423" popular_title="" region="Челябинская область" short_title="44 км" title="44 км" /><station direction="Троицкое" esr="800262" importance="4" lat="55.023718" lon="61.122049" popular_title="" region="Челябинская область" short_title="Новая Платформа" title="Новая Платформа" /><station direction="Курганское" esr="829256" importance="4" lat="55.256869" lon="63.436762" popular_title="" region="Курганская область" short_title="2230 км" title="2230 км" /><station direction="Златоустовское" esr="805406" importance="4" lat="54.493026" lon="59.597840" popular_title="" region="Республика Башкортостан" short_title="Шартымка" title="Шартымка" /><station direction="Златоустовское" esr="805533" importance="4" lat="54.818753" lon="59.982190" popular_title="" region="Челябинская область" short_title="29 км" title="29 км" /><station direction="Троицкое" esr="803716" importance="3" lat="54.089216" lon="61.601540" popular_title="" region="Челябинская область" short_title="Уйский" title="Уйский" /><station direction="Троицкое" esr="803627" importance="4" lat="54.024363" lon="61.572076" popular_title="" region="Челябинская область" short_title="Край" title="Край" /><station direction="Курганское" esr="828906" importance="4" lat="55.426361" lon="65.114229" popular_title="" region="Курганская область" short_title="Введенское" title="Введенское" /><station direction="Златоустовское" esr="806682" importance="4" lat="55.165242" lon="58.948520" popular_title="" region="Челябинская область" short_title="1871км" title="1871км" /><station direction="Троицкое" esr="803434" importance="4" lat="53.228852" lon="60.832380" popular_title="" region="Челябинская область" short_title="Тумак" title="Тумак" /><station direction="Троицкое" esr="803928" importance="4" lat="54.187671" lon="61.536009" popular_title="" region="Челябинская область" short_title="Кумысное" title="Кумысное" /><station direction="Златоустовское" esr="806659" importance="4" lat="55.175812" lon="59.103858" popular_title="" region="Челябинская область" short_title="1885 км" title="1885 км" /><station direction="Златоустовское" esr="805117" importance="4" lat="54.988972" lon="60.396505" popular_title="" region="Челябинская область" short_title="Каширинский" title="Каширинский" /><station direction="Троицкое" esr="803985" importance="4" lat="54.226956" lon="61.509999" popular_title="" region="Челябинская область" short_title="96 км" title="96 км" /><station direction="Курганское" esr="829133" importance="4" lat="55.346474" lon="64.074017" popular_title="" region="Курганская область" short_title="2278 км" title="2278 км" /><station direction="Курганское" esr="829646" importance="4" lat="55.211079" lon="61.799482" popular_title="" region="Челябинская область" short_title="2128 км" title="2128 км" /><station direction="Златоустовское" esr="805054" importance="4" lat="54.996757" lon="60.507182" popular_title="" region="Челябинская область" short_title="2033 км" title="2033 км" /><station direction="Златоустовское" esr="805641" importance="4" lat="54.409715" lon="59.494957" popular_title="" region="Республика Башкортостан" short_title="87 км" title="87 км" /><station city="Челябинск" direction="Троицкое" esr="800544" importance="4" lat="55.110742" lon="61.402856" popular_title="" region="Челябинская область" short_title="4 км" title="4 км" /><station direction="Верхнеуфалейское" esr="803218" importance="4" lat="55.268020" lon="61.246105" popular_title="" region="Челябинская область" short_title="226 км" title="226 км" /><station direction="Курганское" esr="828910" importance="4" lat="55.431471" lon="65.023260" popular_title="" region="Курганская область" short_title="2340 км (Вихорь)" title="2340 км (Вихорь)" /><station direction="Верхнеуфалейское" esr="803114" importance="4" lat="55.456868" lon="60.920239" popular_title="" region="Челябинская область" short_title="198 км" title="198 км" /><station direction="Златоустовское" esr="805035" importance="4" lat="55.000588" lon="60.643399" popular_title="" region="Челябинская область" short_title="2042 км" title="2042 км" /><station direction="Златоустовское" esr="808512" importance="4" lat="54.968133" lon="58.059260" popular_title="" region="Республика Башкортостан" short_title="1792 км" title="1792 км" /><station direction="Верхнеуфалейское" esr="802959" importance="4" lat="55.528409" lon="60.801466" popular_title="" region="Челябинская область" short_title="187 км" title="187 км" /><station direction="Златоустовское" esr="806220" importance="4" lat="55.200781" lon="59.617399" popular_title="" region="Челябинская область" short_title="1931 км" title="1931 км" /><station direction="Верхнеуфалейское" esr="802930" importance="4" lat="55.561966" lon="60.763386" popular_title="" region="Челябинская область" short_title="182 км" title="182 км" /><station direction="Верхнеуфалейское" esr="802319" importance="4" lat="55.852831" lon="60.469656" popular_title="" region="Челябинская область" short_title="141 км" title="141 км" /><station city="Челябинск" direction="Златоустовское" esr="800012" importance="3" lat="55.124155" lon="61.396883" popular_title="" region="Челябинская область" short_title="Локомотивная-1" title="Локомотивная-1" /><station direction="Златоустовское" esr="807632" importance="4" lat="55.100610" lon="58.754513" popular_title="" region="Челябинская область" short_title="1856 км" title="1856 км" /><station direction="Златоустовское" esr="807717" importance="4" lat="55.058023" lon="58.660424" popular_title="" region="Челябинская область" short_title="1846 км" title="1846 км" /><station direction="Златоустовское" esr="805317" importance="4" lat="55.042466" lon="60.088770" popular_title="" region="Челябинская область" short_title="2000 км" title="2000 км" /><station direction="Златоустовское" esr="805514" importance="4" lat="54.943839" lon="60.021604" popular_title="" region="Челябинская область" short_title="17 км" title="17 км" /><station direction="Златоустовское" esr="808565" importance="4" lat="54.957659" lon="58.086267" popular_title="" region="Республика Башкортостан" short_title="1795 км" title="1795 км" /><station direction="Златоустовское" esr="806540" importance="4" lat="55.166654" lon="59.197354" popular_title="" region="Челябинская область" short_title="1895 км" title="1895 км" /><station direction="Златоустовское" esr="805548" importance="4" lat="54.763608" lon="59.911329" popular_title="" region="Челябинская область" short_title="35 км" title="35 км" /><station direction="Златоустовское" esr="808546" importance="4" lat="54.938521" lon="58.122107" popular_title="" region="Челябинская область" short_title="1799 км" title="1799 км" /><station direction="Златоустовское" esr="807327" importance="4" lat="56.077387" lon="59.448587" popular_title="" region="Челябинская область" short_title="376 км" title="376 км" /><station direction="Златоустовское" esr="807933" importance="4" lat="54.937830" lon="58.256680" popular_title="" region="Челябинская область" short_title="Минка" title="Минка" /><station direction="Златоустовское" esr="805232" importance="4" lat="55.009721" lon="60.170831" popular_title="" region="Челябинская область" short_title="2008 км" title="2008 км" /><station direction="Курганское" esr="829359" importance="4" lat="55.209465" lon="62.964781" popular_title="" region="Курганская область" short_title="2204 км" title="2204 км" /><station direction="Златоустовское" esr="807844" importance="4" lat="54.959439" lon="58.458331" popular_title="" region="Челябинская область" short_title="1822 км" title="1822 км" /><station direction="Златоустовское" esr="807721" importance="4" lat="55.061021" lon="58.621480" popular_title="" region="Челябинская область" short_title="1843 км" title="1843 км" /><station direction="Троицкое" esr="803932" importance="4" lat="54.287829" lon="61.468618" popular_title="" region="Челябинская область" short_title="Карский" title="Карский" /><station direction="Троицкое" esr="803468" importance="4" lat="53.523445" lon="61.097347" popular_title="" region="Челябинская область" short_title="Статейка" title="Статейка" /><station direction="Троицкое" esr="803453" importance="4" lat="53.113192" lon="60.690646" popular_title="" region="Челябинская область" short_title="Арчалы" title="Арчалы" /><station direction="Златоустовское" esr="807613" importance="4" lat="55.125692" lon="58.860259" popular_title="" region="Челябинская область" short_title="1863 км" title="1863 км" /><station city="Миасс" direction="Златоустовское" esr="805321" importance="3" lat="55.023900" lon="60.132400" popular_title="" region="Челябинская область" short_title="Миасс (Старый вокзал)" title="Миасс (Старый вокзал)" /><station direction="Златоустовское" esr="805016" importance="4" lat="54.992069" lon="60.719371" popular_title="" region="Челябинская область" short_title="2047 км" title="2047 км" /><station direction="Златоустовское" esr="804865" importance="4" lat="55.015230" lon="61.008700" popular_title="" region="Челябинская область" short_title="2068 км" title="2068 км" /><station direction="Троицкое" esr="804418" importance="4" lat="54.641395" lon="61.251456" popular_title="" region="Челябинская область" short_title="47 км" title="47 км" /><station direction="Курганское" esr="829627" importance="4" lat="55.217484" lon="61.933940" popular_title="" region="Челябинская область" short_title="2137 км" title="2137 км" /><station city="Челябинск" direction="Троицкое" esr="800525" importance="4" lat="55.079220" lon="61.386437" popular_title="" region="Челябинская область" short_title="7 км" title="7 км" /><station direction="Златоустовское" esr="800239" importance="3" lat="55.055933" lon="61.289070" popular_title="" region="Челябинская область" short_title="Сосновка" title="Сосновка" /><station direction="Златоустовское" esr="804879" importance="3" lat="55.032942" lon="61.147332" popular_title="" region="Челябинская область" short_title="2078 км" title="2078 км" /><station direction="Троицкое" esr="804422" importance="4" lat="54.674266" lon="61.244524" popular_title="" region="Челябинская область" short_title="43 км" title="43 км" /><station direction="Троицкое" esr="804511" importance="4" lat="54.737634" lon="61.246086" popular_title="" region="Челябинская область" short_title="Борисовка" title="Борисовка" /><station direction="Златоустовское" esr="806413" importance="4" lat="55.203492" lon="59.582642" popular_title="" region="Челябинская область" short_title="1927 км" title="1927 км" /><station direction="Златоустовское" esr="807242" importance="4" lat="55.983252" lon="59.604050" popular_title="" region="Челябинская область" short_title="382 км" title="382 км" /><station direction="Златоустовское" esr="805552" importance="4" lat="54.707599" lon="59.874022" popular_title="" region="Республика Башкортостан" short_title="Алтын-Таш" title="Алтын-Таш" /><station direction="Троицкое" esr="804626" importance="4" lat="54.903470" lon="61.296028" popular_title="" region="Челябинская область" short_title="Тимофеевка" title="Тимофеевка" /><station direction="Златоустовское" esr="805040" importance="4" lat="54.996354" lon="60.572287" popular_title="" region="Челябинская область" short_title="Шахматово" title="Шахматово" /><station direction="Златоустовское" esr="806663" importance="4" lat="55.206277" lon="59.051681" popular_title="" region="Челябинская область" short_title="1880 км" title="1880 км" /><station direction="Златоустовское" esr="804850" importance="4" lat="54.981863" lon="60.835964" popular_title="" region="Челябинская область" short_title="Тактыбай" title="Тактыбай" /><station direction="Троицкое" esr="804615" importance="4" lat="54.864911" lon="61.276574" popular_title="" region="Челябинская область" short_title="Саксан" title="Саксан" /><station direction="Златоустовское" esr="805618" importance="4" lat="54.581551" lon="59.723381" popular_title="" region="Республика Башкортостан" short_title="64 км" title="64 км" /><station direction="Златоустовское" esr="806451" importance="4" lat="55.223368" lon="59.481708" popular_title="" region="Челябинская область" short_title="1913 км" title="1913 км" /><station direction="Златоустовское" esr="805020" importance="4" lat="54.997543" lon="60.665193" popular_title="" region="Челябинская область" short_title="Аджатар" title="Аджатар" /><station direction="Златоустовское" esr="805228" importance="4" lat="55.005580" lon="60.220758" popular_title="" region="Челябинская область" short_title="2015 км" title="2015 км" /><station direction="Троицкое" esr="684815" importance="4" lat="53.813984" lon="62.109939" popular_title="" region="Костанайская область" short_title="Селекционная" title="Селекционная" /><station city="Кустанай" direction="Троицкое" esr="684001" importance="2" lat="53.204711" lon="63.591644" popular_title="" region="Костанайская область" short_title="Кустанай" title="Кустанай" /><station direction="Троицкое" esr="684501" importance="4" lat="53.626856" lon="62.747250" popular_title="" region="Костанайская область" short_title="218 км" title="218 км" /><station direction="Троицкое" esr="684302" importance="4" lat="53.512866" lon="63.042598" popular_title="" region="Костанайская область" short_title="Озёрная" title="Озёрная" /><station direction="Троицкое" esr="685201" importance="4" lat="53.980129" lon="61.720791" popular_title="" region="Костанайская область" short_title="Каерак" title="Каерак" /><station direction="Троицкое" esr="685108" importance="4" lat="53.925691" lon="61.860864" popular_title="" region="Костанайская область" short_title="Медет" title="Медет" /><station direction="Троицкое" esr="684800" importance="4" lat="53.797300" lon="62.223236" popular_title="" region="Костанайская область" short_title="Тогузак" title="Тогузак" /><station direction="Троицкое" esr="684707" importance="4" lat="53.721882" lon="62.384137" popular_title="" region="Костанайская область" short_title="Пешковский Тупик" title="Пешковский Тупик" /><station direction="Троицкое" esr="684603" importance="4" lat="53.641299" lon="62.702865" popular_title="" region="Костанайская область" short_title="Джаркуль" title="Джаркуль" /><station direction="Троицкое" esr="684406" importance="4" lat="53.606676" lon="62.797504" popular_title="" region="Костанайская область" short_title="Успеновка" title="Успеновка" /><station direction="Каменск-Уральское" esr="710" importance="3" lat="56.422374" lon="61.957200" popular_title="" region="Свердловская область" short_title="Локомот. депо" title="Локомотивное депо" /><station direction="Златоустовское" esr="001520" importance="4" lat="54.999365" lon="60.897438" popular_title="" region="Челябинская область" short_title="2059 км" title="2059 км" /><station direction="Златоустовское" esr="001521" importance="4" lat="55.067007" lon="59.991185" popular_title="" region="Челябинская область" short_title="Тургояк" title="Тургояк" /><station direction="Златоустовское" esr="001522" importance="4" lat="55.065762" lon="59.946329" popular_title="" region="Челябинская область" short_title="1988 км" title="1988 км" /><station direction="Златоустовское" esr="001523" importance="4" lat="55.159468" lon="59.777676" popular_title="" region="Челябинская область" short_title="Таганай" title="Таганай" /><station direction="Златоустовское" esr="001524" importance="4" lat="55.189225" lon="59.005340" popular_title="" region="Челябинская область" short_title="Единовер" title="Единовер" /><station direction="Троицкое" esr="001525" importance="4" lat="53.181547" lon="60.765024" popular_title="" region="Челябинская область" short_title="118 км" title="118 км" /><station direction="Троицкое" esr="001571" importance="4" lat="54.929130" lon="61.186438" popular_title="" region="Челябинская область" short_title="19 км" title="19 км" /><station direction="Курганское" esr="001526" importance="4" lat="55.207274" lon="61.770513" popular_title="" region="Челябинская область" short_title="2126 км" title="2126 км" /><station direction="Курганское" esr="001527" importance="4" lat="55.213705" lon="61.829653" popular_title="" region="Челябинская область" short_title="2130 км" title="2130 км" /><station direction="Курганское" esr="001528" importance="4" lat="55.208700" lon="62.012478" popular_title="" region="Челябинская область" short_title="2142 км" title="2142 км" /><station city="Курган" direction="Курганское" esr="828573" importance="2" lat="55.446380" lon="65.334449" popular_title="Пригородный вокзал" region="Курганская область" short_title="Курган (пригородный вокзал)" title="Курган (пригородный вокзал)" /><station direction="Каменск-Уральское" esr="001529" importance="4" lat="55.562158" lon="61.579138" popular_title="" region="Челябинская область" short_title="110 км" title="110 км" /><station direction="Верхнеуфалейское" esr="001530" importance="4" lat="55.160966" lon="61.426927" popular_title="" region="Челябинская область" short_title="245 км" title="245 км" /><station direction="Верхнеуфалейское" esr="001531" importance="4" lat="55.167884" lon="61.426997" popular_title="" region="Челябинская область" short_title="244 км" title="244 км" /><station direction="Верхнеуфалейское" esr="001532" importance="4" lat="55.197001" lon="61.385498" popular_title="" region="Челябинская область" short_title="241 км" title="241 км" /><station direction="Верхнеуфалейское" esr="001533" importance="4" lat="55.201230" lon="61.346791" popular_title="" region="Челябинская область" short_title="239 км" title="239 км" /><station direction="Верхнеуфалейское" esr="001534" importance="4" lat="55.217364" lon="61.314298" popular_title="" region="Челябинская область" short_title="236 км" title="236 км" /><station direction="Златоустовское" esr="001535" importance="4" lat="55.241490" lon="59.328324" popular_title="" region="Челябинская область" short_title="Чеславка" title="Чеславка" /><station direction="Златоустовское" esr="001536" importance="4" lat="54.724585" lon="59.885832" popular_title="" region="Республика Башкортостан" short_title="38 км" title="38 км" /><station direction="Златоустовское" esr="001537" importance="4" lat="54.450807" lon="59.550469" popular_title="" region="Республика Башкортостан" short_title="82 км" title="82 км" /><station direction="Троицкое" esr="001553" importance="4" lat="54.020736" lon="61.643550" popular_title="" region="Костанайская область" short_title="123 км" title="123 км" /><station direction="Троицкое" esr="001554" importance="4" lat="53.950561" lon="61.798073" popular_title="" region="Костанайская область" short_title="138 км" title="138 км" /><station direction="Троицкое" esr="001555" importance="4" lat="53.877786" lon="61.956035" popular_title="" region="Костанайская область" short_title="147 км" title="147 км" /><station direction="Троицкое" esr="001556" importance="4" lat="53.844117" lon="62.037354" popular_title="" region="Костанайская область" short_title="156 км" title="156 км" /><station direction="Троицкое" esr="001557" importance="4" lat="53.806416" lon="62.171189" popular_title="" region="Костанайская область" short_title="167 км" title="167 км" /><station direction="Троицкое" esr="001558" importance="4" lat="53.769213" lon="62.252779" popular_title="" region="Костанайская область" short_title="180 км" title="180 км" /><station direction="Троицкое" esr="001559" importance="4" lat="53.743969" lon="62.310474" popular_title="" region="Костанайская область" short_title="187 км" title="187 км" /><station direction="Троицкое" esr="001560" importance="4" lat="53.691858" lon="62.500389" popular_title="" region="Костанайская область" short_title="195 км" title="195 км" /><station direction="Троицкое" esr="001561" importance="4" lat="53.662234" lon="62.625566" popular_title="" region="Костанайская область" short_title="202 км" title="202 км" /><station direction="Троицкое" esr="001562" importance="4" lat="53.601187" lon="62.811599" popular_title="" region="Костанайская область" short_title="238 км" title="238 км" /><station direction="Троицкое" esr="001563" importance="4" lat="53.580172" lon="62.871700" popular_title="" region="Костанайская область" short_title="242 км" title="242 км" /><station direction="Троицкое" esr="001564" importance="4" lat="53.567325" lon="62.898841" popular_title="" region="Костанайская область" short_title="245 км" title="245 км" /><station direction="Троицкое" esr="001565" importance="4" lat="53.558389" lon="62.923503" popular_title="" region="Костанайская область" short_title="246 км" title="246 км" /><station direction="Троицкое" esr="001566" importance="4" lat="53.490076" lon="63.098657" popular_title="" region="Костанайская область" short_title="255 км" title="255 км" /><station direction="Троицкое" esr="001567" importance="4" lat="53.464606" lon="63.157186" popular_title="" region="Костанайская область" short_title="258 км" title="258 км" /><station direction="Троицкое" esr="001568" importance="4" lat="53.353699" lon="63.352744" popular_title="" region="Костанайская область" short_title="268 км" title="268 км" /><station direction="Троицкое" esr="001569" importance="4" lat="53.289974" lon="63.480048" popular_title="" region="Костанайская область" short_title="273 км" title="273 км" /><station city="Кустанай" direction="Троицкое" esr="001570" importance="4" lat="53.241920" lon="63.565688" popular_title="" region="Костанайская область" short_title="Кустанай-северный" title="Кустанай-северный" /></suburban_zone>