<?xml version='1.0' encoding='UTF-8'?>
<suburban_zone id="117"><station city="Волгоград" direction="Волгоградское" esr="610008" importance="1" lat="48.713077" lon="44.513340" popular_title="" region="Волгоградская область" short_title="Волгоград-1" title="Волгоград-1" /><station city="Ртищево" direction="Аткарское" esr="607700" importance="2" lat="52.247949" lon="43.827836" popular_title="" region="Саратовская область" short_title="Ртищево-2" title="Ртищево-2" /><station city="Ртищево" direction="Аткарское" esr="607611" importance="3" lat="52.254611" lon="43.807468" popular_title="" region="Саратовская область" short_title="665 км" title="665 км" /><station direction="Аткарское" esr="607715" importance="4" lat="52.233504" lon="43.845267" popular_title="" region="Саратовская область" short_title="670 км" title="670 км" /><station city="Ртищево" direction="Аткарское" esr="607607" importance="1" lat="52.260557" lon="43.788479" popular_title="" region="Саратовская область" short_title="Ртищево-1" title="Ртищево-1" /><station direction="Аткарское" esr="607734" importance="4" lat="52.220758" lon="43.863910" popular_title="" region="Саратовская область" short_title="Промывка" title="Промывка" /><station direction="Аткарское" esr="607720" importance="4" lat="52.209383" lon="43.883583" popular_title="" region="Саратовская область" short_title="Благодатка" title="Благодатка" /><station direction="Сенное" esr="623934" importance="4" lat="52.070713" lon="46.858972" popular_title="" region="Саратовская область" short_title="Булгаковка" title="Булгаковка" /><station direction="Волгоградское" esr="620832" importance="4" lat="51.423725" lon="45.719143" popular_title="" region="Саратовская область" short_title="Буркин" title="Буркин" /><station direction="Волгоградское" esr="620851" importance="4" lat="51.346746" lon="45.675241" popular_title="" region="Саратовская область" short_title="Власовский" title="Власовский" /><station direction="Волгоградское" esr="620870" importance="4" lat="51.292187" lon="45.649149" popular_title="" region="Саратовская область" short_title="Горючка" title="Горючка" /><station direction="Аткарское" esr="623417" importance="4" lat="51.734268" lon="45.364340" popular_title="" region="Саратовская область" short_title="Евдокимовский" title="Евдокимовский" /><station direction="Волгоградское" esr="620739" importance="4" lat="51.461622" lon="45.879819" popular_title="" region="Саратовская область" short_title="Березина Речка" title="Березина Речка" /><station direction="Сенное" esr="623703" importance="4" lat="51.648142" lon="46.005895" popular_title="" region="Саратовская область" short_title="Зоринский" title="Зоринский" /><station direction="Волгоградское" esr="620847" importance="4" lat="51.393994" lon="45.688459" popular_title="" region="Саратовская область" short_title="Ивановский" title="Ивановский" /><station direction="Заволжское" esr="626326" importance="4" lat="51.159817" lon="46.993621" popular_title="" region="Саратовская область" short_title="Кобзаревский" title="Кобзаревский" /><station direction="Аткарское" esr="608826" importance="4" lat="51.789519" lon="44.985369" popular_title="" region="Саратовская область" short_title="11 км" title="11 км" /><station direction="Волгоградское" esr="614210" importance="3" lat="49.284981" lon="44.008367" popular_title="" region="Волгоградская область" short_title="Колоцкий" title="Колоцкий" /><station direction="Аткарское" esr="608830" importance="4" lat="51.737122" lon="44.950651" popular_title="" region="Саратовская область" short_title="17 км" title="17 км" /><station direction="Сенное" esr="623718" importance="4" lat="51.711162" lon="46.066569" popular_title="" region="Саратовская область" short_title="Липовский" title="Липовский" /><station direction="Заволжское" esr="626345" importance="4" lat="51.087512" lon="47.003277" popular_title="" region="Саратовская область" short_title="Лозиновский" title="Лозиновский" /><station direction="Сенное" esr="623915" importance="4" lat="52.009934" lon="46.681863" popular_title="" region="Саратовская область" short_title="Медянниково" title="Медянниково" /><station direction="Аткарское" esr="623421" importance="4" lat="51.689444" lon="45.462721" popular_title="" region="Саратовская область" short_title="Никольский" title="Никольский" /><station direction="Аткарское" esr="609020" importance="4" lat="51.525606" lon="44.811288" popular_title="" region="Саратовская область" short_title="64 км" title="64 км" /><station direction="Сенное" esr="627210" importance="4" lat="51.421541" lon="48.364964" popular_title="" region="Саратовская область" short_title="11 км" title="11 км" /><station direction="Волгоградское" esr="621515" importance="4" lat="50.701741" lon="45.429729" popular_title="" region="Саратовская область" short_title="Каменка" title="Каменка" /><station direction="Сенное" esr="625018" importance="4" lat="52.080567" lon="47.577886" popular_title="" region="Саратовская область" short_title="Терса" title="Терса" /><station city="Саратов" direction="Аткарское" esr="620103" importance="3" lat="51.592303" lon="45.940430" popular_title="" region="Саратовская область" short_title="Трофимовский-1" title="Трофимовский-1" /><station direction="Сенное" esr="627225" importance="4" lat="51.512635" lon="48.437941" popular_title="" region="Саратовская область" short_title="22 км" title="22 км" /><station direction="Сенное" esr="627418" importance="4" lat="51.668740" lon="48.652963" popular_title="" region="Саратовская область" short_title="47 км" title="47 км" /><station direction="Сенное" esr="627422" importance="4" lat="51.754543" lon="48.719156" popular_title="" region="Саратовская область" short_title="58 км" title="58 км" /><station direction="Сенное" esr="627511" importance="4" lat="51.911627" lon="48.787392" popular_title="" region="Саратовская область" short_title="82 км" title="82 км" /><station city="Саратов" direction="Заволжское" esr="620052" importance="4" lat="51.524760" lon="45.989912" popular_title="" region="Саратовская область" short_title="Депо" title="Депо" /><station city="Саратов" direction="Заволжское" esr="620300" importance="3" lat="51.510160" lon="45.962319" popular_title="" region="Саратовская область" short_title="Саратов-3" title="Саратов-3" /><station direction="Сенное" esr="624015" importance="4" lat="52.156764" lon="47.062539" popular_title="" region="Саратовская область" short_title="Ключи" title="Ключи" /><station city="Саратов" direction="Сенное" esr="620137" importance="4" lat="51.614103" lon="45.959453" popular_title="" region="Саратовская область" short_title="Сокурский Тракт" title="Сокурский Тракт" /><station direction="Аткарское" esr="609513" importance="2" lat="52.250528" lon="46.278849" popular_title="" region="Саратовская область" short_title="Галанино" title="Галанино" /><station city="Саратов" direction="Заволжское" esr="620512" importance="4" lat="51.500502" lon="45.960713" popular_title="" region="Саратовская область" short_title="860 км" title="860 км" /><station direction="Аткарское" esr="609340" importance="4" lat="52.272324" lon="45.670161" popular_title="" region="Саратовская область" short_title="Волково" title="Волково" /><station direction="Аткарское" esr="608722" importance="4" lat="52.057444" lon="44.505034" popular_title="" region="Саратовская область" short_title="Еткары" title="Еткары" /><station direction="Сенное" esr="625200" importance="4" lat="51.932894" lon="47.930192" popular_title="" region="Саратовская область" short_title="Юльевка" title="Юльевка" /><station direction="Сенное" esr="623722" importance="4" lat="51.716166" lon="46.120976" popular_title="" region="Саратовская область" short_title="Первая Расловка" title="Первая Расловка" /><station city="Саратов" direction="Аткарское" esr="620014" importance="3" lat="51.571747" lon="45.992149" popular_title="" region="Саратовская область" short_title="Студенческий Городок" title="Студенческий Городок" /><station city="Саратов" direction="Аткарское" esr="620029" importance="3" lat="51.580710" lon="45.974724" popular_title="" region="Саратовская область" short_title="Площадь Ленина" title="Площадь Ленина" /><station city="Саратов" direction="Аткарское" esr="620033" importance="3" lat="51.590055" lon="45.957901" popular_title="" region="Саратовская область" short_title="Молодёжная" title="Молодёжная" /><station direction="Волгоградское" esr="621430" importance="4" lat="50.736071" lon="45.450240" popular_title="" region="Саратовская область" short_title="Луговое" title="Луговое" /><station city="Саратов" direction="Аткарское" esr="623648" importance="4" lat="51.593692" lon="45.917509" popular_title="" region="Саратовская область" short_title="Завод Контакт" title="Завод Контакт" /><station direction="Заволжское" esr="625450" importance="4" lat="51.416178" lon="45.963297" popular_title="" region="Саратовская область" short_title="Лодочная база" title="Лодочная база" /><station city="Саратов" direction="Заволжское" esr="620086" importance="4" lat="51.512423" lon="45.985051" popular_title="" region="Саратовская область" short_title="Астраханский переезд" title="Астраханский переезд" /><station direction="Волгоградское" esr="621529" importance="4" lat="50.647017" lon="45.418486" popular_title="" region="Саратовская область" short_title="132 км" title="132 км" /><station city="Саратов" direction="Заволжское" esr="620323" importance="3" lat="51.503522" lon="45.936660" popular_title="" region="Саратовская область" short_title="Зуборезный" title="Зуборезный" /><station city="Саратов" direction="Волгоградское" esr="620719" importance="4" lat="51.481889" lon="45.914527" popular_title="" region="Саратовская область" short_title="Подшипник" title="Подшипник" /><station city="Саратов" direction="Волгоградское" esr="620724" importance="4" lat="51.473913" lon="45.909854" popular_title="" region="Саратовская область" short_title="Комсомольский" title="Комсомольский" /><station direction="Волгоградское" esr="620828" importance="4" lat="51.449536" lon="45.825005" popular_title="" region="Саратовская область" short_title="Александровка" title="Александровка" /><station direction="Волгоградское" esr="620885" importance="4" lat="51.318689" lon="45.656444" popular_title="" region="Саратовская область" short_title="44 км" title="44 км" /><station direction="Волгоградское" esr="621214" importance="4" lat="51.034986" lon="45.530849" popular_title="" region="Саратовская область" short_title="79 км" title="79 км" /><station direction="Аткарское" esr="623525" importance="4" lat="51.675836" lon="45.678635" popular_title="" region="Саратовская область" short_title="819 км" title="819 км" /><station direction="Волгоградское" esr="620895" importance="4" lat="51.419112" lon="45.776151" popular_title="" region="Саратовская область" short_title="19 км" title="19 км" /><station direction="Волгоградское" esr="621133" importance="4" lat="51.410767" lon="45.703329" popular_title="" region="Саратовская область" short_title="28 км" title="28 км" /><station direction="Волгоградское" esr="621144" importance="4" lat="51.368355" lon="45.676700" popular_title="" region="Саратовская область" short_title="35 км" title="35 км" /><station direction="Волгоградское" esr="621159" importance="4" lat="51.255561" lon="45.586664" popular_title="" region="Саратовская область" short_title="52 км" title="52 км" /><station direction="Волгоградское" esr="621163" importance="4" lat="51.238212" lon="45.548898" popular_title="" region="Саратовская область" short_title="54 км" title="54 км" /><station direction="Аткарское" esr="623455" importance="4" lat="51.713147" lon="45.403956" popular_title="" region="Саратовская область" short_title="799 км" title="799 км" /><station direction="Аткарское" esr="623468" importance="4" lat="51.706737" lon="45.419710" popular_title="" region="Саратовская область" short_title="800 км" title="800 км" /><station direction="Аткарское" esr="623489" importance="4" lat="51.673754" lon="45.524309" popular_title="" region="Саратовская область" short_title="809 км" title="809 км" /><station direction="Аткарское" esr="623629" importance="4" lat="51.597324" lon="45.874243" popular_title="" region="Саратовская область" short_title="841 км" title="841 км" /><station direction="Сенное" esr="623968" importance="4" lat="52.127454" lon="46.918428" popular_title="" region="Саратовская область" short_title="173 км" title="173 км" /><station direction="Сенное" esr="623953" importance="4" lat="52.025150" lon="46.761538" popular_title="" region="Саратовская область" short_title="191 км" title="191 км" /><station direction="Сенное" esr="623845" importance="4" lat="51.962202" lon="46.341277" popular_title="" region="Саратовская область" short_title="225 км" title="225 км" /><station direction="Сенное" esr="623864" importance="4" lat="51.849427" lon="46.242369" popular_title="" region="Саратовская область" short_title="251 км" title="251 км" /><station direction="Сенное" esr="623794" importance="4" lat="51.664363" lon="46.037976" popular_title="" region="Саратовская область" short_title="276 км" title="276 км" /><station direction="Сенное" esr="620180" importance="4" lat="51.655207" lon="46.029852" popular_title="" region="Саратовская область" short_title="279 км" title="279 км" /><station direction="Сенное" esr="623775" importance="4" lat="51.762072" lon="46.211565" popular_title="" region="Саратовская область" short_title="262 км" title="262 км" /><station direction="Сенное" esr="623787" importance="4" lat="51.752966" lon="46.212348" popular_title="" region="Саратовская область" short_title="263 км" title="263 км" /><station direction="Аткарское" esr="623474" importance="4" lat="51.697023" lon="45.437524" popular_title="" region="Саратовская область" short_title="802 км" title="802 км" /><station direction="Сенное" esr="621445" importance="4" lat="51.719571" lon="46.152209" popular_title="" region="Саратовская область" short_title="269 км" title="269 км" /><station city="Петров Вал" direction="Волгоградское" esr="621801" importance="2" lat="50.138653" lon="45.204725" popular_title="" region="Волгоградская область" short_title="Петров Вал" title="Петров Вал" /><station direction="Аткарское" esr="608506" importance="4" lat="52.115544" lon="44.074085" popular_title="" region="Саратовская область" short_title="Салтыковка" title="Салтыковка" /><station direction="Аткарское" esr="608718" importance="4" lat="52.024562" lon="44.598254" popular_title="" region="Саратовская область" short_title="Афросимовский" title="Афросимовский" /><station direction="Аткарское" esr="608756" importance="4" lat="51.989561" lon="44.704175" popular_title="" region="Саратовская область" short_title="Лопуховка" title="Лопуховка" /><station direction="Аткарское" esr="608737" importance="4" lat="51.978972" lon="44.821054" popular_title="" region="Саратовская область" short_title="Енгалычевский" title="Енгалычевский" /><station direction="Аткарское" esr="608741" importance="4" lat="51.927252" lon="44.893908" popular_title="" region="Саратовская область" short_title="Капеллы" title="Капеллы" /><station direction="Аткарское" esr="623493" importance="4" lat="51.756360" lon="45.306909" popular_title="" region="Саратовская область" short_title="Кологривовка" title="Кологривовка" /><station city="Татищево" direction="Аткарское" esr="623506" importance="2" lat="51.669218" lon="45.595768" popular_title="" region="Саратовская область" short_title="Татищево" title="Татищево" /><station direction="Аткарское" esr="623544" importance="4" lat="51.649308" lon="45.764859" popular_title="" region="Саратовская область" short_title="Курдюм" title="Курдюм" /><station city="Калининск" direction="Аткарское" esr="609104" importance="2" lat="51.498873" lon="44.455655" popular_title="" region="Саратовская область" short_title="Калининск-Саратовский" title="Калининск-Саратовский" /><station city="Лысые Горы" direction="Аткарское" esr="609000" importance="2" lat="51.550110" lon="44.831740" popular_title="" region="Саратовская область" short_title="Лысые Горы" title="Лысые Горы" /><station direction="Аткарское" esr="608915" importance="4" lat="51.661756" lon="44.927130" popular_title="" region="Саратовская область" short_title="Юная" title="Юная" /><station direction="Аткарское" esr="608859" importance="4" lat="51.973601" lon="45.098825" popular_title="" region="Саратовская область" short_title="Чемизовка" title="Чемизовка" /><station direction="Аткарское" esr="609265" importance="4" lat="52.080921" lon="45.143338" popular_title="" region="Саратовская область" short_title="Жерновка" title="Жерновка" /><station direction="Аткарское" esr="609227" importance="4" lat="52.183727" lon="45.288071" popular_title="" region="Саратовская область" short_title="Соболевка" title="Соболевка" /><station direction="Аткарское" esr="609405" importance="4" lat="52.261568" lon="45.820035" popular_title="" region="Саратовская область" short_title="Подснежная" title="Подснежная" /><station direction="Аткарское" esr="609509" importance="4" lat="52.209630" lon="46.124373" popular_title="" region="Саратовская область" short_title="Бурасы" title="Бурасы" /><station direction="Аткарское" esr="609602" importance="4" lat="52.329611" lon="46.364908" popular_title="" region="Саратовская область" short_title="Карабулак" title="Карабулак" /><station city="Екатериновка" direction="Аткарское" esr="608606" importance="2" lat="52.055706" lon="44.344763" popular_title="" region="Саратовская область" short_title="Екатериновка" title="Екатериновка" /><station direction="Сенное" esr="609725" importance="4" lat="52.349552" lon="46.554390" popular_title="" region="Саратовская область" short_title="Высотная" title="Высотная" /><station direction="Сенное" esr="609801" importance="4" lat="52.313274" lon="46.721046" popular_title="" region="Саратовская область" short_title="Барнуковка" title="Барнуковка" /><station direction="Сенное" esr="609903" importance="4" lat="52.172896" lon="46.836286" popular_title="" region="Саратовская область" short_title="Куриловка" title="Куриловка" /><station city="Аткарск" direction="Аткарское" esr="608807" importance="2" lat="51.876824" lon="45.010869" popular_title="" region="Саратовская область" short_title="Аткарск" title="Аткарск" /><station city="Сенной" direction="Сенное" esr="624000" importance="2" lat="52.160625" lon="46.964974" popular_title="" region="Саратовская область" short_title="Сенная" title="Сенная" /><station direction="Сенное" esr="623949" importance="4" lat="52.028949" lon="46.544431" popular_title="" region="Саратовская область" short_title="Казаковка" title="Казаковка" /><station direction="Сенное" esr="623830" importance="4" lat="52.006661" lon="46.402936" popular_title="" region="Саратовская область" short_title="Сухой Карабулак" title="Сухой Карабулак" /><station direction="Сенное" esr="623826" importance="3" lat="51.955429" lon="46.280897" popular_title="" region="Саратовская область" short_title="Елховка" title="Елховка" /><station direction="Сенное" esr="623807" importance="4" lat="51.818557" lon="46.191824" popular_title="" region="Саратовская область" short_title="Тарханы" title="Тарханы" /><station direction="Сенное" esr="623737" importance="4" lat="51.735017" lon="46.207465" popular_title="" region="Саратовская область" short_title="Вязовка" title="Вязовка" /><station city="Саратов" direction="Волгоградское" esr="620705" importance="4" lat="51.498599" lon="45.923105" popular_title="" region="Саратовская область" short_title="Примыкание" title="Примыкание" /><station direction="Волгоградское" esr="620809" importance="4" lat="51.448660" lon="45.843217" popular_title="" region="Саратовская область" short_title="Багаевка" title="Багаевка" /><station direction="Волгоградское" esr="621106" importance="4" lat="51.192643" lon="45.514223" popular_title="" region="Саратовская область" short_title="Паницкая" title="Паницкая" /><station direction="Волгоградское" esr="621229" importance="4" lat="51.081878" lon="45.527943" popular_title="" region="Саратовская область" short_title="Бобровка" title="Бобровка" /><station direction="Волгоградское" esr="621303" importance="4" lat="50.963126" lon="45.523277" popular_title="" region="Саратовская область" short_title="Карамыш" title="Карамыш" /><station direction="Волгоградское" esr="621426" importance="4" lat="50.791909" lon="45.476073" popular_title="" region="Саратовская область" short_title="Россоша" title="Россоша" /><station direction="Волгоградское" esr="621661" importance="4" lat="50.586386" lon="45.408617" popular_title="" region="Волгоградская область" short_title="Овражная" title="Овражная" /><station direction="Волгоградское" esr="621676" importance="4" lat="50.283980" lon="45.344844" popular_title="" region="Волгоградская область" short_title="Умёт-Камышинский" title="Умёт-Камышинский" /><station city="Петровск" direction="Аткарское" esr="609301" importance="2" lat="52.295531" lon="45.388314" popular_title="" region="Саратовская область" short_title="Петровск-Саратовский" title="Петровск-Саратовский" /><station direction="Волгоградское" esr="614600" importance="3" lat="49.119892" lon="44.064386" popular_title="" region="Волгоградская область" short_title="Качалино" title="Качалино" /><station direction="Аткарское" esr="608811" importance="3" lat="51.869956" lon="45.068595" popular_title="" region="Саратовская область" short_title="Красавка" title="Красавка" /><station city="Шиханы" direction="Сенное" esr="624706" importance="2" lat="52.123864" lon="47.197869" popular_title="" region="Саратовская область" short_title="Шиханы" title="Шиханы" /><station city="Вольск" direction="Сенное" esr="624710" importance="2" lat="52.085509" lon="47.310233" popular_title="" region="Саратовская область" short_title="Вольск-2" title="Вольск-2" /><station city="Балаково" direction="Сенное" esr="625107" importance="2" lat="52.002353" lon="47.788301" popular_title="" region="Саратовская область" short_title="Балаково" title="Балаково" /><station direction="Сенное" esr="625304" importance="4" lat="51.941466" lon="48.504253" popular_title="" region="Саратовская область" short_title="Иргиз" title="Иргиз" /><station direction="Аткарское" esr="623600" importance="4" lat="51.589491" lon="45.845830" popular_title="" region="Саратовская область" short_title="Жасминная" title="Жасминная" /><station direction="Заволжское" esr="625408" importance="4" lat="51.456154" lon="45.957294" popular_title="" region="Саратовская область" short_title="Князевка" title="Князевка" /><station city="Пугачев" direction="Сенное" esr="627704" importance="2" lat="52.016125" lon="48.794008" popular_title="" region="Саратовская область" short_title="Пугачёвск" title="Пугачёвск" /><station direction="Заволжское" esr="625427" importance="4" lat="51.422374" lon="45.966387" popular_title="" region="Саратовская область" short_title="Правобережный" title="Правобережный" /><station city="Анисовка" direction="Заволжское" esr="625501" importance="2" lat="51.409402" lon="46.082456" popular_title="" region="Саратовская область" short_title="Анисовка" title="Анисовка" /><station direction="Заволжское" esr="626006" importance="4" lat="51.337727" lon="46.441265" popular_title="" region="Саратовская область" short_title="Безымянная" title="Безымянная" /><station direction="Заволжское" esr="626025" importance="4" lat="51.303675" lon="46.610238" popular_title="" region="Саратовская область" short_title="Титоренко" title="Титоренко" /><station direction="Заволжское" esr="626107" importance="4" lat="51.282231" lon="46.790014" popular_title="" region="Саратовская область" short_title="Золотая Степь" title="Золотая Степь" /><station direction="Заволжское" esr="626203" importance="4" lat="51.264225" lon="46.883648" popular_title="" region="Саратовская область" short_title="Наливная" title="Наливная" /><station city="Ершов" direction="Заволжское" esr="627206" importance="2" lat="51.347687" lon="48.274483" popular_title="" region="Саратовская область" short_title="Ершов" title="Ершов" /><station direction="Сенное" esr="627507" importance="4" lat="51.814286" lon="48.720343" popular_title="" region="Саратовская область" short_title="Рукополь" title="Рукополь" /><station direction="Сенное" esr="627437" importance="4" lat="51.578390" lon="48.536959" popular_title="" region="Саратовская область" short_title="Римско-Корсаковка" title="Римско-Корсаковка" /><station city="Озинки" direction="Заволжское" esr="628406" importance="2" lat="51.194659" lon="49.735834" popular_title="" region="Саратовская область" short_title="Озинки" title="Озинки" /><station direction="Заволжское" esr="627244" importance="4" lat="51.315406" lon="48.526830" popular_title="" region="Саратовская область" short_title="Мавринка" title="Мавринка" /><station city="Дергачи" direction="Заволжское" esr="628209" importance="2" lat="51.240567" lon="48.753143" popular_title="" region="Саратовская область" short_title="Алтата" title="Алтата" /><station direction="Заволжское" esr="628302" importance="4" lat="51.202033" lon="49.125261" popular_title="" region="Саратовская область" short_title="Демьяс" title="Демьяс" /><station direction="Заволжское" esr="628321" importance="4" lat="51.203714" lon="49.455481" popular_title="" region="Саратовская область" short_title="Чалыкла" title="Чалыкла" /><station direction="Заволжское" esr="627102" importance="4" lat="51.291407" lon="47.777078" popular_title="" region="Саратовская область" short_title="Плес" title="Плес" /><station city="Мокроус" direction="Заволжское" esr="627009" importance="2" lat="51.241571" lon="47.512470" popular_title="" region="Саратовская область" short_title="Мокроус" title="Мокроус" /><station city="Пушкино" direction="Заволжское" esr="626307" importance="2" lat="51.236953" lon="46.977712" popular_title="" region="Саратовская область" short_title="Урбах" title="Урбах" /><station city="Красный Кут" direction="Заволжское" esr="626504" importance="2" lat="50.956883" lon="46.977265" popular_title="" region="Саратовская область" short_title="Красный Кут" title="Красный Кут" /><station direction="Заволжское" esr="626519" importance="4" lat="50.803155" lon="47.084454" popular_title="" region="Саратовская область" short_title="Тимофеево" title="Тимофеево" /><station city="Питерка" direction="Заволжское" esr="626701" importance="2" lat="50.615924" lon="47.427560" popular_title="" region="Саратовская область" short_title="Питерка" title="Питерка" /><station direction="Заволжское" esr="626716" importance="4" lat="50.518184" lon="47.668547" popular_title="" region="Саратовская область" short_title="Малоузенск" title="Малоузенск" /><station city="Александров Гай" direction="Заволжское" esr="626909" importance="2" lat="50.132810" lon="48.536298" popular_title="" region="Саратовская область" short_title="Александров Гай" title="Александров Гай" /><station city="Новоузенск" direction="Заволжское" esr="626805" importance="2" lat="50.422931" lon="48.134185" popular_title="" region="Саратовская область" short_title="Новоузенск" title="Новоузенск" /><station direction="Аткарское" esr="608864" importance="4" lat="52.000482" lon="45.138478" popular_title="" region="Саратовская область" short_title="20 км" title="20 км" /><station direction="Аткарское" esr="609212" importance="4" lat="52.106396" lon="45.207107" popular_title="" region="Саратовская область" short_title="35 км" title="35 км" /><station direction="Аткарское" esr="609246" importance="4" lat="52.274313" lon="45.335759" popular_title="" region="Саратовская область" short_title="56 км" title="56 км" /><station direction="Аткарское" esr="609316" importance="4" lat="52.297331" lon="45.479160" popular_title="" region="Саратовская область" short_title="67 км" title="67 км" /><station city="Вольск" direction="Сенное" esr="624806" importance="2" lat="52.070278" lon="47.346454" popular_title="" region="Саратовская область" short_title="Привольская" title="Привольская" /><station direction="Аткарское" esr="609320" importance="4" lat="52.297289" lon="45.539342" popular_title="" region="Саратовская область" short_title="71 км" title="71 км" /><station direction="Аткарское" esr="609354" importance="4" lat="52.267649" lon="45.724165" popular_title="" region="Саратовская область" short_title="84 км" title="84 км" /><station direction="Аткарское" esr="609416" importance="4" lat="52.256245" lon="45.873760" popular_title="" region="Саратовская область" short_title="97 км" title="97 км" /><station direction="Аткарское" esr="609424" importance="4" lat="52.246460" lon="45.911523" popular_title="" region="Саратовская область" short_title="100 км" title="100 км" /><station direction="Сенное" esr="609814" importance="4" lat="52.200840" lon="46.782385" popular_title="" region="Саратовская область" short_title="185 км" title="185 км" /><station direction="Аткарское" esr="608614" importance="4" lat="52.067606" lon="44.222417" popular_title="" region="Саратовская область" short_title="700 км" title="700 км" /><station direction="Аткарское" esr="623534" importance="4" lat="51.656871" lon="45.737062" popular_title="" region="Саратовская область" short_title="824 км" title="824 км" /><station direction="Аткарское" esr="609335" importance="4" lat="52.280544" lon="45.602521" popular_title="" region="Саратовская область" short_title="76 км" title="76 км" /><station city="Саратов" direction="Сенное" esr="620122" importance="4" lat="51.605386" lon="45.958897" popular_title="" region="Саратовская область" short_title="Техстекло" title="Техстекло" /><station direction="Сенное" esr="623756" importance="4" lat="51.804041" lon="46.185464" popular_title="" region="Саратовская область" short_title="257 км" title="257 км" /><station direction="Сенное" esr="623760" importance="4" lat="51.794585" lon="46.193403" popular_title="" region="Саратовская область" short_title="259 км" title="259 км" /><station direction="Сенное" esr="624725" importance="4" lat="52.105130" lon="47.257338" popular_title="" region="Саратовская область" short_title="219 км" title="219 км" /><station direction="Сенное" esr="609918" importance="4" lat="52.165710" lon="46.893363" popular_title="" region="Саратовская область" short_title="196 км" title="196 км" /><station direction="Сенное" esr="609710" importance="4" lat="52.354094" lon="46.618862" popular_title="" region="Саратовская область" short_title="157 км" title="157 км" /><station direction="Аткарское" esr="609250" importance="4" lat="52.239827" lon="45.307179" popular_title="" region="Саратовская область" short_title="52 км" title="52 км" /><station direction="Аткарское" esr="608879" importance="4" lat="51.952725" lon="45.037780" popular_title="" region="Саратовская область" short_title="13 км" title="13 км" /><station direction="Аткарское" esr="608898" importance="4" lat="51.837975" lon="45.100826" popular_title="" region="Саратовская область" short_title="774 км" title="774 км" /><station direction="Аткарское" esr="623510" importance="4" lat="51.671656" lon="45.643542" popular_title="" region="Саратовская область" short_title="816 км" title="816 км" /><station direction="Аткарское" esr="623578" importance="4" lat="51.662192" lon="45.699308" popular_title="" region="Саратовская область" short_title="822 км" title="822 км" /><station direction="Аткарское" esr="623563" importance="4" lat="51.590678" lon="45.835862" popular_title="" region="Саратовская область" short_title="837 км" title="837 км" /><station direction="Аткарское" esr="623614" importance="4" lat="51.591739" lon="45.893559" popular_title="" region="Саратовская область" short_title="Поливановка" title="Поливановка" /><station direction="Заволжское" esr="620527" importance="4" lat="51.472606" lon="45.954669" popular_title="" region="Саратовская область" short_title="Лесопильный" title="Лесопильный" /><station direction="Заволжское" esr="625412" importance="4" lat="51.434933" lon="45.969801" popular_title="" region="Саратовская область" short_title="Увек" title="Увек" /><station direction="Заволжское" esr="625446" importance="4" lat="51.415766" lon="46.045610" popular_title="" region="Саратовская область" short_title="Приволжский" title="Приволжский" /><station city="Саратов" direction="Сенное" esr="620118" importance="4" lat="51.598003" lon="45.933099" popular_title="" region="Саратовская область" short_title="Московское Шоссе" title="Московское Шоссе" /><station direction="Заволжское" esr="625431" importance="4" lat="51.408558" lon="46.014881" popular_title="" region="Саратовская область" short_title="Сазанка" title="Сазанка" /><station direction="Аткарское" esr="623559" importance="4" lat="51.633633" lon="45.806455" popular_title="" region="Саратовская область" short_title="Докторовка" title="Докторовка" /><station direction="Сенное" esr="625003" importance="4" lat="52.089292" lon="47.466659" popular_title="" region="Саратовская область" short_title="Клёны" title="Клёны" /><station direction="Аткарское" esr="623440" importance="4" lat="51.804194" lon="45.185586" popular_title="" region="Саратовская область" short_title="781 км" title="781 км" /><station city="Саратов" direction="Заволжское" esr="620315" importance="4" lat="51.488573" lon="45.938626" popular_title="" region="Саратовская область" short_title="Радужный" title="Радужный" /><station city="Саратов" direction="Аткарское" esr="620067" importance="3" lat="51.565774" lon="45.999230" popular_title="" region="Саратовская область" short_title="Вагонное Депо" title="Вагонное Депо" /><station city="Саратов" direction="Заволжское" esr="620004" importance="1" lat="51.541848" lon="45.997171" popular_title="" region="Саратовская область" short_title="Саратов-1-Пасс." title="Саратов-1-Пасс." /><station direction="Аткарское" esr="865" importance="4" lat="51.743024" lon="45.324724" popular_title="" region="Саратовская область" short_title="794 км" title="794 км" /><station direction="Аткарское" esr="866" importance="4" lat="51.888550" lon="44.957023" popular_title="" region="Саратовская область" short_title="762 км" title="762 км" /><station direction="Сенное" esr="867" importance="4" lat="51.721697" lon="46.183613" popular_title="" region="Саратовская область" short_title="266 км" title="266 км" /><station direction="Сенное" esr="623741" importance="4" lat="51.774693" lon="46.210784" popular_title="" region="Саратовская область" short_title="Вторая Расловка" title="Вторая Расловка" /><station direction="Волгоградское" esr="868" importance="4" lat="51.221409" lon="45.532934" popular_title="" region="Саратовская область" short_title="55 км" title="55 км" /><station direction="Волгоградское" esr="621407" importance="4" lat="50.898118" lon="45.445087" popular_title="" region="Саратовская область" short_title="Суворовский" title="Суворовский" /><station city="Саратов" direction="Заволжское" esr="620048" importance="3" lat="51.526708" lon="45.991305" popular_title="" region="Саратовская область" short_title="Саратов-2" title="Саратов-2" /><station direction="Заволжское" esr="874" importance="4" lat="50.473431" lon="47.881014" popular_title="" region="Саратовская область" short_title="90 км" title="90 км" /><station direction="Заволжское" esr="875" importance="4" lat="50.458203" lon="47.954761" popular_title="" region="Саратовская область" short_title="95 км" title="95 км" /><station direction="Заволжское" esr="877" importance="4" lat="50.260466" lon="48.360391" popular_title="" region="Саратовская область" short_title="133 км" title="133 км" /><station direction="Сенное" esr="889" importance="4" lat="52.160554" lon="47.002839" popular_title="" region="Саратовская область" short_title="Транзитный парк" title="Транзитный парк" /><station direction="Сенное" esr="890" importance="4" lat="52.082071" lon="47.518964" popular_title="" region="Саратовская область" short_title="250 км" title="250 км" /><station direction="Сенное" esr="878" importance="4" lat="52.058768" lon="47.736191" popular_title="" region="Саратовская область" short_title="Линёво" title="Линёво" /><station city="Балаково" direction="Сенное" esr="879" importance="4" lat="51.977661" lon="47.822124" popular_title="" region="Саратовская область" short_title="Транзитный парк Балаково" title="Транзитный парк Балаково" /><station direction="Сенное" esr="880" importance="4" lat="51.925241" lon="48.080272" popular_title="" region="Саратовская область" short_title="Ратная (297 км)" title="Ратная (297 км)" /><station direction="Сенное" esr="881" importance="4" lat="51.951335" lon="48.299702" popular_title="" region="Саратовская область" short_title="309 км" title="309 км" /><station direction="Сенное" esr="627526" importance="4" lat="51.960473" lon="48.814282" popular_title="" region="Саратовская область" short_title="88 км (бывш. 140 км)" title="88 км (бывш. 140 км)" /><station direction="Аткарское" esr="885" importance="4" lat="52.237167" lon="45.971943" popular_title="" region="Саратовская область" short_title="104 км" title="104 км" /><station direction="Аткарское" esr="886" importance="4" lat="52.237995" lon="45.945682" popular_title="" region="Саратовская область" short_title="102 км" title="102 км" /><station direction="Аткарское" esr="887" importance="4" lat="51.610529" lon="44.862355" popular_title="" region="Саратовская область" short_title="36 км" title="36 км" /><station direction="Аткарское" esr="888" importance="4" lat="51.542543" lon="44.595790" popular_title="" region="Саратовская область" short_title="71 км" title="71 км" /></suburban_zone>