<?xml version='1.0' encoding='UTF-8'?>
<suburban_zone id="123"><station city="Старый Оскол" direction="Курское" esr="438506" importance="1" lat="51.311905" lon="37.854910" popular_title="" region="Белгородская область" short_title="Старый Оскол" title="Старый Оскол" /><station city="Губкин" direction="Курское" esr="438001" importance="2" lat="51.279577" lon="37.574114" popular_title="" region="Белгородская область" short_title="Губкин" title="Губкин" /><station city="Курск" direction="Курское" esr="208201" importance="2" lat="51.749858" lon="36.228236" popular_title="" region="Курская область" short_title="Курск" title="Курск" /><station direction="Курское" esr="437422" importance="4" lat="51.651593" lon="36.383537" popular_title="" region="Курская область" short_title="Заплава" title="Заплава" /><station direction="Курское" esr="437418" importance="4" lat="51.636386" lon="36.422135" popular_title="" region="Курская область" short_title="Колодное" title="Колодное" /><station direction="Курское" esr="437333" importance="4" lat="51.582802" lon="36.567063" popular_title="" region="Курская область" short_title="Гуторово" title="Гуторово" /><station direction="Курское" esr="437210" importance="4" lat="51.456003" lon="36.701937" popular_title="" region="Курская область" short_title="Гридасово" title="Гридасово" /><station direction="Курское" esr="437225" importance="4" lat="51.371482" lon="36.777689" popular_title="" region="Курская область" short_title="Надежевка" title="Надежевка" /><station direction="Курское" esr="437329" importance="4" lat="51.568548" lon="36.590340" popular_title="" region="Курская область" short_title="Красниково" title="Красниково" /><station direction="Курское" esr="437314" importance="4" lat="51.544678" lon="36.607651" popular_title="" region="Курская область" short_title="574 км" title="574 км" /><station direction="Курское" esr="435111" importance="3" lat="51.272651" lon="36.724987" popular_title="" region="Курская область" short_title="609 км" title="609 км" /><station direction="Курское" esr="435041" importance="4" lat="51.195350" lon="36.677385" popular_title="" region="Курская область" short_title="Вихровка" title="Вихровка" /><station direction="Курское" esr="435018" importance="4" lat="51.086112" lon="36.767000" popular_title="" region="Белгородская область" short_title="633 км" title="633 км" /><station direction="Курское" esr="434918" importance="4" lat="50.988841" lon="36.628759" popular_title="" region="Белгородская область" short_title="Танковое Поле" title="Танковое Поле" /><station direction="Курское" esr="434814" importance="4" lat="50.868830" lon="36.622305" popular_title="" region="Белгородская область" short_title="Тетеревино" title="Тетеревино" /><station direction="Курское" esr="434710" importance="4" lat="50.802826" lon="36.657512" popular_title="" region="Белгородская область" short_title="Озерово" title="Озерово" /><station direction="Курское" esr="434547" importance="4" lat="50.706811" lon="36.622427" popular_title="" region="Белгородская область" short_title="Шопино" title="Шопино" /><station direction="Курское" esr="434528" importance="4" lat="50.634560" lon="36.629723" popular_title="" region="Белгородская область" short_title="Зеленая Поляна" title="Зеленая Поляна" /><station direction="Курское" esr="434513" importance="2" lat="50.614496" lon="36.619228" popular_title="" region="Белгородская область" short_title="Белая Гора" title="Белая Гора" /><station direction="Курское" esr="437827" importance="4" lat="51.327846" lon="37.225157" popular_title="" region="Белгородская область" short_title="34 км" title="34 км" /><station direction="Курское" esr="438110" importance="4" lat="51.307547" lon="37.676643" popular_title="" region="Белгородская область" short_title="Лукьяновка" title="Лукьяновка" /><station direction="Курское" esr="438124" importance="4" lat="51.310310" lon="37.701344" popular_title="" region="Белгородская область" short_title="Николаевка" title="Николаевка" /><station direction="Курское" esr="438139" importance="4" lat="51.303554" lon="37.724349" popular_title="" region="Белгородская область" short_title="Песчанка" title="Песчанка" /><station direction="Курское" esr="438321" importance="4" lat="51.290877" lon="37.836743" popular_title="" region="Белгородская область" short_title="Ямская" title="Ямская" /><station direction="Готнянское" esr="435643" importance="4" lat="50.751823" lon="36.017675" popular_title="" region="Белгородская область" short_title="Дмитриевская" title="Дмитриевская" /><station direction="Готнянское" esr="435624" importance="4" lat="50.729457" lon="36.140151" popular_title="" region="Белгородская область" short_title="105 км" title="105 км" /><station direction="Готнянское" esr="435614" importance="4" lat="50.697455" lon="36.174653" popular_title="" region="Белгородская область" short_title="110 км" title="110 км" /><station direction="Готнянское" esr="435573" importance="4" lat="50.648599" lon="36.300709" popular_title="" region="Белгородская область" short_title="124 км" title="124 км" /><station direction="Готнянское" esr="435569" importance="4" lat="50.619568" lon="36.370807" popular_title="" region="Белгородская область" short_title="Добрая Воля" title="Добрая Воля" /><station direction="Готнянское" esr="435548" importance="4" lat="50.627939" lon="36.471513" popular_title="" region="Белгородская область" short_title="Заречка" title="Заречка" /><station direction="Готнянское" esr="435520" importance="2" lat="50.617782" lon="36.501441" popular_title="" region="Белгородская область" short_title="Кошары" title="Кошары" /><station direction="Готнянское" esr="435516" importance="4" lat="50.600220" lon="36.541502" popular_title="" region="Белгородская область" short_title="143 км" title="143 км" /><station direction="Купянское" esr="435910" importance="4" lat="50.593510" lon="36.640183" popular_title="" region="Белгородская область" short_title="Железнодорожник" title="Железнодорожник" /><station direction="Купянское" esr="435925" importance="4" lat="50.565975" lon="36.655294" popular_title="" region="Белгородская область" short_title="Витаминная" title="Витаминная" /><station direction="Купянское" esr="434119" importance="4" lat="50.406116" lon="36.796349" popular_title="" region="Белгородская область" short_title="Карьерная" title="Карьерная" /><station direction="Купянское" esr="436025" importance="4" lat="50.540044" lon="36.661942" popular_title="" region="Белгородская область" short_title="Пионерская" title="Пионерская" /><station direction="Курское" esr="437437" importance="4" lat="51.672078" lon="36.348875" popular_title="" region="Курская область" short_title="Конарево" title="Конарево" /><station direction="Курское" esr="437403" importance="4" lat="51.606610" lon="36.505810" popular_title="" region="Курская область" short_title="Полевая" title="Полевая" /><station direction="Курское" esr="437348" importance="4" lat="51.500784" lon="36.655684" popular_title="" region="Курская область" short_title="Шумаково" title="Шумаково" /><station city="Солнцево" direction="Курское" esr="437206" importance="1" lat="51.413798" lon="36.744453" popular_title="" region="Курская область" short_title="Солнцево" title="Солнцево" /><station direction="Курское" esr="437234" importance="3" lat="51.321391" lon="36.777935" popular_title="" region="Курская область" short_title="Сараевка-1" title="Сараевка-1" /><station direction="Курское" esr="437263" importance="4" lat="51.333911" lon="36.940250" popular_title="" region="Курская область" short_title="Сазановка" title="Сазановка" /><station direction="Курское" esr="437808" importance="4" lat="51.343604" lon="37.071922" popular_title="" region="Курская область" short_title="Кривецкая" title="Кривецкая" /><station direction="Курское" esr="437812" importance="4" lat="51.328149" lon="37.191408" popular_title="" region="Белгородская область" short_title="Приустье" title="Приустье" /><station direction="Курское" esr="437901" importance="4" lat="51.308729" lon="37.308853" popular_title="" region="Белгородская область" short_title="Чаплыжное" title="Чаплыжное" /><station direction="Курское" esr="437916" importance="4" lat="51.262221" lon="37.334740" popular_title="" region="Белгородская область" short_title="Заломное" title="Заломное" /><station direction="Курское" esr="437920" importance="4" lat="51.255568" lon="37.458561" popular_title="" region="Белгородская область" short_title="Осколец" title="Осколец" /><station direction="Курское" esr="438105" importance="4" lat="51.305937" lon="37.652909" popular_title="" region="Белгородская область" short_title="Лебеди" title="Лебеди" /><station direction="Курское" esr="438247" importance="4" lat="51.301558" lon="37.736668" popular_title="" region="Белгородская область" short_title="Ездоцкий" title="Ездоцкий" /><station direction="Курское" esr="438317" importance="4" lat="51.294269" lon="37.826741" popular_title="" region="Белгородская область" short_title="Гумны" title="Гумны" /><station city="Белгород" direction="Купянское" esr="434509" importance="1" lat="50.592626" lon="36.605559" popular_title="" region="Белгородская область" short_title="Белгород" title="Белгород" /><station city="Пристень" direction="Курское" esr="435107" importance="2" lat="51.232068" lon="36.697188" popular_title="" region="Курская область" short_title="Ржава" title="Ржава" /><station direction="Курское" esr="435022" importance="4" lat="51.125596" lon="36.759829" popular_title="" region="Белгородская область" short_title="Ельниково" title="Ельниково" /><station city="Прохоровка" direction="Курское" esr="435003" importance="2" lat="51.034599" lon="36.726279" popular_title="" region="Белгородская область" short_title="Прохоровка" title="Прохоровка" /><station direction="Курское" esr="434829" importance="4" lat="50.833258" lon="36.630543" popular_title="" region="Белгородская область" short_title="Сажное" title="Сажное" /><station direction="Курское" esr="434706" importance="4" lat="50.776091" lon="36.657804" popular_title="" region="Белгородская область" short_title="Гостищево" title="Гостищево" /><station direction="Курское" esr="434602" importance="4" lat="50.677622" lon="36.629338" popular_title="" region="Белгородская область" short_title="Беломестная" title="Беломестная" /><station direction="Купянское" esr="435906" importance="4" lat="50.580836" lon="36.651472" popular_title="" region="Белгородская область" short_title="Крейда" title="Крейда" /><station direction="Купянское" esr="436006" importance="4" lat="50.517331" lon="36.681677" popular_title="" region="Белгородская область" short_title="Разумное" title="Разумное" /><station direction="Купянское" esr="436010" importance="4" lat="50.463808" lon="36.738050" popular_title="" region="Белгородская область" short_title="Топлинка" title="Топлинка" /><station city="Шебекино" direction="Купянское" esr="434104" importance="1" lat="50.372702" lon="36.851989" popular_title="" region="Белгородская область" short_title="Нежеголь" title="Нежеголь" /><station direction="Готнянское" esr="435709" importance="4" lat="50.788799" lon="35.902109" popular_title="" region="Белгородская область" short_title="Сумовская" title="Сумовская" /><station direction="Готнянское" esr="435639" importance="4" lat="50.751232" lon="36.073090" popular_title="" region="Белгородская область" short_title="Герцовка" title="Герцовка" /><station city="Томаровка" direction="Готнянское" esr="435605" importance="2" lat="50.672076" lon="36.239577" popular_title="" region="Белгородская область" short_title="Томаровка" title="Томаровка" /><station city="Белгород" direction="Готнянское" esr="435501" importance="2" lat="50.585984" lon="36.584933" popular_title="" region="Белгородская область" short_title="Белгород-Сумской" title="Белгород-Сумской" /><station direction="Харьковское" esr="434405" importance="4" lat="50.497956" lon="36.391713" popular_title="" region="Белгородская область" short_title="Долбино" title="Долбино" /><station direction="Харьковское" esr="434301" importance="4" lat="50.448491" lon="36.357918" popular_title="" region="Белгородская область" short_title="Толоконное" title="Толоконное" /><station direction="Харьковское" esr="434231" importance="4" lat="50.401308" lon="36.318414" popular_title="" region="Белгородская область" short_title="Наумовка" title="Наумовка" /><station city="Пролетарский" direction="Готнянское" esr="436400" importance="2" lat="50.795539" lon="35.773038" popular_title="" region="Белгородская область" short_title="Готня" title="Готня" /><station direction="Курское" esr="437831" importance="4" lat="51.319763" lon="37.263014" popular_title="" region="Белгородская область" short_title="Строкино" title="Строкино" /><station direction="Курское" esr="437935" importance="4" lat="51.256257" lon="37.495643" popular_title="" region="Белгородская область" short_title="Зареченка" title="Зареченка" /><station direction="Курское" esr="437259" importance="4" lat="51.332674" lon="36.864253" popular_title="" region="Курская область" short_title="Сеймица" title="Сеймица" /><station direction="Готнянское" esr="435554" importance="4" lat="50.623285" lon="36.416989" popular_title="" region="Белгородская область" short_title="134 км" title="134 км" /><station direction="Курское" esr="437507" importance="4" lat="51.698670" lon="36.284282" popular_title="" region="Курская область" short_title="Клюква" title="Клюква" /><station direction="Курское" esr="438406" importance="4" lat="51.298491" lon="37.783681" popular_title="" region="Белгородская область" short_title="Стойленская" title="Стойленская" /><station direction="Курское" esr="435037" importance="4" lat="51.161491" lon="36.707364" popular_title="" region="Курская область" short_title="Ольшанка" title="Ольшанка" /><station direction="Курское" esr="435056" importance="4" lat="51.064401" lon="36.752424" popular_title="" region="Белгородская область" short_title="635 км" title="635 км" /><station direction="Курское" esr="437846" importance="4" lat="51.342099" lon="37.130142" popular_title="" region="Курская область" short_title="24 км" title="24 км" /><station direction="Курское" esr="437954" importance="4" lat="51.259208" lon="37.383313" popular_title="" region="Белгородская область" short_title="57 км" title="57 км" /><station direction="Курское" esr="437969" importance="4" lat="51.267420" lon="37.528091" popular_title="" region="Белгородская область" short_title="64 км" title="64 км" /><station direction="Готнянское" esr="436415" importance="4" lat="50.772231" lon="35.933700" popular_title="" region="Белгородская область" short_title="93 км" title="93 км" /><station direction="Готнянское" esr="435588" importance="4" lat="50.643532" lon="36.312994" popular_title="" region="Белгородская область" short_title="126 км" title="126 км" /><station direction="Харьковское" esr="434439" importance="4" lat="50.567722" lon="36.519375" popular_title="" region="Белгородская область" short_title="Красное" title="Красное" /><station direction="Курское" esr="434566" importance="4" lat="50.753169" lon="36.624040" popular_title="" region="Белгородская область" short_title="Вислое" title="Вислое" /><station direction="Харьковское" esr="434246" importance="4" lat="50.426259" lon="36.341931" popular_title="" region="Белгородская область" short_title="Дмитротарановский" title="Дмитротарановский" /><station direction="Харьковское" esr="434419" importance="4" lat="50.515836" lon="36.402020" popular_title="" region="Белгородская область" short_title="Головино" title="Головино" /><station city="Губкин" direction="Курское" esr="437949" importance="2" lat="51.274869" lon="37.544411" popular_title="" region="Белгородская область" short_title="Губкин-Пасс." title="Губкин-Пасс." /><station direction="Харьковское" esr="434424" importance="4" lat="50.556473" lon="36.497237" popular_title="" region="Белгородская область" short_title="Болховец" title="Болховец" /><station direction="Курское" esr="434551" importance="4" lat="50.728279" lon="36.615534" popular_title="" region="Белгородская область" short_title="Терновка" title="Терновка" /><station direction="Харьковское" esr="434227" importance="4" lat="50.372719" lon="36.265662" popular_title="" region="Белгородская область" short_title="Красный Хутор" title="Красный Хутор" /><station direction="Курское" esr="438016" importance="4" lat="51.295317" lon="37.606403" popular_title="" region="Белгородская область" short_title="Карьерная" title="Карьерная" /><station direction="Купянское" esr="434123" importance="4" lat="50.441684" lon="36.762335" popular_title="" region="Белгородская область" short_title="Прилютовка" title="Прилютовка" /><station direction="Харьковское" esr="434443" importance="4" lat="50.576111" lon="36.541113" popular_title="" region="Белгородская область" short_title="701 км" title="701 км" /><station city="Харьков" direction="Харьковское" esr="440054" importance="1" lat="49.989425" lon="36.203633" popular_title="Южный вокзал" region="Харьковская область" short_title="Харьков-Пасс." title="Харьков-Пасс." /><station city="Волчанск" direction="Купянское" esr="433506" importance="1" lat="50.282789" lon="36.919592" popular_title="" region="Харьковская область" short_title="Волчанск" title="Волчанск" /><station direction="Харьковское" esr="432306" importance="4" lat="50.334731" lon="36.193748" popular_title="" region="Харьковская область" short_title="Казачья Лопань" title="Казачья Лопань" /><station city="Слатино" direction="Харьковское" esr="432240" importance="1" lat="50.209368" lon="36.154543" popular_title="" region="Харьковская область" short_title="Слатино" title="Слатино" /><station city="Дергачи" direction="Харьковское" esr="432202" importance="1" lat="50.100313" lon="36.134688" popular_title="" region="Харьковская область" short_title="Дергачи" title="Дергачи" /><station city="Харьков" direction="Харьковское" esr="440016" importance="4" lat="50.035465" lon="36.175936" popular_title="" region="Харьковская область" short_title="Северный пост" title="Северный пост" /><station direction="Харьковское" esr="432236" importance="4" lat="50.165691" lon="36.133820" popular_title="" region="Харьковская область" short_title="Безруковка" title="Безруковка" /><station direction="Харьковское" esr="432221" importance="4" lat="50.118600" lon="36.128804" popular_title="" region="Харьковская область" short_title="Новые Дергачи" title="Новые Дергачи" /><station direction="Харьковское" esr="440035" importance="4" lat="50.066963" lon="36.162234" popular_title="" region="Харьковская область" short_title="Лозовенька" title="Лозовенька" /><station city="Прудянка" direction="Харьковское" esr="432255" importance="1" lat="50.240271" lon="36.167928" popular_title="" region="Харьковская область" short_title="Прудянка" title="Прудянка" /><station direction="Харьковское" esr="432260" importance="4" lat="50.273174" lon="36.178009" popular_title="" region="Харьковская область" short_title="Цуповка" title="Цуповка" /><station direction="Харьковское" esr="440020" importance="4" lat="50.052588" lon="36.168019" popular_title="" region="Харьковская область" short_title="Подгородная" title="Подгородная" /><station direction="Харьковское" esr="432274" importance="4" lat="50.302000" lon="36.175387" popular_title="" region="Харьковская область" short_title="Новая Казачья" title="Новая Казачья" /><station direction="Харьковское" esr="432310" importance="4" lat="50.360792" lon="36.223295" popular_title="" region="Харьковская область" short_title="Граны" title="Граны" /><station direction="Харьковское" esr="432217" importance="4" lat="50.086700" lon="36.146151" popular_title="" region="Харьковская область" short_title="Моторная" title="Моторная" /><station city="Харьков" direction="Харьковское" esr="440041" importance="4" lat="50.016242" lon="36.186558" popular_title="" region="Харьковская область" short_title="Южный пост" title="Южный пост" /><station direction="Курское" esr="003042" importance="4" lat="51.360223" lon="36.783761" popular_title="" region="Курская область" short_title="600 км" title="600 км" /><station direction="Курское" esr="003043" importance="4" lat="51.014380" lon="36.670037" popular_title="" region="Белгородская область" short_title="Звонница" title="Звонница" /><station direction="Курское" esr="434922" importance="4" lat="50.940419" lon="36.622849" popular_title="" region="Белгородская область" short_title="Беленихино" title="Беленихино" /><station direction="Курское" esr="003044" importance="4" lat="50.762414" lon="36.649471" popular_title="" region="Белгородская область" short_title="676 км" title="676 км" /><station direction="Курское" esr="003045" importance="4" lat="50.653227" lon="36.633218" popular_title="" region="Белгородская область" short_title="689 км" title="689 км" /><station city="Белгород" direction="Харьковское" esr="001647" importance="4" lat="50.586030" lon="36.585017" popular_title="" region="Белгородская область" short_title="Салют" title="Салют" /><station direction="Купянское" esr="001648" importance="4" lat="50.496043" lon="36.704142" popular_title="" region="Белгородская область" short_title="16 км" title="16 км" /><station direction="Купянское" esr="001649" importance="4" lat="50.394182" lon="36.826416" popular_title="" region="Белгородская область" short_title="31 км" title="31 км" /><station direction="Готнянское" esr="001650" importance="4" lat="50.627448" lon="36.446991" popular_title="" region="Белгородская область" short_title="136 км" title="136 км" /><station direction="Готнянское" esr="001651" importance="4" lat="50.789733" lon="35.808911" popular_title="" region="Белгородская область" short_title="3 км" title="3 км" /><station direction="Курское" esr="001658" importance="4" lat="51.331984" lon="36.825507" popular_title="" region="Курская область" short_title="4 км" title="4 км" /><station direction="Курское" esr="001659" importance="4" lat="51.288054" lon="37.863216" popular_title="" region="Белгородская область" short_title="90 км" title="90 км" /><station direction="Купянское" esr="433510" importance="4" lat="50.307526" lon="36.869054" popular_title="" region="Харьковская область" short_title="Огурцово" title="Огурцово" /></suburban_zone>