<?xml version='1.0' encoding='UTF-8'?>
<suburban_zone id="125"><station city="Воронеж" direction="Лискинское" esr="596506" importance="1" lat="51.680196" lon="39.206179" popular_title="" region="Воронежская область" short_title="Воронеж-1" title="Воронеж-1" /><station city="Старый Оскол" direction="Старооскольское" esr="438506" importance="1" lat="51.311905" lon="37.854910" popular_title="" region="Белгородская область" short_title="Старый Оскол" title="Старый Оскол" /><station city="Валуйки" direction="Купянское" esr="438302" importance="1" lat="50.199312" lon="38.121019" popular_title="" region="Белгородская область" short_title="Валуйки" title="Валуйки" /><station city="Алексеевка" direction="Лискинское" esr="581407" importance="2" lat="50.618014" lon="38.670570" popular_title="" region="Белгородская область" short_title="Алексеевка" title="Алексеевка" /><station city="Воронеж" direction="Лискинское" esr="597119" importance="4" lat="51.598220" lon="39.250903" popular_title="" region="Воронежская область" short_title="Машмет" title="Машмет" /><station direction="Лискинское" esr="597231" importance="4" lat="51.450137" lon="39.233102" popular_title="" region="Воронежская область" short_title="Боево" title="Боево" /><station city="Воронеж" direction="Лискинское" esr="590016" importance="4" lat="51.701468" lon="39.276877" popular_title="" region="Воронежская область" short_title="582 км" title="582 км" /><station direction="Старооскольское" esr="439447" importance="4" lat="50.202918" lon="38.082830" popular_title="" region="Белгородская область" short_title="Симоновская" title="Симоновская" /><station city="Воронеж" direction="Лискинское" esr="590020" importance="4" lat="51.668292" lon="39.269639" popular_title="" region="Воронежская область" short_title="586 км" title="586 км" /><station direction="Лискинское" esr="581924" importance="4" lat="50.965056" lon="39.461472" popular_title="" region="Воронежская область" short_title="Откос" title="Откос" /><station city="Воронеж" direction="Лискинское" esr="596510" importance="3" lat="51.699588" lon="39.233276" popular_title="" region="Воронежская область" short_title="Берёзовая Роща" title="Берёзовая Роща" /><station city="Воронеж" direction="Лискинское" esr="596417" importance="3" lat="51.677260" lon="39.188927" popular_title="" region="Воронежская область" short_title="Воронеж (пл.Плехановская)" title="Воронеж (пл.Плехановская)" /><station direction="Лискинское" esr="581712" importance="4" lat="50.884900" lon="39.177790" popular_title="" region="Воронежская область" short_title="Лушниковка" title="Лушниковка" /><station direction="Лискинское" esr="581623" importance="4" lat="50.765879" lon="38.980917" popular_title="" region="Воронежская область" short_title="Инютино" title="Инютино" /><station direction="Лискинское" esr="580512" importance="4" lat="50.222514" lon="38.189045" popular_title="" region="Белгородская область" short_title="9 км" title="9 км" /><station direction="Лискинское" esr="580527" importance="4" lat="50.259442" lon="38.235246" popular_title="" region="Белгородская область" short_title="15 км" title="15 км" /><station direction="Лискинское" esr="581110" importance="4" lat="50.492575" lon="38.356812" popular_title="" region="Белгородская область" short_title="44 км" title="44 км" /><station direction="Лискинское" esr="581214" importance="4" lat="50.556281" lon="38.472543" popular_title="" region="Белгородская область" short_title="55 км" title="55 км" /><station direction="Лискинское" esr="581318" importance="4" lat="50.607649" lon="38.555494" popular_title="" region="Белгородская область" short_title="Олегово" title="Олегово" /><station direction="Лискинское" esr="581322" importance="4" lat="50.630807" lon="38.597456" popular_title="" region="Белгородская область" short_title="71 км" title="71 км" /><station city="Лиски" direction="Лискинское" esr="582005" importance="2" lat="50.980433" lon="39.509282" popular_title="" region="Воронежская область" short_title="Лиски" title="Лиски" /><station direction="Купянское" esr="439714" importance="4" lat="50.002355" lon="37.988333" popular_title="" region="Белгородская область" short_title="Соловей" title="Соловей" /><station direction="Лискинское" esr="597212" importance="4" lat="51.542123" lon="39.243809" popular_title="" region="Воронежская область" short_title="600 км" title="600 км" /><station direction="Старооскольское" esr="438529" importance="4" lat="51.260322" lon="37.890307" popular_title="" region="Белгородская область" short_title="617 км" title="617 км" /><station direction="Старооскольское" esr="438618" importance="4" lat="51.206197" lon="37.909279" popular_title="" region="Белгородская область" short_title="624 км" title="624 км" /><station direction="Лискинское" esr="597316" importance="4" lat="51.328660" lon="39.316970" popular_title="" region="Воронежская область" short_title="626 км" title="626 км" /><station direction="Старооскольское" esr="438622" importance="4" lat="51.152995" lon="37.909985" popular_title="" region="Белгородская область" short_title="630 км" title="630 км" /><station direction="Старооскольское" esr="438711" importance="4" lat="51.067873" lon="37.888151" popular_title="" region="Белгородская область" short_title="640 км" title="640 км" /><station direction="Старооскольское" esr="438919" importance="4" lat="50.821320" lon="37.855514" popular_title="" region="Белгородская область" short_title="671 км" title="671 км" /><station direction="Старооскольское" esr="439038" importance="4" lat="50.617753" lon="37.808263" popular_title="" region="Белгородская область" short_title="697 км" title="697 км" /><station direction="Старооскольское" esr="439316" importance="4" lat="50.345178" lon="37.908008" popular_title="" region="Белгородская область" short_title="730 км" title="730 км" /><station direction="Старооскольское" esr="439413" importance="4" lat="50.288603" lon="37.983284" popular_title="" region="Белгородская область" short_title="739 км" title="739 км" /><station city="Валуйки" direction="Купянское" esr="438355" importance="4" lat="50.171628" lon="38.112696" popular_title="" region="Белгородская область" short_title="Валуйки-Сорт." title="Валуйки-Сорт." /><station direction="Купянское" esr="438232" importance="4" lat="50.137374" lon="38.093089" popular_title="" region="Белгородская область" short_title="Колыхалино" title="Колыхалино" /><station direction="Купянское" esr="438228" importance="4" lat="50.117597" lon="38.084573" popular_title="" region="Белгородская область" short_title="Путиловская" title="Путиловская" /><station direction="Купянское" esr="439729" importance="4" lat="50.035734" lon="38.029568" popular_title="" region="Белгородская область" short_title="Двулучное" title="Двулучное" /><station direction="Лискинское" esr="581515" importance="4" lat="50.670951" lon="38.870566" popular_title="" region="Белгородская область" short_title="94 км" title="94 км" /><station direction="Лискинское" esr="581638" importance="4" lat="50.811123" lon="39.057503" popular_title="" region="Воронежская область" short_title="Новая Сотня" title="Новая Сотня" /><station direction="Лискинское" esr="581820" importance="4" lat="50.979316" lon="39.314871" popular_title="" region="Воронежская область" short_title="Дивногорская" title="Дивногорская" /><station direction="Лискинское" esr="581816" importance="4" lat="50.966985" lon="39.291773" popular_title="" region="Воронежская область" short_title="143 км" title="143 км" /><station direction="Лискинское" esr="581913" importance="4" lat="50.975496" lon="39.406829" popular_title="" region="Воронежская область" short_title="152 км" title="152 км" /><station direction="Лискинское" esr="581943" importance="4" lat="50.960144" lon="39.506474" popular_title="" region="Воронежская область" short_title="161 км" title="161 км" /><station direction="Лискинское" esr="581939" importance="4" lat="50.961790" lon="39.500801" popular_title="" region="Воронежская область" short_title="159 км" title="159 км" /><station direction="Лискинское" esr="581619" importance="4" lat="50.747067" lon="38.923246" popular_title="" region="Воронежская область" short_title="104 км" title="104 км" /><station direction="Лискинское" esr="597227" importance="4" lat="51.505668" lon="39.240814" popular_title="" region="Воронежская область" short_title="604 км" title="604 км" /><station direction="Лискинское" esr="597246" importance="4" lat="51.426374" lon="39.236329" popular_title="" region="Воронежская область" short_title="613 км" title="613 км" /><station direction="Лискинское" esr="597250" importance="4" lat="51.391955" lon="39.265027" popular_title="" region="Воронежская область" short_title="618 км" title="618 км" /><station direction="Лискинское" esr="597320" importance="4" lat="51.283604" lon="39.336383" popular_title="" region="Воронежская область" short_title="631 км" title="631 км" /><station city="Новый Оскол" direction="Старооскольское" esr="439004" importance="1" lat="50.760306" lon="37.870455" popular_title="" region="Белгородская область" short_title="Новый Оскол" title="Новый Оскол" /><station direction="Лискинское" esr="597335" importance="4" lat="51.247531" lon="39.351804" popular_title="" region="Воронежская область" short_title="Аношкино" title="Аношкино" /><station direction="Старооскольское" esr="438603" importance="4" lat="51.228105" lon="37.902103" popular_title="" region="Белгородская область" short_title="Котёл" title="Котёл" /><station direction="Старооскольское" esr="438707" importance="4" lat="51.114570" lon="37.899004" popular_title="" region="Белгородская область" short_title="Голофеевка" title="Голофеевка" /><station direction="Старооскольское" esr="438726" importance="4" lat="51.032569" lon="37.873097" popular_title="" region="Белгородская область" short_title="Окунёвка" title="Окунёвка" /><station city="Чернянка" direction="Старооскольское" esr="438800" importance="2" lat="50.942471" lon="37.815471" popular_title="" region="Белгородская область" short_title="Чернянка" title="Чернянка" /><station direction="Старооскольское" esr="438904" importance="4" lat="50.848722" lon="37.823975" popular_title="" region="Белгородская область" short_title="Холки" title="Холки" /><station direction="Старооскольское" esr="439023" importance="4" lat="50.668013" lon="37.794352" popular_title="" region="Белгородская область" short_title="Слоновка" title="Слоновка" /><station direction="Старооскольское" esr="439108" importance="4" lat="50.564212" lon="37.803718" popular_title="" region="Белгородская область" short_title="Староивановка" title="Староивановка" /><station city="Волоконовка" direction="Старооскольское" esr="439201" importance="1" lat="50.490181" lon="37.854663" popular_title="" region="Белгородская область" short_title="Волоконовка" title="Волоконовка" /><station direction="Старооскольское" esr="439305" importance="4" lat="50.384927" lon="37.861465" popular_title="" region="Белгородская область" short_title="Рай" title="Рай" /><station direction="Старооскольское" esr="439409" importance="4" lat="50.311318" lon="37.952788" popular_title="" region="Белгородская область" short_title="Принцевка" title="Принцевка" /><station direction="Старооскольское" esr="439428" importance="4" lat="50.262725" lon="38.015322" popular_title="" region="Белгородская область" short_title="Солоти" title="Солоти" /><station direction="Купянское" esr="438340" importance="4" lat="50.153839" lon="38.103322" popular_title="" region="Белгородская область" short_title="Трошино" title="Трошино" /><station direction="Лискинское" esr="597617" importance="4" lat="51.022535" lon="39.506379" popular_title="" region="Воронежская область" short_title="Блочный Завод" title="Блочный Завод" /><station city="Уразово" direction="Купянское" esr="438209" importance="2" lat="50.084335" lon="38.058272" popular_title="" region="Белгородская область" short_title="Уразово" title="Уразово" /><station direction="Лискинское" esr="597621" importance="4" lat="51.003150" lon="39.510062" popular_title="" region="Воронежская область" short_title="666 км (Депо)" title="666 км (Депо)" /><station city="Воронеж" direction="Лискинское" esr="590001" importance="2" lat="51.727930" lon="39.266089" popular_title="" region="Воронежская область" short_title="Отрожка" title="Отрожка" /><station city="Воронеж" direction="Лискинское" esr="597104" importance="2" lat="51.640228" lon="39.258872" popular_title="" region="Воронежская область" short_title="Придача" title="Придача" /><station direction="Лискинское" esr="597208" importance="4" lat="51.561113" lon="39.246288" popular_title="" region="Воронежская область" short_title="Масловка" title="Масловка" /><station direction="Лискинское" esr="597301" importance="4" lat="51.351602" lon="39.299037" popular_title="" region="Воронежская область" short_title="Колодезная" title="Колодезная" /><station direction="Лискинское" esr="597509" importance="4" lat="51.156562" lon="39.420502" popular_title="" region="Воронежская область" short_title="Давыдовка" title="Давыдовка" /><station direction="Лискинское" esr="597602" importance="4" lat="51.059029" lon="39.486245" popular_title="" region="Воронежская область" short_title="Бодеево" title="Бодеево" /><station direction="Лискинское" esr="580531" importance="4" lat="50.246218" lon="38.222289" popular_title="" region="Белгородская область" short_title="Насоново" title="Насоново" /><station direction="Лискинское" esr="581021" importance="4" lat="50.303332" lon="38.256416" popular_title="" region="Белгородская область" short_title="Мандрово" title="Мандрово" /><station direction="Лискинское" esr="581017" importance="4" lat="50.384012" lon="38.267222" popular_title="" region="Белгородская область" short_title="Растрижено" title="Растрижено" /><station direction="Лискинское" esr="581106" importance="4" lat="50.441545" lon="38.299316" popular_title="" region="Белгородская область" short_title="Палатовка" title="Палатовка" /><station city="Бирюч" direction="Лискинское" esr="581209" importance="2" lat="50.529091" lon="38.421211" popular_title="" region="Белгородская область" short_title="Бирюч" title="Бирюч" /><station direction="Лискинское" esr="581303" importance="4" lat="50.560411" lon="38.534492" popular_title="" region="Белгородская область" short_title="Хлевище" title="Хлевище" /><station direction="Лискинское" esr="581528" importance="4" lat="50.643248" lon="38.832022" popular_title="" region="Белгородская область" short_title="Мотома" title="Мотома" /><station direction="Лискинское" esr="581642" importance="4" lat="50.709039" lon="38.897574" popular_title="" region="Воронежская область" short_title="Засимовка" title="Засимовка" /><station city="Острогожск" direction="Лискинское" esr="581708" importance="2" lat="50.849708" lon="39.100917" popular_title="" region="Воронежская область" short_title="Острогожск" title="Острогожск" /><station direction="Лискинское" esr="581801" importance="4" lat="50.944544" lon="39.248595" popular_title="" region="Воронежская область" short_title="Копанище" title="Копанище" /><station direction="Лискинское" esr="581905" importance="4" lat="50.988666" lon="39.368524" popular_title="" region="Воронежская область" short_title="Крупенниково" title="Крупенниково" /><station direction="Старооскольское" esr="439216" importance="4" lat="50.432351" lon="37.843262" popular_title="" region="Белгородская область" short_title="720 км" title="720 км" /><station direction="Старооскольское" esr="439019" importance="4" lat="50.704064" lon="37.828268" popular_title="" region="Белгородская область" short_title="686 км" title="686 км" /><station direction="Старооскольское" esr="438514" importance="4" lat="51.281936" lon="37.885662" popular_title="" region="Белгородская область" short_title="615 км" title="615 км" /><station direction="Купянское" esr="438213" importance="4" lat="50.102346" lon="38.069362" popular_title="" region="Белгородская область" short_title="764 км" title="764 км" /><station direction="Лискинское" esr="597265" importance="4" lat="51.480897" lon="39.240995" popular_title="" region="Воронежская область" short_title="607 км" title="607 км" /><station direction="Старооскольское" esr="439042" importance="4" lat="50.642317" lon="37.810120" popular_title="" region="Белгородская область" short_title="694 км" title="694 км" /><station direction="Старооскольское" esr="439057" importance="4" lat="50.530977" lon="37.825686" popular_title="" region="Белгородская область" short_title="706 км" title="706 км" /><station direction="Старооскольское" esr="439061" importance="4" lat="50.509469" lon="37.824629" popular_title="" region="Белгородская область" short_title="710 км" title="710 км" /><station direction="Старооскольское" esr="439432" importance="4" lat="50.253064" lon="38.029845" popular_title="" region="Белгородская область" short_title="748 км" title="748 км" /><station direction="Лискинское" esr="581727" importance="4" lat="50.858996" lon="39.153995" popular_title="" region="Воронежская область" short_title="126 км" title="126 км" /><station direction="Лискинское" esr="581731" importance="4" lat="50.920897" lon="39.224285" popular_title="" region="Воронежская область" short_title="134 км" title="134 км" /><station direction="Лискинское" esr="581958" importance="4" lat="50.971929" lon="39.413895" popular_title="" region="Воронежская область" short_title="154 км" title="154 км" /><station direction="Лискинское" esr="581337" importance="4" lat="50.624450" lon="38.633498" popular_title="" region="Белгородская область" short_title="Путейская" title="Путейская" /><station direction="Купянское" esr="432109" importance="4" lat="49.960281" lon="37.908673" popular_title="" region="Харьковская область" short_title="Тополи" title="Тополи" /><station direction="Лискинское" esr="001644" importance="4" lat="50.510638" lon="38.391855" popular_title="" region="Белгородская область" short_title="47 км" title="47 км" /><station direction="Лискинское" esr="001645" importance="4" lat="50.214694" lon="38.168934" popular_title="" region="Белгородская область" short_title="6 км" title="6 км" /><station direction="Старооскольское" esr="001660" importance="4" lat="51.185715" lon="37.910434" popular_title="" region="Белгородская область" short_title="626 км" title="626 км" /><station direction="Старооскольское" esr="001661" importance="4" lat="50.975267" lon="37.823382" popular_title="" region="Белгородская область" short_title="652 км" title="652 км" /><station direction="Старооскольское" esr="001662" importance="4" lat="50.195241" lon="38.100147" popular_title="" region="Белгородская область" short_title="753 км" title="753 км" /><station city="Валуйки" direction="Купянское" esr="001677" importance="4" lat="50.188897" lon="38.110049" popular_title="" region="Белгородская область" short_title="Вагонное депо" title="Вагонное депо" /></suburban_zone>