<?xml version='1.0' encoding='UTF-8'?>
<suburban_zone id="131"><station direction="Льговское" esr="206831" importance="4" lat="50.934826" lon="35.668175" popular_title="" region="Курская область" short_title="104 км" title="104 км" /><station direction="Льговское" esr="206723" importance="4" lat="51.024838" lon="35.665924" popular_title="" region="Курская область" short_title="93 км" title="93 км" /><station direction="Льговское" esr="206348" importance="4" lat="51.519268" lon="35.341055" popular_title="" region="Курская область" short_title="Деревеньки" title="Деревеньки" /><station direction="Льговское" esr="206333" importance="4" lat="51.370764" lon="35.253791" popular_title="" region="Курская область" short_title="Гродненский" title="Гродненский" /><station direction="Льговское" esr="206403" importance="4" lat="51.335340" lon="35.232731" popular_title="" region="Курская область" short_title="Локинская" title="Локинская" /><station direction="Льговское" esr="206422" importance="4" lat="51.265836" lon="35.260362" popular_title="" region="Курская область" short_title="Курчаниново" title="Курчаниново" /><station city="Суджа" direction="Льговское" esr="206507" importance="2" lat="51.207400" lon="35.308487" popular_title="" region="Курская область" short_title="Суджа" title="Суджа" /><station direction="Льговское" esr="206600" importance="4" lat="51.117833" lon="35.512472" popular_title="" region="Курская область" short_title="Сосновый Бор" title="Сосновый Бор" /><station direction="Льговское" esr="206704" importance="4" lat="51.079086" lon="35.584938" popular_title="" region="Курская область" short_title="Псёл" title="Псёл" /><station direction="Льговское" esr="206846" importance="4" lat="50.996738" lon="35.661956" popular_title="" region="Курская область" short_title="Рулитино" title="Рулитино" /><station direction="Льговское" esr="206948" importance="4" lat="50.904552" lon="35.658021" popular_title="" region="Белгородская область" short_title="Юсупово" title="Юсупово" /><station city="Льгов" direction="Льговское" esr="206206" importance="2" lat="51.637505" lon="35.266618" popular_title="" region="Курская область" short_title="Льгов-1-Киевский" title="Льгов-1-Киевский" /><station direction="Льговское" esr="206225" importance="4" lat="51.598557" lon="35.312787" popular_title="" region="Курская область" short_title="5 км" title="5 км" /><station direction="Льговское" esr="206244" importance="4" lat="51.566584" lon="35.325765" popular_title="" region="Курская область" short_title="11 км" title="11 км" /><station direction="Льговское" esr="206329" importance="4" lat="51.435986" lon="35.279017" popular_title="" region="Курская область" short_title="Анастасьевка" title="Анастасьевка" /><station direction="Льговское" esr="206916" importance="4" lat="50.860153" lon="35.661436" popular_title="" region="Белгородская область" short_title="109 км" title="109 км" /><station direction="Льговское" esr="206935" importance="4" lat="50.829998" lon="35.695392" popular_title="" region="Белгородская область" short_title="Подкосылев" title="Подкосылев" /><station direction="Льговское" esr="206719" importance="4" lat="51.066458" lon="35.602943" popular_title="" region="Курская область" short_title="86 км" title="86 км" /><station direction="Льговское" esr="206615" importance="4" lat="51.098623" lon="35.555952" popular_title="" region="Курская область" short_title="82 км" title="82 км" /><station direction="Льговское" esr="206545" importance="4" lat="51.147710" lon="35.435903" popular_title="" region="Курская область" short_title="73 км" title="73 км" /><station direction="Льговское" esr="206526" importance="4" lat="51.172765" lon="35.379205" popular_title="" region="Курская область" short_title="69 км" title="69 км" /><station direction="Льговское" esr="206314" importance="4" lat="51.477519" lon="35.309028" popular_title="" region="Курская область" short_title="26 км" title="26 км" /><station direction="Льговское" esr="206812" importance="4" lat="50.970092" lon="35.655669" popular_title="" region="Курская область" short_title="99 км" title="99 км" /><station direction="Льговское" esr="206437" importance="4" lat="51.253809" lon="35.281504" popular_title="" region="Курская область" short_title="54 км" title="54 км" /><station direction="Льговское" esr="206511" importance="4" lat="51.190628" lon="35.341668" popular_title="" region="Курская область" short_title="66 км" title="66 км" /><station direction="Льговское" esr="206233" importance="4" lat="51.581881" lon="35.315733" popular_title="" region="Курская область" short_title="Сугров" title="Сугров" /><station direction="Сумское" esr="436701" importance="4" lat="50.781705" lon="35.687649" popular_title="" region="Белгородская область" short_title="Свекловичная" title="Свекловичная" /><station direction="Белгородское" esr="435643" importance="4" lat="50.751823" lon="36.017675" popular_title="" region="Белгородская область" short_title="Дмитриевская" title="Дмитриевская" /><station direction="Сумское" esr="436716" importance="4" lat="50.754733" lon="35.621098" popular_title="" region="Белгородская область" short_title="Крисаново" title="Крисаново" /><station direction="Белгородское" esr="435624" importance="4" lat="50.729457" lon="36.140151" popular_title="" region="Белгородская область" short_title="105 км" title="105 км" /><station direction="Белгородское" esr="435614" importance="4" lat="50.697455" lon="36.174653" popular_title="" region="Белгородская область" short_title="110 км" title="110 км" /><station direction="Белгородское" esr="435573" importance="4" lat="50.648599" lon="36.300709" popular_title="" region="Белгородская область" short_title="124 км" title="124 км" /><station direction="Белгородское" esr="435569" importance="4" lat="50.619568" lon="36.370807" popular_title="" region="Белгородская область" short_title="Добрая Воля" title="Добрая Воля" /><station direction="Белгородское" esr="435548" importance="4" lat="50.627939" lon="36.471513" popular_title="" region="Белгородская область" short_title="Заречка" title="Заречка" /><station direction="Белгородское" esr="435520" importance="2" lat="50.617782" lon="36.501441" popular_title="" region="Белгородская область" short_title="Кошары" title="Кошары" /><station direction="Белгородское" esr="435516" importance="4" lat="50.600220" lon="36.541502" popular_title="" region="Белгородская область" short_title="143 км" title="143 км" /><station city="Белгород" direction="Белгородское" esr="434509" importance="1" lat="50.592626" lon="36.605559" popular_title="" region="Белгородская область" short_title="Белгород" title="Белгород" /><station direction="Белгородское" esr="435709" importance="4" lat="50.788799" lon="35.902109" popular_title="" region="Белгородская область" short_title="Сумовская" title="Сумовская" /><station direction="Белгородское" esr="435639" importance="4" lat="50.751232" lon="36.073090" popular_title="" region="Белгородская область" short_title="Герцовка" title="Герцовка" /><station city="Томаровка" direction="Белгородское" esr="435605" importance="2" lat="50.672076" lon="36.239577" popular_title="" region="Белгородская область" short_title="Томаровка" title="Томаровка" /><station city="Белгород" direction="Белгородское" esr="435501" importance="2" lat="50.585984" lon="36.584933" popular_title="" region="Белгородская область" short_title="Белгород-Сумской" title="Белгород-Сумской" /><station city="Пролетарский" direction="Льговское" esr="436400" importance="2" lat="50.795539" lon="35.773038" popular_title="" region="Белгородская область" short_title="Готня" title="Готня" /><station direction="Харьковское" esr="436345" importance="4" lat="50.717451" lon="35.861135" popular_title="" region="Белгородская область" short_title="Трефиловка" title="Трефиловка" /><station direction="Харьковское" esr="436307" importance="4" lat="50.583381" lon="35.923063" popular_title="" region="Белгородская область" short_title="Новоборисовка" title="Новоборисовка" /><station direction="Харьковское" esr="436203" importance="4" lat="50.513081" lon="35.828678" popular_title="" region="Белгородская область" short_title="Хотмыжск" title="Хотмыжск" /><station direction="Белгородское" esr="435554" importance="4" lat="50.623285" lon="36.416989" popular_title="" region="Белгородская область" short_title="134 км" title="134 км" /><station direction="Харьковское" esr="436326" importance="4" lat="50.642128" lon="35.884210" popular_title="" region="Белгородская область" short_title="Кулиновка" title="Кулиновка" /><station direction="Харьковское" esr="436330" importance="4" lat="50.682214" lon="35.881405" popular_title="" region="Белгородская область" short_title="140 км" title="140 км" /><station direction="Харьковское" esr="436114" importance="4" lat="50.462519" lon="35.846421" popular_title="" region="Белгородская область" short_title="Казачок" title="Казачок" /><station direction="Харьковское" esr="436218" importance="4" lat="50.552775" lon="35.880017" popular_title="" region="Белгородская область" short_title="Красево" title="Красево" /><station direction="Белгородское" esr="436415" importance="4" lat="50.772231" lon="35.933700" popular_title="" region="Белгородская область" short_title="93 км" title="93 км" /><station direction="Белгородское" esr="435588" importance="4" lat="50.643532" lon="36.312994" popular_title="" region="Белгородская область" short_title="126 км" title="126 км" /><station direction="Харьковское" esr="436311" importance="4" lat="50.621069" lon="35.922252" popular_title="" region="Белгородская область" short_title="148 км" title="148 км" /><station direction="Харьковское" esr="436358" importance="4" lat="50.755604" lon="35.853383" popular_title="" region="Белгородская область" short_title="131 км" title="131 км" /><station city="Ворожба" direction="Сумское" esr="329302" importance="2" lat="51.170449" lon="34.224234" popular_title="" region="Сумская область" short_title="Ворожба-Пасс." title="Ворожба-Пасс." /><station city="Харьков" direction="Харьковское" esr="440054" importance="1" lat="49.989425" lon="36.203633" popular_title="Южный вокзал" region="Харьковская область" short_title="Харьков-Пасс." title="Харьков-Пасс." /><station direction="Сумское" esr="433614" importance="4" lat="50.727109" lon="35.445505" popular_title="" region="Сумская область" short_title="Пушкарное" title="Пушкарное" /><station city="Харьков" direction="Харьковское" esr="440069" importance="3" lat="49.972200" lon="36.207621" popular_title="" region="Харьковская область" short_title="Новосёловка" title="Новосёловка" /><station direction="Сумское" esr="444816" importance="4" lat="51.050181" lon="34.346760" popular_title="" region="Сумская область" short_title="Ульяновка" title="Ульяновка" /><station city="Белополье" direction="Сумское" esr="444708" importance="1" lat="51.140881" lon="34.272268" popular_title="" region="Сумская область" short_title="Белополье" title="Белополье" /><station city="Харьков" direction="Харьковское" esr="440904" importance="4" lat="49.967112" lon="36.161417" popular_title="" region="Харьковская область" short_title="Залютино" title="Залютино" /><station city="Харьков" direction="Харьковское" esr="440800" importance="3" lat="49.955149" lon="36.160222" popular_title="" region="Харьковская область" short_title="Новая Бавария" title="Новая Бавария" /><station city="Сумы" direction="Сумское" esr="445306" importance="2" lat="50.926632" lon="34.809341" popular_title="" region="Сумская область" short_title="Сумы" title="Сумы" /><station direction="Харьковское" esr="432700" importance="4" lat="50.417430" lon="35.858820" popular_title="" region="Харьковская область" short_title="Одноробовка" title="Одноробовка" /><station city="Золочев" direction="Харьковское" esr="432607" importance="2" lat="50.277575" lon="35.989480" popular_title="" region="Харьковская область" short_title="Золочев" title="Золочев" /><station direction="Харьковское" esr="432560" importance="4" lat="50.159807" lon="35.951243" popular_title="" region="Харьковская область" short_title="Рогозянка" title="Рогозянка" /><station direction="Харьковское" esr="432518" importance="4" lat="50.048249" lon="35.953713" popular_title="" region="Харьковская область" short_title="Пересечная" title="Пересечная" /><station city="Солоницевка" direction="Харьковское" esr="444604" importance="1" lat="49.995211" lon="36.002296" popular_title="" region="Харьковская область" short_title="Шпаковка" title="Шпаковка" /><station direction="Сумское" esr="444801" importance="4" lat="51.092064" lon="34.305363" popular_title="" region="Сумская область" short_title="Торохтяный" title="Торохтяный" /><station direction="Сумское" esr="444905" importance="4" lat="51.020904" lon="34.377430" popular_title="" region="Сумская область" short_title="Виры" title="Виры" /><station direction="Сумское" esr="444910" importance="3" lat="51.001441" lon="34.464032" popular_title="" region="Сумская область" short_title="Амбары" title="Амбары" /><station direction="Сумское" esr="445109" importance="4" lat="50.974024" lon="34.573544" popular_title="" region="Сумская область" short_title="Головашевка" title="Головашевка" /><station direction="Сумское" esr="445202" importance="4" lat="50.941940" lon="34.670055" popular_title="" region="Сумская область" short_title="Торопиловка" title="Торопиловка" /><station city="Сумы" direction="Сумское" esr="445400" importance="3" lat="50.898664" lon="34.851869" popular_title="" region="Сумская область" short_title="Сумы-Тов." title="Сумы-Тов." /><station city="Сумы" direction="Сумское" esr="445607" importance="3" lat="50.862498" lon="34.886022" popular_title="" region="Сумская область" short_title="Басы" title="Басы" /><station direction="Сумское" esr="433826" importance="4" lat="50.824824" lon="35.025250" popular_title="" region="Сумская область" short_title="Золотницкий" title="Золотницкий" /><station direction="Сумское" esr="433807" importance="4" lat="50.820032" lon="35.136210" popular_title="" region="Сумская область" short_title="Корчаковка" title="Корчаковка" /><station city="Краснополье" direction="Сумское" esr="433703" importance="1" lat="50.782814" lon="35.258284" popular_title="" region="Сумская область" short_title="Краснополье" title="Краснополье" /><station direction="Сумское" esr="433633" importance="4" lat="50.729812" lon="35.315811" popular_title="" region="Сумская область" short_title="Александровка" title="Александровка" /><station direction="Сумское" esr="444924" importance="4" lat="50.985539" lon="34.527390" popular_title="" region="Сумская область" short_title="Лекарское" title="Лекарское" /><station direction="Сумское" esr="433629" importance="4" lat="50.716123" lon="35.393601" popular_title="" region="Сумская область" short_title="Пятиполье" title="Пятиполье" /><station direction="Сумское" esr="433648" importance="4" lat="50.756525" lon="35.280730" popular_title="" region="Сумская область" short_title="33 км (Ступовка)" title="33 км (Ступовка)" /><station direction="Харьковское" esr="432611" importance="4" lat="50.314943" lon="35.992996" popular_title="" region="Харьковская область" short_title="Светличный" title="Светличный" /><station direction="Харьковское" esr="432630" importance="4" lat="50.365109" lon="35.886758" popular_title="" region="Харьковская область" short_title="Муравский" title="Муравский" /><station direction="Сумское" esr="445113" importance="4" lat="50.961637" lon="34.615194" popular_title="" region="Сумская область" short_title="40 км" title="40 км" /><station direction="Сумское" esr="433811" importance="4" lat="50.822813" lon="35.079286" popular_title="" region="Сумская область" short_title="Глыбное" title="Глыбное" /><station city="Сумы" direction="Сумское" esr="445414" importance="3" lat="50.882294" lon="34.865991" popular_title="" region="Сумская область" short_title="Олдыш" title="Олдыш" /><station city="Верхняя Сыроватка" direction="Сумское" esr="433845" importance="1" lat="50.846189" lon="34.936195" popular_title="" region="Сумская область" short_title="Бездрик" title="Бездрик" /><station direction="Харьковское" esr="432626" importance="4" lat="50.343030" lon="35.952794" popular_title="" region="Харьковская область" short_title="Снеги" title="Снеги" /><station city="Верхняя Сыроватка" direction="Сумское" esr="433830" importance="4" lat="50.830237" lon="34.990000" popular_title="" region="Сумская область" short_title="Железняк" title="Железняк" /><station direction="Белгородское" esr="001650" importance="4" lat="50.627448" lon="36.446991" popular_title="" region="Белгородская область" short_title="136 км" title="136 км" /><station direction="Белгородское" esr="001651" importance="4" lat="50.789733" lon="35.808911" popular_title="" region="Белгородская область" short_title="3 км" title="3 км" /><station direction="Харьковское" esr="001652" importance="4" lat="50.598718" lon="35.930596" popular_title="" region="Белгородская область" short_title="151 км" title="151 км" /><station direction="Сумское" esr="001653" importance="4" lat="50.752309" lon="35.582528" popular_title="" region="Белгородская область" short_title="65 км" title="65 км" /><station direction="Сумское" esr="001654" importance="4" lat="50.823991" lon="35.048857" popular_title="" region="Сумская область" short_title="14 км" title="14 км" /><station direction="Сумское" esr="001655" importance="4" lat="51.014037" lon="34.409858" popular_title="" region="Сумская область" short_title="24 км" title="24 км" /><station direction="Сумское" esr="001656" importance="4" lat="51.071943" lon="34.331283" popular_title="" region="Сумская область" short_title="15 км" title="15 км" /><station direction="Сумское" esr="436608" importance="4" lat="50.750584" lon="35.540781" popular_title="" region="Белгородская область" short_title="Илёк-Пеньковка" title="Илёк-Пеньковка" /><station city="Сумы" direction="Сумское" esr="445217" importance="4" lat="50.935214" lon="34.766747" popular_title="" region="Сумская область" short_title="52 км" title="52 км" /><station city="Сумы" direction="Сумское" esr="445310" importance="3" lat="50.926473" lon="34.834328" popular_title="" region="Сумская область" short_title="58 км" title="58 км" /></suburban_zone>