<?xml version='1.0' encoding='UTF-8'?>
<suburban_zone id="152"><station city="Онега" direction="Беломорское" esr="296109" importance="2" lat="63.925185" lon="38.091577" popular_title="" region="Архангельская область" short_title="Онега" title="Онега" /><station city="Архангельск" direction="Архангельское" esr="290507" importance="1" lat="64.550860" lon="40.574742" popular_title="" region="Архангельская область" short_title="Архангельск-Город" title="Архангельск-Город" /><station city="Архангельск" direction="Архангельское" esr="290009" importance="2" lat="64.429205" lon="40.608303" popular_title="" region="Архангельская область" short_title="Исакогорка" title="Исакогорка" /><station direction="Няндомское" esr="294404" importance="4" lat="62.604654" lon="40.311524" popular_title="" region="Архангельская область" short_title="Пукса" title="Пукса" /><station direction="Беломорское" esr="012397" importance="4" lat="63.853307" lon="36.465106" popular_title="" region="Республика Карелия" short_title="Маленьга" title="Маленьга" /><station direction="Архангельское" esr="295318" importance="4" lat="64.155899" lon="40.582947" popular_title="" region="Архангельская область" short_title="Тундра" title="Тундра" /><station direction="Архангельское" esr="295303" importance="4" lat="64.010331" lon="40.655468" popular_title="" region="Архангельская область" short_title="Ломовое" title="Ломовое" /><station direction="Архангельское" esr="295214" importance="4" lat="63.900638" lon="40.647437" popular_title="" region="Архангельская область" short_title="Лиственничный" title="Лиственничный" /><station direction="Архангельское" esr="295125" importance="4" lat="63.809699" lon="40.643529" popular_title="" region="Архангельская область" short_title="Холмогорская" title="Холмогорская" /><station direction="Архангельское" esr="295110" importance="4" lat="63.751829" lon="40.616840" popular_title="" region="Архангельская область" short_title="Малька" title="Малька" /><station direction="Архангельское" esr="295159" importance="4" lat="63.602522" lon="40.467927" popular_title="" region="Архангельская область" short_title="Пермилово" title="Пермилово" /><station direction="Беломорское" esr="295500" importance="4" lat="63.787522" lon="36.636118" popular_title="" region="Архангельская область" short_title="Унежма" title="Унежма" /><station direction="Беломорское" esr="295604" importance="4" lat="63.734587" lon="36.917632" popular_title="" region="Архангельская область" short_title="Сулозеро" title="Сулозеро" /><station direction="Беломорское" esr="295708" importance="4" lat="63.724993" lon="37.052471" popular_title="" region="Архангельская область" short_title="Куша" title="Куша" /><station direction="Беломорское" esr="295712" importance="4" lat="63.731153" lon="37.238429" popular_title="" region="Архангельская область" short_title="Шунданец" title="Шунданец" /><station direction="Беломорское" esr="295905" importance="4" lat="63.708725" lon="37.634074" popular_title="" region="Архангельская область" short_title="Нименга" title="Нименга" /><station direction="Беломорское" esr="296819" importance="4" lat="63.766878" lon="38.084957" popular_title="" region="Архангельская область" short_title="Поньга" title="Поньга" /><station direction="Беломорское" esr="296012" importance="4" lat="63.803335" lon="38.355098" popular_title="" region="Архангельская область" short_title="Грибаниха" title="Грибаниха" /><station direction="Беломорское" esr="296039" importance="4" lat="63.845434" lon="38.536872" popular_title="" region="Архангельская область" short_title="Вонгуда" title="Вонгуда" /><station direction="Беломорское" esr="296221" importance="4" lat="63.789088" lon="39.009009" popular_title="" region="Архангельская область" short_title="Глазаниха" title="Глазаниха" /><station direction="Беломорское" esr="296408" importance="4" lat="63.776654" lon="39.255039" popular_title="" region="Архангельская область" short_title="Мудьюга" title="Мудьюга" /><station direction="Беломорское" esr="296503" importance="4" lat="63.722567" lon="39.664056" popular_title="" region="Архангельская область" short_title="Кодино" title="Кодино" /><station direction="Беломорское" esr="296518" importance="4" lat="63.694297" lon="39.845522" popular_title="" region="Архангельская область" short_title="Мошное" title="Мошное" /><station direction="Беломорское" esr="295036" importance="4" lat="63.604188" lon="39.977912" popular_title="" region="Архангельская область" short_title="Большая Кяма" title="Большая Кяма" /><station direction="Беломорское" esr="295021" importance="4" lat="63.529575" lon="40.115477" popular_title="" region="Архангельская область" short_title="Урамец" title="Урамец" /><station direction="Няндомское" esr="294813" importance="4" lat="63.177502" lon="40.351936" popular_title="" region="Архангельская область" short_title="Кухтоозерский" title="Кухтоозерский" /><station direction="Няндомское" esr="294809" importance="4" lat="63.074553" lon="40.334491" popular_title="" region="Архангельская область" short_title="Емца" title="Емца" /><station direction="Няндомское" esr="294705" importance="4" lat="62.897164" lon="40.310003" popular_title="" region="Архангельская область" short_title="Шелекса" title="Шелекса" /><station city="Плесецк" direction="Няндомское" esr="294601" importance="2" lat="62.710287" lon="40.295576" popular_title="" region="Архангельская область" short_title="Плесецкая" title="Плесецкая" /><station direction="Няндомское" esr="294226" importance="4" lat="62.498428" lon="40.432048" popular_title="" region="Архангельская область" short_title="Тарза" title="Тарза" /><station direction="Няндомское" esr="294207" importance="4" lat="62.414071" lon="40.382263" popular_title="" region="Архангельская область" short_title="Ивакша" title="Ивакша" /><station direction="Няндомское" esr="294103" importance="4" lat="62.328523" lon="40.328293" popular_title="" region="Архангельская область" short_title="Лепша" title="Лепша" /><station direction="Няндомское" esr="294007" importance="4" lat="62.225710" lon="40.263812" popular_title="" region="Архангельская область" short_title="Шалакуша" title="Шалакуша" /><station direction="Няндомское" esr="293835" importance="4" lat="62.042661" lon="40.243986" popular_title="" region="Архангельская область" short_title="Лельма" title="Лельма" /><station direction="Няндомское" esr="293632" importance="4" lat="61.804500" lon="40.207613" popular_title="" region="Архангельская область" short_title="Шестиозерский" title="Шестиозерский" /><station direction="Няндомское" esr="293613" importance="4" lat="61.723435" lon="40.204554" popular_title="" region="Архангельская область" short_title="Зарученье" title="Зарученье" /><station city="Малошуйка" direction="Беломорское" esr="295801" importance="2" lat="63.715967" lon="37.444422" popular_title="" region="Архангельская область" short_title="Малошуйка" title="Малошуйка" /><station city="Няндома" direction="Няндомское" esr="293609" importance="2" lat="61.667798" lon="40.204253" popular_title="" region="Архангельская область" short_title="Няндома" title="Няндома" /><station direction="Архангельское" esr="295445" importance="4" lat="64.287569" lon="40.650554" popular_title="" region="Архангельская область" short_title="Брусеница" title="Брусеница" /><station direction="Архангельское" esr="295411" importance="4" lat="64.357798" lon="40.596697" popular_title="" region="Архангельская область" short_title="Илес" title="Илес" /><station city="Обозерский" direction="Няндомское" esr="295002" importance="2" lat="63.449425" lon="40.311979" popular_title="" region="Архангельская область" short_title="Обозерская" title="Обозерская" /><station direction="Няндомское" esr="294711" importance="4" lat="62.959621" lon="40.321852" popular_title="" region="Архангельская область" short_title="Тимме" title="Тимме" /><station direction="Няндомское" esr="294724" importance="4" lat="62.908481" lon="40.311386" popular_title="" region="Архангельская область" short_title="943 км" title="943 км" /><station direction="Няндомское" esr="294828" importance="4" lat="63.243260" lon="40.347896" popular_title="" region="Архангельская область" short_title="976 км" title="976 км" /><station direction="Архангельское" esr="295017" importance="4" lat="63.544514" lon="40.351155" popular_title="" region="Архангельская область" short_title="1008 км" title="1008 км" /><station direction="Архангельское" esr="295136" importance="4" lat="63.678154" lon="40.557210" popular_title="" region="Архангельская область" short_title="1028 км" title="1028 км" /><station direction="Архангельское" esr="295229" importance="4" lat="63.947921" lon="40.649207" popular_title="" region="Архангельская область" short_title="1059 км" title="1059 км" /><station direction="Архангельское" esr="295337" importance="4" lat="64.082106" lon="40.626222" popular_title="" region="Архангельская область" short_title="1076 км" title="1076 км" /><station direction="Архангельское" esr="295356" importance="4" lat="64.247557" lon="40.626629" popular_title="" region="Архангельская область" short_title="1097 км" title="1097 км" /><station direction="Архангельское" esr="295430" importance="4" lat="64.390651" lon="40.604057" popular_title="" region="Архангельская область" short_title="1113 км" title="1113 км" /><station city="Архангельск" direction="Архангельское" esr="290314" importance="4" lat="64.505167" lon="40.577620" popular_title="" region="Архангельская область" short_title="1126 км" title="1126 км" /><station direction="Беломорское" esr="296058" importance="4" lat="63.900642" lon="38.175071" popular_title="" region="Архангельская область" short_title="22 км" title="22 км" /><station direction="Няндомское" esr="293717" importance="4" lat="61.873116" lon="40.236152" popular_title="" region="Архангельская область" short_title="Щипаховский" title="Щипаховский" /><station direction="Беломорское" esr="296024" importance="3" lat="63.836487" lon="38.462158" popular_title="" region="Архангельская область" short_title="243 км" title="243 км" /><station direction="Беломорское" esr="296823" importance="4" lat="63.726775" lon="37.924705" popular_title="" region="Архангельская область" short_title="212 км" title="212 км" /><station direction="Беломорское" esr="296838" importance="4" lat="63.704051" lon="37.768473" popular_title="" region="Архангельская область" short_title="205 км" title="205 км" /><station direction="Беломорское" esr="295727" importance="4" lat="63.730329" lon="37.380059" popular_title="" region="Архангельская область" short_title="183 км" title="183 км" /><station city="Архангельск" direction="Архангельское" esr="290305" importance="4" lat="64.469677" lon="40.607929" popular_title="" region="Архангельская область" short_title="Бакарица" title="Бакарица" /><station direction="Беломорское" esr="296804" importance="4" lat="63.705751" lon="37.834813" popular_title="" region="Архангельская область" short_title="Шастинский" title="Шастинский" /><station direction="Беломорское" esr="296217" importance="4" lat="63.816451" lon="38.722617" popular_title="" region="Архангельская область" short_title="Тесовка" title="Тесовка" /><station direction="Беломорское" esr="296414" importance="4" lat="63.753273" lon="39.483533" popular_title="" region="Архангельская область" short_title="Костринский Ручей" title="Костринский Ручей" /><station direction="Няндомское" esr="294902" importance="4" lat="63.373283" lon="40.341255" popular_title="" region="Архангельская область" short_title="Летнеозерский" title="Летнеозерский" /><station direction="Няндомское" esr="001709" importance="4" lat="62.773070" lon="40.301896" popular_title="" region="Архангельская область" short_title="922 км" title="922 км" /><station direction="Няндомское" esr="293806" importance="4" lat="61.934255" lon="40.249331" popular_title="" region="Архангельская область" short_title="Шожма" title="Шожма" /><station city="Архангельск" direction="Архангельское" esr="001729" importance="4" lat="64.529845" lon="40.567240" popular_title="" region="Архангельская область" short_title="Смольный Буян" title="Смольный Буян" /><station direction="Няндомское" esr="001700" importance="4" lat="61.766841" lon="40.188758" popular_title="" region="Архангельская область" short_title="801 км" title="801 км" /><station direction="Няндомское" esr="001701" importance="4" lat="61.833085" lon="40.232458" popular_title="" region="Архангельская область" short_title="810 км" title="810 км" /><station direction="Няндомское" esr="001702" importance="4" lat="62.004146" lon="40.263792" popular_title="" region="Архангельская область" short_title="832 км" title="832 км" /><station direction="Няндомское" esr="001703" importance="4" lat="62.090676" lon="40.191950" popular_title="" region="Архангельская область" short_title="840 км" title="840 км" /><station direction="Няндомское" esr="001704" importance="4" lat="62.141352" lon="40.211947" popular_title="" region="Архангельская область" short_title="846 км" title="846 км" /><station direction="Няндомское" esr="001705" importance="4" lat="62.177335" lon="40.232897" popular_title="" region="Архангельская область" short_title="851 км" title="851 км" /><station direction="Няндомское" esr="001706" importance="4" lat="62.296215" lon="40.307442" popular_title="" region="Архангельская область" short_title="868 км" title="868 км" /><station direction="Няндомское" esr="001707" importance="4" lat="62.376644" lon="40.357964" popular_title="" region="Архангельская область" short_title="875 км" title="875 км" /><station direction="Няндомское" esr="001708" importance="4" lat="62.556216" lon="40.388094" popular_title="" region="Архангельская область" short_title="898 км" title="898 км" /><station direction="Няндомское" esr="294616" importance="4" lat="62.808592" lon="40.302927" popular_title="" region="Архангельская область" short_title="Утицы" title="Утицы" /><station direction="Няндомское" esr="001710" importance="4" lat="62.863546" lon="40.305332" popular_title="" region="Архангельская область" short_title="930 км" title="930 км" /><station direction="Няндомское" esr="001711" importance="4" lat="63.113556" lon="40.338379" popular_title="" region="Архангельская область" short_title="960 км" title="960 км" /><station direction="Няндомское" esr="001712" importance="4" lat="63.143031" lon="40.342001" popular_title="" region="Архангельская область" short_title="964 км" title="964 км" /><station direction="Няндомское" esr="001713" importance="4" lat="63.215152" lon="40.347822" popular_title="" region="Архангельская область" short_title="973 км" title="973 км" /><station direction="Няндомское" esr="001714" importance="4" lat="63.271991" lon="40.348998" popular_title="" region="Архангельская область" short_title="Великоозерский" title="Великоозерский" /><station direction="Няндомское" esr="001715" importance="4" lat="63.332269" lon="40.358483" popular_title="" region="Архангельская область" short_title="986 км" title="986 км" /><station direction="Беломорское" esr="001716" importance="4" lat="63.480837" lon="40.273363" popular_title="" region="Архангельская область" short_title="350 км" title="350 км" /><station direction="Беломорское" esr="001717" importance="4" lat="63.499740" lon="40.197669" popular_title="" region="Архангельская область" short_title="344 км" title="344 км" /><station direction="Беломорское" esr="001718" importance="4" lat="63.581936" lon="40.023665" popular_title="" region="Архангельская область" short_title="331 км" title="331 км" /><station direction="Беломорское" esr="001719" importance="4" lat="63.706332" lon="39.811101" popular_title="" region="Архангельская область" short_title="313 км" title="313 км" /><station direction="Беломорское" esr="001720" importance="4" lat="63.738917" lon="39.577031" popular_title="" region="Архангельская область" short_title="297 км" title="297 км" /><station direction="Беломорское" esr="001721" importance="4" lat="63.795474" lon="38.268772" popular_title="" region="Архангельская область" short_title="229 км" title="229 км" /><station direction="Беломорское" esr="001722" importance="4" lat="63.795581" lon="38.216889" popular_title="" region="Архангельская область" short_title="227 км" title="227 км" /><station direction="Беломорское" esr="001723" importance="4" lat="63.701785" lon="37.716193" popular_title="" region="Архангельская область" short_title="202 км" title="202 км" /><station direction="Беломорское" esr="001724" importance="4" lat="63.699287" lon="37.529717" popular_title="" region="Архангельская область" short_title="191 км" title="191 км" /><station direction="Беломорское" esr="001725" importance="4" lat="63.835388" lon="36.508846" popular_title="" region="Республика Карелия" short_title="133 км" title="133 км" /><station direction="Архангельское" esr="001726" importance="4" lat="64.329534" lon="40.637616" popular_title="" region="Архангельская область" short_title="1106 км" title="1106 км" /><station city="Архангельск" direction="Архангельское" esr="001727" importance="4" lat="64.441660" lon="40.610477" popular_title="" region="Архангельская область" short_title="Депо" title="Депо" /><station city="Архангельск" direction="Архангельское" esr="001728" importance="4" lat="64.491676" lon="40.596531" popular_title="" region="Архангельская область" short_title="Лесозавод" title="Лесозавод" /></suburban_zone>