<?xml version='1.0' encoding='UTF-8'?>
<suburban_zone id="153"><station city="Северодвинск" direction="Северодвинское" esr="290206" importance="2" lat="64.572268" lon="39.851963" popular_title="" region="Архангельская область" short_title="Северодвинск" title="Северодвинск" /><station city="Архангельск" direction="Обозерское" esr="290507" importance="1" lat="64.550860" lon="40.574742" popular_title="" region="Архангельская область" short_title="Архангельск-Город" title="Архангельск-Город" /><station city="Архангельск" direction="Северодвинское" esr="290009" importance="2" lat="64.429205" lon="40.608303" popular_title="" region="Архангельская область" short_title="Исакогорка" title="Исакогорка" /><station direction="Обозерское" esr="295318" importance="4" lat="64.155899" lon="40.582947" popular_title="" region="Архангельская область" short_title="Тундра" title="Тундра" /><station direction="Обозерское" esr="295303" importance="4" lat="64.010331" lon="40.655468" popular_title="" region="Архангельская область" short_title="Ломовое" title="Ломовое" /><station direction="Обозерское" esr="295214" importance="4" lat="63.900638" lon="40.647437" popular_title="" region="Архангельская область" short_title="Лиственничный" title="Лиственничный" /><station direction="Обозерское" esr="295125" importance="4" lat="63.809699" lon="40.643529" popular_title="" region="Архангельская область" short_title="Холмогорская" title="Холмогорская" /><station direction="Обозерское" esr="295110" importance="4" lat="63.751829" lon="40.616840" popular_title="" region="Архангельская область" short_title="Малька" title="Малька" /><station direction="Обозерское" esr="295159" importance="4" lat="63.602522" lon="40.467927" popular_title="" region="Архангельская область" short_title="Пермилово" title="Пермилово" /><station direction="Карпогорское" esr="291124" importance="4" lat="64.182895" lon="42.262478" popular_title="" region="Архангельская область" short_title="Паленьга" title="Паленьга" /><station direction="Карпогорское" esr="290511" importance="4" lat="64.535343" lon="40.640624" popular_title="" region="Архангельская область" short_title="4 км" title="4 км" /><station direction="Обозерское" esr="295445" importance="4" lat="64.287569" lon="40.650554" popular_title="" region="Архангельская область" short_title="Брусеница" title="Брусеница" /><station direction="Обозерское" esr="295411" importance="4" lat="64.357798" lon="40.596697" popular_title="" region="Архангельская область" short_title="Илес" title="Илес" /><station city="Обозерский" direction="Обозерское" esr="295002" importance="2" lat="63.449425" lon="40.311979" popular_title="" region="Архангельская область" short_title="Обозерская" title="Обозерская" /><station direction="Карпогорское" esr="291406" importance="4" lat="64.035014" lon="43.156463" popular_title="" region="Архангельская область" short_title="Сия" title="Сия" /><station direction="Обозерское" esr="295017" importance="4" lat="63.544514" lon="40.351155" popular_title="" region="Архангельская область" short_title="1008 км" title="1008 км" /><station direction="Обозерское" esr="295136" importance="4" lat="63.678154" lon="40.557210" popular_title="" region="Архангельская область" short_title="1028 км" title="1028 км" /><station direction="Обозерское" esr="295229" importance="4" lat="63.947921" lon="40.649207" popular_title="" region="Архангельская область" short_title="1059 км" title="1059 км" /><station direction="Обозерское" esr="295337" importance="4" lat="64.082106" lon="40.626222" popular_title="" region="Архангельская область" short_title="1076 км" title="1076 км" /><station direction="Обозерское" esr="295356" importance="4" lat="64.247557" lon="40.626629" popular_title="" region="Архангельская область" short_title="1097 км" title="1097 км" /><station direction="Обозерское" esr="295430" importance="4" lat="64.390651" lon="40.604057" popular_title="" region="Архангельская область" short_title="1113 км" title="1113 км" /><station city="Архангельск" direction="Обозерское" esr="290314" importance="4" lat="64.505167" lon="40.577620" popular_title="" region="Архангельская область" short_title="1126 км" title="1126 км" /><station direction="Северодвинское" esr="295322" importance="4" lat="64.442779" lon="40.150248" popular_title="" region="Архангельская область" short_title="26 км" title="26 км" /><station direction="Северодвинское" esr="290155" importance="4" lat="64.465604" lon="40.047554" popular_title="" region="Архангельская область" short_title="34 км" title="34 км" /><station direction="Карпогорское" esr="290615" importance="4" lat="64.523241" lon="40.693300" popular_title="" region="Архангельская область" short_title="7 км" title="7 км" /><station direction="Карпогорское" esr="290526" importance="4" lat="64.492399" lon="40.732556" popular_title="" region="Архангельская область" short_title="15 км" title="15 км" /><station direction="Карпогорское" esr="290530" importance="4" lat="64.477613" lon="40.881932" popular_title="" region="Архангельская область" short_title="21 км" title="21 км" /><station direction="Карпогорское" esr="290545" importance="4" lat="64.478341" lon="41.037458" popular_title="" region="Архангельская область" short_title="25 км" title="25 км" /><station direction="Карпогорское" esr="290719" importance="4" lat="64.466923" lon="41.120886" popular_title="" region="Архангельская область" short_title="32 км" title="32 км" /><station direction="Карпогорское" esr="290723" importance="4" lat="64.454322" lon="41.190581" popular_title="" region="Архангельская область" short_title="36 км" title="36 км" /><station direction="Карпогорское" esr="290920" importance="4" lat="64.397274" lon="41.430939" popular_title="" region="Архангельская область" short_title="48 км" title="48 км" /><station direction="Карпогорское" esr="290943" importance="4" lat="64.380337" lon="41.522672" popular_title="" region="Архангельская область" short_title="54 км" title="54 км" /><station direction="Карпогорское" esr="291139" importance="4" lat="64.162558" lon="42.318097" popular_title="" region="Архангельская область" short_title="102 км" title="102 км" /><station direction="Северодвинское" esr="290136" importance="4" lat="64.446032" lon="40.112241" popular_title="" region="Архангельская область" short_title="28 км" title="28 км" /><station direction="Карпогорское" esr="291105" importance="4" lat="64.303425" lon="41.921827" popular_title="" region="Архангельская область" short_title="Луковецкий" title="Луковецкий" /><station direction="Карпогорское" esr="290935" importance="4" lat="64.331056" lon="41.818577" popular_title="" region="Архангельская область" short_title="Кеница" title="Кеница" /><station direction="Карпогорское" esr="290916" importance="4" lat="64.411078" lon="41.298728" popular_title="" region="Архангельская область" short_title="Лодьма" title="Лодьма" /><station city="Архангельск" direction="Обозерское" esr="290305" importance="4" lat="64.469677" lon="40.607929" popular_title="" region="Архангельская область" short_title="Бакарица" title="Бакарица" /><station direction="Северодвинское" esr="290140" importance="4" lat="64.500126" lon="39.985628" popular_title="" region="Архангельская область" short_title="Рикасиха" title="Рикасиха" /><station direction="Северодвинское" esr="290121" importance="4" lat="64.410640" lon="40.233274" popular_title="" region="Архангельская область" short_title="Лайская" title="Лайская" /><station direction="Карпогорское" esr="291302" importance="4" lat="64.055379" lon="42.673857" popular_title="" region="Архангельская область" short_title="Глубокое-Новое" title="Глубокое-Новое" /><station direction="Карпогорское" esr="290901" importance="4" lat="64.515486" lon="40.702171" popular_title="" region="Архангельская область" short_title="Жаровиха" title="Жаровиха" /><station city="Архангельск" direction="Обозерское" esr="001729" importance="4" lat="64.529845" lon="40.567240" popular_title="" region="Архангельская область" short_title="Смольный Буян" title="Смольный Буян" /><station direction="Карпогорское" esr="001737" importance="4" lat="64.484144" lon="40.828202" popular_title="" region="Архангельская область" short_title="Юрас" title="Юрас" /><station direction="Обозерское" esr="001726" importance="4" lat="64.329534" lon="40.637616" popular_title="" region="Архангельская область" short_title="1106 км" title="1106 км" /><station city="Архангельск" direction="Обозерское" esr="001727" importance="4" lat="64.441660" lon="40.610477" popular_title="" region="Архангельская область" short_title="Депо" title="Депо" /><station city="Архангельск" direction="Обозерское" esr="001728" importance="4" lat="64.491676" lon="40.596531" popular_title="" region="Архангельская область" short_title="Лесозавод" title="Лесозавод" /><station direction="Северодвинское" esr="001730" importance="4" lat="64.480729" lon="40.017614" popular_title="" region="Архангельская область" short_title="36 км" title="36 км" /><station city="Северодвинск" direction="Северодвинское" esr="001731" importance="4" lat="64.543148" lon="39.809573" popular_title="" region="Архангельская область" short_title="Морской проспект" title="Морской проспект" /><station direction="Северодвинское" esr="001732" importance="4" lat="64.535704" lon="39.742746" popular_title="" region="Архангельская область" short_title="Кудьма" title="Кудьма" /><station direction="Северодвинское" esr="001758" importance="4" lat="64.533278" lon="39.673920" popular_title="" region="Архангельская область" short_title="СОТ Уйма" title="СОТ Уйма" /><station direction="Северодвинское" esr="001733" importance="4" lat="64.531963" lon="39.594181" popular_title="" region="Архангельская область" short_title="Уйма" title="Уйма" /><station direction="Северодвинское" esr="001734" importance="4" lat="64.544551" lon="39.532099" popular_title="" region="Архангельская область" short_title="Солза" title="Солза" /><station direction="Северодвинское" esr="001735" importance="4" lat="64.596541" lon="39.388970" popular_title="" region="Архангельская область" short_title="22 км" title="22 км" /><station city="Ненокса" direction="Северодвинское" esr="001736" importance="1" lat="64.635171" lon="39.228884" popular_title="" region="Архангельская область" short_title="Нёнокса" title="Нёнокса" /></suburban_zone>