<?xml version='1.0' encoding='UTF-8'?>
<suburban_zone id="16"><station city="Астана" direction="Астанинское" esr="690002" importance="1" lat="51.195706" lon="71.410082" popular_title="" region="Акмолинская область" short_title="Астана" title="Астана" /><station direction="Астанинское" esr="675125" importance="4" lat="50.067169" lon="73.187938" popular_title="" region="Карагандинская область" short_title="Карьерная" title="Карьерная" /><station direction="Астанинское" esr="690229" importance="4" lat="51.030301" lon="71.873640" popular_title="" region="Акмолинская область" short_title="№ 42" title="№ 42" /><station city="Астана" direction="Астанинское" esr="690200" importance="3" lat="51.143851" lon="71.559517" popular_title="" region="Акмолинская область" short_title="Сороковая" title="Сороковая" /><station direction="Астанинское" esr="690303" importance="4" lat="50.954071" lon="71.978078" popular_title="" region="Акмолинская область" short_title="Бабатай" title="Бабатай" /><station direction="Астанинское" esr="690318" importance="4" lat="50.906283" lon="72.040250" popular_title="" region="Акмолинская область" short_title="Шептыкуль" title="Шептыкуль" /><station direction="Астанинское" esr="690407" importance="4" lat="50.828159" lon="72.160831" popular_title="" region="Акмолинская область" short_title="Вишневка" title="Вишневка" /><station direction="Астанинское" esr="690500" importance="4" lat="50.660730" lon="72.393594" popular_title="" region="Акмолинская область" short_title="Анар" title="Анар" /><station direction="Астанинское" esr="673416" importance="4" lat="50.216111" lon="73.074921" popular_title="" region="Карагандинская область" short_title="Актау" title="Актау" /><station direction="Астанинское" esr="673219" importance="4" lat="50.122346" lon="73.210549" popular_title="" region="Карагандинская область" short_title="Первое Мая" title="Первое Мая" /><station city="Караганды" direction="Астанинское" esr="673124" importance="4" lat="49.942394" lon="73.199706" popular_title="" region="Карагандинская область" short_title="Паровозное Депо" title="Паровозное Депо" /><station city="Караганды" direction="Астанинское" esr="673149" importance="4" lat="49.929227" lon="73.191415" popular_title="" region="Карагандинская область" short_title="713 км" title="713 км" /><station direction="Астанинское" esr="674103" importance="4" lat="50.072893" lon="73.147469" popular_title="" region="Карагандинская область" short_title="Жанааул" title="Жанааул" /><station direction="Астанинское" esr="674122" importance="4" lat="50.061069" lon="73.083617" popular_title="" region="Карагандинская область" short_title="Аккудык" title="Аккудык" /><station direction="Астанинское" esr="674141" importance="4" lat="50.067140" lon="73.000532" popular_title="" region="Карагандинская область" short_title="Соцгородок" title="Соцгородок" /><station city="Акадыр" direction="Акадырское" esr="677205" importance="1" lat="48.258083" lon="72.857708" popular_title="" region="Карагандинская область" short_title="Акадыр" title="Акадыр" /><station direction="Акадырское" esr="675939" importance="4" lat="48.480641" lon="72.646227" popular_title="" region="Карагандинская область" short_title="Айса" title="Айса" /><station direction="Акадырское" esr="675303" importance="4" lat="49.726313" lon="73.024804" popular_title="" region="Карагандинская область" short_title="Караганозек" title="Караганозек" /><station direction="Акадырское" esr="675905" importance="4" lat="48.849667" lon="72.825450" popular_title="" region="Карагандинская область" short_title="Жарык" title="Жарык" /><station direction="Акадырское" esr="675708" importance="4" lat="49.428404" lon="72.878109" popular_title="" region="Карагандинская область" short_title="Калагир" title="Калагир" /><station city="Абай" direction="Акадырское" esr="675407" importance="1" lat="49.576804" lon="72.892608" popular_title="" region="Карагандинская область" short_title="Карабас" title="Карабас" /><station city="Караганды" direction="Астанинское" esr="673905" importance="2" lat="49.794643" lon="73.091549" popular_title="" region="Карагандинская область" short_title="Караганда-Пасс." title="Караганда-Пасс." /><station city="Караганды" direction="Астанинское" esr="673702" importance="4" lat="49.895187" lon="73.183186" popular_title="" region="Карагандинская область" short_title="Жана Караганды" title="Жана Караганды" /><station direction="Акадырское" esr="675801" importance="4" lat="49.345666" lon="72.901142" popular_title="" region="Карагандинская область" short_title="Карамурын" title="Карамурын" /><station city="Караганды" direction="Астанинское" esr="673007" importance="4" lat="49.966540" lon="73.214816" popular_title="" region="Карагандинская область" short_title="Караганда-Сорт." title="Караганда-Сорт." /><station city="Караганды" direction="Астанинское" esr="673806" importance="4" lat="49.851702" lon="73.172200" popular_title="" region="Карагандинская область" short_title="Май-Кудук" title="Май-Кудук" /><station direction="Астанинское" esr="673308" importance="4" lat="50.184894" lon="73.119334" popular_title="" region="Карагандинская область" short_title="Мырза" title="Мырза" /><station direction="Акадырское" esr="675924" importance="4" lat="48.663242" lon="72.711579" popular_title="" region="Карагандинская область" short_title="Нилды" title="Нилды" /><station direction="Астанинское" esr="673204" importance="4" lat="50.156617" lon="73.159650" popular_title="" region="Карагандинская область" short_title="Нура" title="Нура" /><station direction="Акадырское" esr="675910" importance="4" popular_title="" region="Карагандинская область" short_title="Сарысу" title="Сарысу" /><station direction="Астанинское" esr="673223" importance="3" lat="50.035548" lon="73.220727" popular_title="" region="Карагандинская область" short_title="Кокпекты" title="Кокпекты" /><station direction="Акадырское" esr="675943" importance="4" lat="48.388984" lon="72.751393" popular_title="" region="Карагандинская область" short_title="Тагайлы" title="Тагайлы" /><station direction="Астанинское" esr="673609" importance="4" lat="50.554141" lon="72.559180" popular_title="" region="Карагандинская область" short_title="Осакаровка" title="Осакаровка" /><station direction="Акадырское" esr="675411" importance="4" lat="49.507429" lon="72.842859" popular_title="" region="Карагандинская область" short_title="Чурбай-Нура" title="Чурбай-Нура" /><station direction="Астанинское" esr="673401" importance="4" lat="50.393831" lon="72.898546" popular_title="" region="Карагандинская область" short_title="Шокай" title="Шокай" /><station direction="Астанинское" esr="673505" importance="4" lat="50.445881" lon="72.683633" popular_title="" region="Карагандинская область" short_title="Актасты" title="Актасты" /><station city="Темиртау" direction="Астанинское" esr="674300" importance="2" lat="50.079461" lon="72.926016" popular_title="" region="Карагандинская область" short_title="Темиртау" title="Темиртау" /></suburban_zone>