<?xml version='1.0' encoding='UTF-8'?>
<suburban_zone id="162"><station direction="Интинское" esr="288827" importance="4" lat="66.275531" lon="61.066539" popular_title="" region="Республика Коми" short_title="Ошпёр" title="Ошпёр" /><station direction="Интинское" esr="288634" importance="4" lat="66.179968" lon="60.780147" popular_title="" region="Республика Коми" short_title="Кочмес" title="Кочмес" /><station city="Инта" direction="Интинское" esr="288600" importance="1" lat="65.990720" lon="60.320977" popular_title="" region="Республика Коми" short_title="Инта-1" title="Инта-1" /><station direction="Интинское" esr="288507" importance="4" lat="65.748420" lon="59.651646" popular_title="" region="Республика Коми" short_title="Кожим" title="Кожим" /><station direction="Интинское" esr="288189" importance="4" lat="65.614327" lon="58.959775" popular_title="" region="Республика Коми" short_title="Косью" title="Косью" /><station direction="Интинское" esr="288102" importance="4" lat="65.373118" lon="58.036818" popular_title="" region="Республика Коми" short_title="Сыня" title="Сыня" /><station direction="Ираёльское" esr="287805" importance="4" lat="65.104107" lon="56.989211" popular_title="" region="Республика Коми" short_title="Кожва-1" title="Кожва-1" /><station direction="Ираёльское" esr="287720" importance="4" lat="64.967701" lon="56.634651" popular_title="" region="Республика Коми" short_title="Каменка" title="Каменка" /><station direction="Ираёльское" esr="287608" importance="4" lat="64.897632" lon="56.425240" popular_title="" region="Республика Коми" short_title="Чикшино" title="Чикшино" /><station direction="Ираёльское" esr="287504" importance="4" lat="64.684623" lon="55.876980" popular_title="" region="Республика Коми" short_title="Каджером" title="Каджером" /><station direction="Ираёльское" esr="287415" importance="4" lat="64.617421" lon="55.689695" popular_title="" region="Республика Коми" short_title="Талый" title="Талый" /><station direction="Ираёльское" esr="287311" importance="4" lat="64.552228" lon="55.476601" popular_title="" region="Республика Коми" short_title="Рыбница" title="Рыбница" /><station direction="Ираёльское" esr="287218" importance="4" lat="64.481511" lon="55.311042" popular_title="" region="Республика Коми" short_title="Зеленоборск" title="Зеленоборск" /><station city="Ираёль" direction="Ираёльское" esr="287102" importance="1" lat="64.403891" lon="55.195448" popular_title="" region="Республика Коми" short_title="Ираёль" title="Ираёль" /><station direction="Ираёльское" esr="286516" importance="4" lat="64.248806" lon="54.987896" popular_title="" region="Республика Коми" short_title="Лемъю" title="Лемъю" /><station direction="Ираёльское" esr="287006" importance="4" lat="64.177950" lon="54.834414" popular_title="" region="Республика Коми" short_title="Малая Пера" title="Малая Пера" /><station direction="Ираёльское" esr="286910" importance="4" lat="64.080355" lon="54.701692" popular_title="" region="Республика Коми" short_title="Седьвож" title="Седьвож" /><station direction="Ираёльское" esr="286802" importance="4" lat="63.922924" lon="54.443961" popular_title="" region="Республика Коми" short_title="Вис" title="Вис" /><station direction="Ираёльское" esr="286709" importance="4" lat="63.721324" lon="54.192325" popular_title="" region="Республика Коми" short_title="Керки" title="Керки" /><station direction="Интинское" esr="288117" importance="4" lat="65.398932" lon="58.131179" popular_title="" region="Республика Коми" short_title="Вылью" title="Вылью" /><station city="Печора" direction="Интинское" esr="288009" importance="1" lat="65.158296" lon="57.233427" popular_title="" region="Республика Коми" short_title="Печора" title="Печора" /><station city="Сосногорск" direction="Ираёльское" esr="285801" importance="2" lat="63.600908" lon="53.898907" popular_title="" region="Республика Коми" short_title="Сосногорск" title="Сосногорск" /><station direction="Интинское" esr="288422" importance="4" lat="65.662566" lon="59.300523" popular_title="" region="Республика Коми" short_title="Калякурья" title="Калякурья" /><station direction="Интинское" esr="288437" importance="4" lat="65.577655" lon="58.782107" popular_title="" region="Республика Коми" short_title="1952 км" title="1952 км" /><station direction="Ираёльское" esr="287858" importance="4" lat="65.121752" lon="57.042360" popular_title="" region="Республика Коми" short_title="1809 км" title="1809 км" /><station direction="Ираёльское" esr="287843" importance="4" lat="65.128469" lon="57.079383" popular_title="" region="Республика Коми" short_title="1811 км" title="1811 км" /><station direction="Ираёльское" esr="287839" importance="4" lat="65.135653" lon="57.137865" popular_title="" region="Республика Коми" short_title="1815 км" title="1815 км" /><station direction="Интинское" esr="288174" importance="4" lat="65.320723" lon="57.832463" popular_title="" region="Республика Коми" short_title="1855 км" title="1855 км" /><station direction="Интинское" esr="288627" importance="4" lat="66.139781" lon="60.660141" popular_title="" region="Республика Коми" short_title="Байдук" title="Байдук" /><station direction="Интинское" esr="288615" importance="4" lat="66.069943" lon="60.465592" popular_title="" region="Республика Коми" short_title="Нюр" title="Нюр" /><station direction="Интинское" esr="288526" importance="4" lat="65.903638" lon="60.104967" popular_title="" region="Республика Коми" short_title="Угольный" title="Угольный" /><station direction="Интинское" esr="288418" importance="4" lat="65.626955" lon="59.122079" popular_title="" region="Республика Коми" short_title="Охотпост" title="Охотпост" /><station direction="Интинское" esr="288140" importance="4" lat="65.565140" lon="58.733725" popular_title="" region="Республика Коми" short_title="Изъяю" title="Изъяю" /><station direction="Интинское" esr="288136" importance="4" lat="65.551774" lon="58.598094" popular_title="" region="Республика Коми" short_title="Джинтуй" title="Джинтуй" /><station direction="Интинское" esr="288121" importance="4" lat="65.488750" lon="58.382832" popular_title="" region="Республика Коми" short_title="Янью" title="Янью" /><station direction="Интинское" esr="288028" importance="4" lat="65.282886" lon="57.665017" popular_title="" region="Республика Коми" short_title="Аранец" title="Аранец" /><station direction="Интинское" esr="288013" importance="4" lat="65.212830" lon="57.393528" popular_title="" region="Республика Коми" short_title="Мишаяг" title="Мишаяг" /><station direction="Ираёльское" esr="287523" importance="4" lat="64.806249" lon="56.173702" popular_title="" region="Республика Коми" short_title="Ронаёль" title="Ронаёль" /><station direction="Ираёльское" esr="287519" importance="4" lat="64.765785" lon="56.086281" popular_title="" region="Республика Коми" short_title="Дозмер" title="Дозмер" /><station direction="Ираёльское" esr="286611" importance="4" lat="63.632561" lon="54.053100" popular_title="" region="Республика Коми" short_title="Катыдведь" title="Катыдведь" /><station direction="Ираёльское" esr="286605" importance="4" lat="63.593738" lon="53.965072" popular_title="" region="Республика Коми" short_title="Пожня" title="Пожня" /><station direction="Интинское" esr="288850" importance="4" lat="66.226886" lon="60.885519" popular_title="" region="Республика Коми" short_title="Турун" title="Турун" /><station direction="Интинское" esr="288530" importance="4" lat="65.823154" lon="59.870764" popular_title="" region="Республика Коми" short_title="Чёрный" title="Чёрный" /><station direction="Ираёльское" esr="001738" importance="4" lat="63.671905" lon="54.137352" popular_title="" region="Республика Коми" short_title="Синегорская" title="Синегорская" /><station city="Печора" direction="Ираёльское" esr="001746" importance="4" lat="65.143396" lon="57.196760" popular_title="" region="Республика Коми" short_title="1818 км" title="1818 км" /><station direction="Интинское" esr="001752" importance="4" lat="65.622884" lon="59.001347" popular_title="" region="Республика Коми" short_title="1925 км" title="1925 км" /><station direction="Интинское" esr="001754" importance="4" lat="66.034348" lon="60.393370" popular_title="" region="Республика Коми" short_title="2004 км" title="2004 км" /><station direction="Интинское" esr="001755" importance="4" lat="66.124340" lon="60.556596" popular_title="" region="Республика Коми" short_title="2017 км" title="2017 км" /><station direction="Ираёльское" esr="001788" importance="4" popular_title="" region="Республика Коми" short_title="1801 км" title="1801 км" /><station direction="Ираёльское" esr="001789" importance="4" popular_title="" region="Республика Коми" short_title="1798 км" title="1798 км" /><station direction="Ираёльское" esr="001790" importance="4" popular_title="" region="Республика Коми" short_title="1791 км" title="1791 км" /><station direction="Ираёльское" esr="001791" importance="4" popular_title="" region="Республика Коми" short_title="1789 км" title="1789 км" /><station direction="Ираёльское" esr="001792" importance="4" popular_title="" region="Республика Коми" short_title="1776 км" title="1776 км" /><station direction="Ираёльское" esr="001793" importance="4" popular_title="" region="Республика Коми" short_title="1736 км" title="1736 км" /></suburban_zone>