<?xml version='1.0' encoding='UTF-8'?>
<suburban_zone id="169"><station city="Минск" direction="Минское" esr="140210" importance="1" lat="53.890410" lon="27.550656" popular_title="" region="Минская область" short_title="Минск-Пасс." title="Минск-Пасс." /><station city="Минск" direction="Минское" esr="140013" importance="2" lat="53.883925" lon="27.535564" popular_title="" region="Минская область" short_title="Минск (Институт Культуры)" title="Минск (Институт Культуры)" /><station city="Минск" direction="Минское" esr="140507" importance="3" lat="53.865547" lon="27.560248" popular_title="" region="Минская область" short_title="Минск-Южный" title="Минск-Южный" /><station city="Барановичи" direction="Слуцкое" esr="138901" importance="1" lat="53.128704" lon="26.042478" popular_title="" region="Брестская область" short_title="Барановичи-Полесские" title="Барановичи-Полесские" /><station city="Бобруйск" direction="Жлобинское" esr="147703" importance="4" lat="53.129775" lon="29.237081" popular_title="" region="Могилёвская область" short_title="Березина" title="Березина" /><station city="Бобруйск" direction="Жлобинское" esr="146912" importance="4" lat="53.157861" lon="29.143245" popular_title="" region="Могилёвская область" short_title="Киселевичи" title="Киселевичи" /><station city="Слуцк" direction="Слуцкое" esr="148602" importance="2" lat="53.009947" lon="27.515807" popular_title="" region="Минская область" short_title="Слуцк" title="Слуцк" /><station direction="Минское" esr="145454" importance="4" lat="53.372993" lon="28.338985" popular_title="" region="Минская область" short_title="Талька" title="Талька" /><station city="Солигорск" direction="Слуцкое" esr="148227" importance="2" lat="52.791612" lon="27.538762" popular_title="" region="Минская область" short_title="Солигорск" title="Солигорск" /><station direction="Слуцкое" esr="148621" importance="4" lat="52.980907" lon="27.703828" popular_title="" region="Минская область" short_title="Некраши" title="Некраши" /><station direction="Слуцкое" esr="149003" importance="4" lat="52.952758" lon="27.912129" popular_title="" region="Минская область" short_title="Уречье" title="Уречье" /><station direction="Слуцкое" esr="149022" importance="4" lat="52.966379" lon="28.055707" popular_title="" region="Минская область" short_title="Верхутино" title="Верхутино" /><station direction="Слуцкое" esr="149126" importance="4" lat="53.122837" lon="28.331058" popular_title="" region="Минская область" short_title="Фаличи" title="Фаличи" /><station direction="Слуцкое" esr="149234" importance="4" lat="53.178476" lon="28.493953" popular_title="" region="Могилёвская область" short_title="Дараганово" title="Дараганово" /><station direction="Слуцкое" esr="149222" importance="4" lat="53.260037" lon="28.563489" popular_title="" region="Могилёвская область" short_title="Деревцы" title="Деревцы" /><station direction="Могилёвское" esr="146429" importance="4" lat="53.355756" lon="28.848918" popular_title="" region="Могилёвская область" short_title="Брицаловичи" title="Брицаловичи" /><station direction="Могилёвское" esr="157003" importance="4" lat="53.397408" lon="28.981897" popular_title="" region="Могилёвская область" short_title="Елизово" title="Елизово" /><station direction="Могилёвское" esr="157014" importance="4" lat="53.465831" lon="29.118139" popular_title="" region="Могилёвская область" short_title="Тачанка" title="Тачанка" /><station direction="Могилёвское" esr="157103" importance="4" lat="53.511809" lon="29.250024" popular_title="" region="Могилёвская область" short_title="Несета" title="Несета" /><station direction="Могилёвское" esr="157207" importance="4" lat="53.596835" lon="29.497018" popular_title="" region="Могилёвская область" short_title="Воничи" title="Воничи" /><station direction="Могилёвское" esr="157226" importance="4" lat="53.661916" lon="29.658709" popular_title="" region="Могилёвская область" short_title="Милое" title="Милое" /><station direction="Могилёвское" esr="157300" importance="4" lat="53.701890" lon="29.770453" popular_title="" region="Могилёвская область" short_title="Друть" title="Друть" /><station city="Жлобин" direction="Жлобинское" esr="155004" importance="1" lat="52.889081" lon="30.036709" popular_title="" region="Гомельская область" short_title="Жлобин-Пасс." title="Жлобин-Пасс." /><station direction="Могилёвское" esr="157423" importance="4" lat="53.801820" lon="30.030222" popular_title="" region="Могилёвская область" short_title="Вендриж" title="Вендриж" /><station direction="Жлобинское" esr="146715" importance="4" lat="53.255372" lon="28.833342" popular_title="" region="Могилёвская область" short_title="Татарка" title="Татарка" /><station direction="Жлобинское" esr="146857" importance="4" lat="53.218211" lon="28.936559" popular_title="" region="Могилёвская область" short_title="Ясень" title="Ясень" /><station direction="Минское" esr="145002" importance="4" lat="53.751493" lon="27.683385" popular_title="" region="Минская область" short_title="Михановичи" title="Михановичи" /><station city="Бобруйск" direction="Жлобинское" esr="147008" importance="1" lat="53.140687" lon="29.187449" popular_title="" region="Могилёвская область" short_title="Бобруйск" title="Бобруйск" /><station direction="Жлобинское" esr="147722" importance="4" lat="53.085350" lon="29.371397" popular_title="" region="Могилёвская область" short_title="Савичи" title="Савичи" /><station direction="Жлобинское" esr="147807" importance="4" lat="53.044945" lon="29.510510" popular_title="" region="Могилёвская область" short_title="Телуша" title="Телуша" /><station direction="Жлобинское" esr="147826" importance="4" lat="53.010362" lon="29.654902" popular_title="" region="Могилёвская область" short_title="Омельня" title="Омельня" /><station direction="Жлобинское" esr="147602" importance="4" lat="53.031290" lon="29.165133" popular_title="" region="Могилёвская область" short_title="Красный Брод" title="Красный Брод" /><station direction="Жлобинское" esr="147506" importance="4" lat="52.953160" lon="29.115952" popular_title="" region="Могилёвская область" short_title="Брожа" title="Брожа" /><station direction="Слуцкое" esr="138916" importance="3" lat="53.082521" lon="26.105042" popular_title="" region="Брестская область" short_title="Русино" title="Русино" /><station city="Клецк" direction="Слуцкое" esr="139001" importance="2" lat="53.074301" lon="26.666887" popular_title="" region="Минская область" short_title="Клецк" title="Клецк" /><station direction="Жлобинское" esr="147402" importance="4" lat="52.773101" lon="28.962050" popular_title="" region="Гомельская область" short_title="Ратмировичи" title="Ратмировичи" /><station direction="Жлобинское" esr="147205" importance="4" lat="52.616804" lon="28.851255" popular_title="" region="Гомельская область" short_title="Рабкор" title="Рабкор" /><station city="Могилёв" direction="Могилёвское" esr="156609" importance="1" lat="53.926302" lon="30.337927" popular_title="" region="Могилёвская область" short_title="Могилёв-1" title="Могилёв-1" /><station city="Марьина Горка" direction="Минское" esr="145407" importance="2" lat="53.513737" lon="28.141613" popular_title="" region="Минская область" short_title="Пуховичи" title="Пуховичи" /><station city="Старые Дороги" direction="Слуцкое" esr="149107" importance="1" lat="53.043077" lon="28.272407" popular_title="" region="Минская область" short_title="Старые Дороги" title="Старые Дороги" /><station city="Осиповичи" direction="Слуцкое" esr="146407" importance="1" lat="53.300989" lon="28.636099" popular_title="" region="Могилёвская область" short_title="Осиповичи-1" title="Осиповичи-1" /><station city="Осиповичи" direction="Могилёвское" esr="146414" importance="2" lat="53.300487" lon="28.709025" popular_title="" region="Могилёвская область" short_title="Осиповичи-2" title="Осиповичи-2" /><station city="Осиповичи" direction="Жлобинское" esr="146433" importance="2" lat="53.279812" lon="28.715367" popular_title="" region="Могилёвская область" short_title="Осиповичи-3" title="Осиповичи-3" /><station direction="Минское" esr="146109" importance="3" lat="53.336473" lon="28.522759" popular_title="" region="Могилёвская область" short_title="Верейцы" title="Верейцы" /><station direction="Жлобинское" esr="148000" importance="4" lat="52.955069" lon="29.778352" popular_title="" region="Гомельская область" short_title="Красный Берег" title="Красный Берег" /><station direction="Жлобинское" esr="148015" importance="4" lat="52.945894" lon="29.804303" popular_title="" region="Гомельская область" short_title="Казимирово" title="Казимирово" /><station direction="Слуцкое" esr="138935" importance="4" lat="53.070931" lon="26.269026" popular_title="" region="Брестская область" short_title="Ковали" title="Ковали" /><station city="Минск" direction="Минское" esr="144809" importance="3" lat="53.807944" lon="27.579056" popular_title="" region="Минская область" short_title="Колядичи" title="Колядичи" /><station city="Могилёв" direction="Могилёвское" esr="156505" importance="3" lat="53.912207" lon="30.306936" popular_title="" region="Могилёвская область" short_title="Могилёв-2" title="Могилёв-2" /><station direction="Слуцкое" esr="148301" importance="4" lat="52.863995" lon="27.577013" popular_title="" region="Минская область" short_title="Калий-3" title="Калий-3" /><station direction="Слуцкое" esr="148208" importance="4" lat="52.827640" lon="27.587704" popular_title="" region="Минская область" short_title="Калий-1" title="Калий-1" /><station direction="Жлобинское" esr="147440" importance="4" lat="52.931842" lon="29.089218" popular_title="" region="Могилёвская область" short_title="Орсичи" title="Орсичи" /><station direction="Минское" esr="144813" importance="4" lat="53.785513" lon="27.605800" popular_title="" region="Минская область" short_title="Мачулищи" title="Мачулищи" /><station direction="Минское" esr="145040" importance="4" lat="53.663027" lon="27.759660" popular_title="" region="Минская область" short_title="Зазерка" title="Зазерка" /><station direction="Минское" esr="145021" importance="4" lat="53.655766" lon="27.768764" popular_title="" region="Минская область" short_title="Рыбцы" title="Рыбцы" /><station direction="Минское" esr="145036" importance="4" lat="53.644542" lon="27.783704" popular_title="" region="Минская область" short_title="Равнополье" title="Равнополье" /><station direction="Минское" esr="145318" importance="4" lat="53.575767" lon="27.925854" popular_title="" region="Минская область" short_title="Новое Село" title="Новое Село" /><station direction="Минское" esr="145337" importance="4" lat="53.548381" lon="28.062144" popular_title="" region="Минская область" short_title="Вендеж" title="Вендеж" /><station direction="Минское" esr="145341" importance="4" lat="53.533070" lon="28.120189" popular_title="" region="Минская область" short_title="Техникум" title="Техникум" /><station direction="Минское" esr="145411" importance="4" lat="53.490222" lon="28.157307" popular_title="" region="Минская область" short_title="Веленский" title="Веленский" /><station direction="Минское" esr="145430" importance="4" lat="53.414574" lon="28.258164" popular_title="" region="Минская область" short_title="Майский" title="Майский" /><station direction="Минское" esr="145445" importance="4" lat="53.391708" lon="28.297590" popular_title="" region="Минская область" short_title="Веселовский" title="Веселовский" /><station direction="Жлобинское" esr="146452" importance="4" lat="53.270288" lon="28.762933" popular_title="" region="Могилёвская область" short_title="Бродище" title="Бродище" /><station direction="Жлобинское" esr="147718" importance="4" lat="53.118615" lon="29.308016" popular_title="" region="Могилёвская область" short_title="Бабино" title="Бабино" /><station direction="Жлобинское" esr="147830" importance="4" lat="52.978400" lon="29.724524" popular_title="" region="Могилёвская область" short_title="Данилов Мост" title="Данилов Мост" /><station city="Жлобин" direction="Жлобинское" esr="155023" importance="3" lat="52.894890" lon="30.008894" popular_title="" region="Гомельская область" short_title="Деповской" title="Деповской" /><station direction="Минское" esr="146113" importance="4" lat="53.385909" lon="28.483472" popular_title="" region="Могилёвская область" short_title="Цель" title="Цель" /><station direction="Минское" esr="146236" importance="4" lat="53.490888" lon="28.593512" popular_title="" region="Могилёвская область" short_title="Уборок" title="Уборок" /><station direction="Жлобинское" esr="147614" importance="4" lat="53.072372" lon="29.170669" popular_title="" region="Могилёвская область" short_title="Туголица" title="Туголица" /><station direction="Жлобинское" esr="147510" importance="4" lat="52.986164" lon="29.148439" popular_title="" region="Могилёвская область" short_title="Глебова Рудня" title="Глебова Рудня" /><station direction="Жлобинское" esr="147421" importance="4" lat="52.813639" lon="29.040752" popular_title="" region="Гомельская область" short_title="Черные Броды" title="Черные Броды" /><station direction="Жлобинское" esr="147313" importance="4" lat="52.743733" lon="28.932012" popular_title="" region="Гомельская область" short_title="Оземля" title="Оземля" /><station direction="Жлобинское" esr="147417" importance="4" lat="52.790972" lon="29.009726" popular_title="" region="Гомельская область" short_title="Заозерщина" title="Заозерщина" /><station direction="Жлобинское" esr="147224" importance="4" lat="52.680825" lon="28.888500" popular_title="" region="Гомельская область" short_title="Новая Дуброва" title="Новая Дуброва" /><station direction="Слуцкое" esr="148316" importance="4" lat="52.911712" lon="27.547684" popular_title="" region="Минская область" short_title="Глядки" title="Глядки" /><station direction="Слуцкое" esr="148231" importance="4" lat="52.847073" lon="27.592796" popular_title="" region="Минская область" short_title="Шахтёрский" title="Шахтёрский" /><station direction="Слуцкое" esr="148212" importance="3" lat="52.801460" lon="27.564521" popular_title="" region="Минская область" short_title="Строитель" title="Строитель" /><station direction="Минское" esr="146011" importance="4" lat="53.365277" lon="28.421096" popular_title="" region="Могилёвская область" short_title="Верхи" title="Верхи" /><station direction="Минское" esr="146221" importance="4" lat="53.430404" lon="28.488425" popular_title="" region="Могилёвская область" short_title="Лапичи" title="Лапичи" /><station direction="Жлобинское" esr="148027" importance="4" lat="52.918714" lon="29.907788" popular_title="" region="Гомельская область" short_title="Малевичи" title="Малевичи" /><station direction="Жлобинское" esr="147737" importance="4" lat="53.057859" lon="29.446662" popular_title="" region="Могилёвская область" short_title="Малинники" title="Малинники" /><station direction="Минское" esr="145322" importance="4" lat="53.561699" lon="28.004146" popular_title="" region="Минская область" short_title="Дричин" title="Дричин" /><station direction="Могилёвское" esr="157118" importance="4" lat="53.547329" lon="29.353861" popular_title="" region="Могилёвская область" short_title="Стоялово" title="Стоялово" /><station direction="Могилёвское" esr="157322" importance="4" lat="53.737091" lon="29.891010" popular_title="" region="Могилёвская область" short_title="Семуковичи" title="Семуковичи" /><station direction="Могилёвское" esr="157508" importance="4" lat="53.848292" lon="30.168239" popular_title="" region="Могилёвская область" short_title="Голынец" title="Голынец" /><station direction="Минское" esr="146306" importance="4" lat="53.546482" lon="28.749362" popular_title="" region="Могилёвская область" short_title="Гродзянка" title="Гродзянка" /><station city="Жлобин" direction="Жлобинское" esr="155038" importance="4" lat="52.894303" lon="29.958085" popular_title="" region="Гомельская область" short_title="Жлобин-Западный" title="Жлобин-Западный" /><station direction="Жлобинское" esr="147436" importance="4" lat="52.851626" lon="29.051371" popular_title="" region="Гомельская область" short_title="Мошны" title="Мошны" /><station direction="Слуцкое" esr="138954" importance="4" lat="53.076174" lon="26.455696" popular_title="" region="Брестская область" short_title="Жеребковичи" title="Жеребковичи" /><station direction="Слуцкое" esr="139020" importance="4" lat="53.065955" lon="26.822976" popular_title="" region="Минская область" short_title="Дегтяны" title="Дегтяны" /><station direction="Слуцкое" esr="139139" importance="4" lat="53.036141" lon="27.355111" popular_title="" region="Минская область" short_title="Середняки" title="Середняки" /><station direction="Жлобинское" esr="146823" importance="4" lat="53.186745" lon="29.016831" popular_title="" region="Могилёвская область" short_title="Бибковщина" title="Бибковщина" /><station direction="Минское" esr="145426" importance="4" lat="53.437816" lon="28.223464" popular_title="" region="Минская область" short_title="Блужа" title="Блужа" /><station direction="Жлобинское" esr="147328" importance="4" lat="52.708873" lon="28.901480" popular_title="" region="Гомельская область" short_title="Бумажково" title="Бумажково" /><station direction="Жлобинское" esr="147811" importance="4" lat="53.027376" lon="29.570129" popular_title="" region="Могилёвская область" short_title="Микуличи" title="Микуличи" /><station direction="Слуцкое" esr="139117" importance="4" lat="53.078740" lon="27.193234" popular_title="" region="Минская область" short_title="Морочь" title="Морочь" /><station direction="Слуцкое" esr="148320" importance="4" lat="52.956355" lon="27.522559" popular_title="" region="Минская область" short_title="Новогорки" title="Новогорки" /><station direction="Минское" esr="145017" importance="4" lat="53.675093" lon="27.749012" popular_title="" region="Минская область" short_title="Седча" title="Седча" /><station direction="Жлобинское" esr="146819" importance="4" lat="53.207336" lon="28.956929" popular_title="" region="Могилёвская область" short_title="Токари" title="Токари" /><station direction="Слуцкое" esr="138920" importance="4" lat="53.072755" lon="26.164017" popular_title="" region="Брестская область" short_title="Федюки" title="Федюки" /><station direction="Слуцкое" esr="148617" importance="4" lat="52.995722" lon="27.581145" popular_title="" region="Минская область" short_title="Новодворцы" title="Новодворцы" /><station direction="Слуцкое" esr="148640" importance="4" lat="52.966791" lon="27.804475" popular_title="" region="Минская область" short_title="Повстынь" title="Повстынь" /><station direction="Слуцкое" esr="138969" importance="4" lat="53.083361" lon="26.569260" popular_title="" region="Минская область" short_title="Щепичи" title="Щепичи" /><station city="Руденск" direction="Минское" esr="145303" importance="2" lat="53.596857" lon="27.858941" popular_title="" region="Минская область" short_title="Руденск" title="Руденск" /><station direction="Жлобинское" esr="146927" importance="4" lat="53.178336" lon="29.062305" popular_title="" region="Могилёвская область" short_title="Мирадино" title="Мирадино" /><station direction="Слуцкое" esr="139105" importance="4" lat="53.088752" lon="27.041841" popular_title="" region="Минская область" short_title="Тимковичи" title="Тимковичи" /><station direction="Слуцкое" esr="139016" importance="4" lat="53.064673" lon="26.731644" popular_title="" region="Минская область" short_title="Зубки" title="Зубки" /><station direction="Слуцкое" esr="139124" importance="4" lat="53.058130" lon="27.280739" popular_title="" region="Минская область" short_title="Шаловичи" title="Шаловичи" /><station direction="Слуцкое" esr="148636" importance="4" lat="52.977487" lon="27.763870" popular_title="" region="Минская область" short_title="Загродье" title="Загродье" /><station direction="Слуцкое" esr="149018" importance="4" lat="52.955866" lon="27.955674" popular_title="" region="Минская область" short_title="Оточка" title="Оточка" /><station direction="Слуцкое" esr="149037" importance="4" lat="53.010678" lon="28.166298" popular_title="" region="Минская область" short_title="Пасека" title="Пасека" /><station direction="Слуцкое" esr="149111" importance="4" lat="53.081006" lon="28.291326" popular_title="" region="Минская область" short_title="Александровка" title="Александровка" /><station direction="Слуцкое" esr="149130" importance="4" lat="53.146321" lon="28.424006" popular_title="" region="Минская область" short_title="Ульяновка" title="Ульяновка" /><station direction="Слуцкое" esr="149215" importance="4" lat="53.233022" lon="28.549656" popular_title="" region="Могилёвская область" short_title="Гряда" title="Гряда" /><station direction="Могилёвское" esr="157122" importance="4" lat="53.569581" lon="29.415975" popular_title="" region="Могилёвская область" short_title="Суша" title="Суша" /><station direction="Могилёвское" esr="157211" importance="4" lat="53.616363" lon="29.551431" popular_title="" region="Могилёвская область" short_title="Развадово" title="Развадово" /><station direction="Могилёвское" esr="157315" importance="4" lat="53.715331" lon="29.842856" popular_title="" region="Могилёвская область" short_title="Синюга" title="Синюга" /><station direction="Могилёвское" esr="157349" importance="4" lat="53.786882" lon="29.976231" popular_title="" region="Могилёвская область" short_title="Хоново" title="Хоново" /><station direction="Могилёвское" esr="157419" importance="4" lat="53.820323" lon="30.096784" popular_title="" region="Могилёвская область" short_title="Понизов" title="Понизов" /><station direction="Минское" esr="146448" importance="3" lat="53.316476" lon="28.582065" popular_title="" region="Могилёвская область" short_title="Советский" title="Советский" /><station direction="Минское" esr="146467" importance="3" lat="53.309370" lon="28.603401" popular_title="" region="Могилёвская область" short_title="Юбилейный" title="Юбилейный" /><station direction="Минское" esr="146128" importance="4" lat="53.457664" lon="28.498168" popular_title="" region="Могилёвская область" short_title="Осово" title="Осово" /><station city="Жлобин" direction="Жлобинское" esr="155841" importance="3" lat="52.889441" lon="30.013360" popular_title="" region="Гомельская область" short_title="Жлобин-Сорт." title="Жлобин-Сорт." /><station direction="Минское" esr="146132" importance="4" lat="53.482056" lon="28.532974" popular_title="" region="Могилёвская область" short_title="Гомоновка" title="Гомоновка" /><station city="Минск" direction="Минское" esr="140511" importance="4" lat="53.849784" lon="27.555779" popular_title="" region="Минская область" short_title="Лошица" title="Лошица" /><station direction="Минское" esr="146217" importance="4" lat="53.510380" lon="28.644282" popular_title="" region="Могилёвская область" short_title="Погорелое" title="Погорелое" /><station direction="Слуцкое" esr="139158" importance="4" lat="53.067438" lon="26.897671" popular_title="" region="Минская область" short_title="Труд" title="Труд" /><station direction="Слуцкое" esr="139143" importance="4" lat="53.083937" lon="27.142770" popular_title="" region="Минская область" short_title="Ванилевичи" title="Ванилевичи" /><station direction="Слуцкое" esr="139162" importance="4" lat="53.047169" lon="27.313438" popular_title="" region="Минская область" short_title="Восток" title="Восток" /><station direction="Слуцкое" esr="148655" importance="4" lat="53.023814" lon="27.452533" popular_title="" region="Минская область" short_title="Безверховичи" title="Безверховичи" /><station direction="Жлобинское" esr="147741" importance="4" lat="53.068064" lon="29.404245" popular_title="" region="Могилёвская область" short_title="331км" title="331км" /><station direction="Жлобинское" esr="146838" importance="4" lat="53.195335" lon="28.980945" popular_title="" region="Могилёвская область" short_title="Кветка" title="Кветка" /><station direction="Слуцкое" esr="148665" importance="4" lat="52.989963" lon="27.633808" popular_title="" region="Минская область" short_title="Козловичи" title="Козловичи" /><station direction="Могилёвское" esr="146471" importance="4" lat="53.325142" lon="28.764294" popular_title="" region="Могилёвская область" short_title="Горожа" title="Горожа" /><station direction="Могилёвское" esr="157029" importance="4" lat="53.481389" lon="29.163272" popular_title="" region="Могилёвская область" short_title="Ольховка" title="Ольховка" /><station direction="Могилёвское" esr="157334" importance="4" lat="53.753047" lon="29.925258" popular_title="" region="Могилёвская область" short_title="Новая Нива" title="Новая Нива" /><station direction="Могилёвское" esr="157512" importance="4" lat="53.883972" lon="30.232122" popular_title="" region="Могилёвская область" short_title="Тишовка" title="Тишовка" /><station direction="Жлобинское" esr="146842" importance="4" lat="53.243683" lon="28.891507" popular_title="" region="Могилёвская область" short_title="Гай" title="Гай" /><station city="Бобруйск" direction="Жлобинское" esr="147027" importance="2" lat="53.101644" lon="29.169199" popular_title="" region="Могилёвская область" short_title="Дедново" title="Дедново" /><station direction="Жлобинское" esr="146734" importance="4" lat="53.252217" lon="28.863193" popular_title="" region="Могилёвская область" short_title="Дачная" title="Дачная" /><station city="Минск" direction="Минское" esr="140526" importance="4" lat="53.818515" lon="27.572522" popular_title="" region="Минская область" short_title="Железнодорожный" title="Железнодорожный" /><station city="Октябрьский" direction="Жлобинское" esr="147217" importance="1" lat="52.652650" lon="28.879275" popular_title="" region="Гомельская область" short_title="Октябрьский" title="Октябрьский" /><station direction="Слуцкое" esr="138945" importance="4" lat="53.071209" lon="26.382047" popular_title="" region="Брестская область" short_title="Подлесье" title="Подлесье" /><station direction="Могилёвское" esr="157245" importance="4" lat="53.651759" lon="29.633306" popular_title="" region="Могилёвская область" short_title="Заличинка" title="Заличинка" /><station direction="Минское" esr="144832" importance="4" lat="53.771629" lon="27.642865" popular_title="" region="Минская область" short_title="Асеевка" title="Асеевка" /><station direction="Могилёвское" esr="157527" importance="4" lat="53.896523" lon="30.256958" popular_title="" region="Могилёвская область" short_title="Городщина" title="Городщина" /></suburban_zone>