<?xml version='1.0' encoding='UTF-8'?>
<suburban_zone id="173"><station direction="Невельское" esr="067320" importance="4" lat="56.234760" lon="30.363747" popular_title="" region="Псковская область" short_title="Чернозём" title="Чернозём" /><station direction="Невельское" esr="067301" importance="4" lat="56.095963" lon="30.157115" popular_title="" region="Псковская область" short_title="Опухлики" title="Опухлики" /><station direction="Невельское" esr="066811" importance="4" lat="55.877884" lon="29.627813" popular_title="" region="Псковская область" short_title="Железница" title="Железница" /><station direction="Невельское" esr="066826" importance="4" lat="55.843664" lon="29.538569" popular_title="" region="Псковская область" short_title="Молокоедово" title="Молокоедово" /><station direction="Невельское" esr="067142" importance="4" lat="56.118884" lon="29.960782" popular_title="" region="Псковская область" short_title="Каратай" title="Каратай" /><station city="Невель" direction="Невельское" esr="067000" importance="2" lat="56.040675" lon="29.950645" popular_title="" region="Псковская область" short_title="Невель-1" title="Невель-1" /><station direction="Невельское" esr="066855" importance="4" lat="55.932790" lon="29.718031" popular_title="" region="Псковская область" short_title="Новохованск" title="Новохованск" /><station direction="Невельское" esr="066830" importance="4" lat="55.798678" lon="29.443886" popular_title="" region="Псковская область" short_title="Клястица" title="Клястица" /><station direction="Невельское" esr="067212" importance="4" lat="56.180478" lon="30.074807" popular_title="" region="Псковская область" short_title="Изоча" title="Изоча" /><station direction="Невельское" esr="067231" importance="4" lat="56.257782" lon="30.103836" popular_title="" region="Псковская область" short_title="Власье" title="Власье" /><station city="Новосокольники" direction="Невельское" esr="066602" importance="2" lat="56.343029" lon="30.146983" popular_title="" region="Псковская область" short_title="Новосокольники" title="Новосокольники" /><station city="Великие Луки" direction="Невельское" esr="066008" importance="2" lat="56.340105" lon="30.562705" popular_title="" region="Псковская область" short_title="Великие Луки" title="Великие Луки" /><station city="Невель" direction="Невельское" esr="067104" importance="2" lat="56.018444" lon="29.934479" popular_title="" region="Псковская область" short_title="Невель-2" title="Невель-2" /><station direction="Невельское" esr="066845" importance="4" lat="55.985664" lon="29.823983" popular_title="" region="Псковская область" short_title="375 км" title="375 км" /><station direction="Невельское" esr="067335" importance="4" lat="56.283967" lon="30.461004" popular_title="" region="Псковская область" short_title="Забойники" title="Забойники" /><station direction="Невельское" esr="067123" importance="4" lat="56.094208" lon="29.957385" popular_title="" region="Псковская область" short_title="Горушки-Невельские" title="Горушки-Невельские" /><station direction="Невельское" esr="067316" importance="4" lat="56.182179" lon="30.308719" popular_title="" region="Псковская область" short_title="336 км" title="336 км" /><station direction="Невельское" esr="067208" importance="4" lat="56.143157" lon="30.054376" popular_title="" region="Псковская область" short_title="451 км" title="451 км" /><station direction="Молодечненское" esr="163706" importance="4" lat="54.670373" lon="27.178664" popular_title="" region="Минская область" short_title="Княгинин" title="Княгинин" /><station direction="Молодечненское" esr="163802" importance="4" lat="54.791160" lon="27.410752" popular_title="" region="Минская область" short_title="Будслав" title="Будслав" /><station direction="Даугавпилское" esr="161700" importance="4" lat="55.833379" lon="27.740333" popular_title="" region="Витебская область" short_title="Бигосово" title="Бигосово" /><station city="Боровуха" direction="Даугавпилское" esr="162116" importance="2" lat="55.582393" lon="28.604669" popular_title="" region="Витебская область" short_title="Баравуха" title="Баравуха" /><station direction="Невельское" esr="161255" importance="4" lat="55.600753" lon="29.040813" popular_title="" region="Витебская область" short_title="Полота" title="Полота" /><station direction="Невельское" esr="161518" importance="4" lat="55.702241" lon="29.219335" popular_title="" region="Витебская область" short_title="Дретунь" title="Дретунь" /><station city="Оболь" direction="Витебское" esr="161109" importance="2" lat="55.363223" lon="29.275015" popular_title="" region="Витебская область" short_title="Оболь" title="Оболь" /><station city="Шумилино" direction="Витебское" esr="160905" importance="2" lat="55.303186" lon="29.623501" popular_title="" region="Витебская область" short_title="Шумилино" title="Шумилино" /><station city="Ветрино" direction="Молодечненское" esr="165152" importance="1" lat="55.407065" lon="28.470432" popular_title="" region="Витебская область" short_title="Ветрино" title="Ветрино" /><station direction="Молодечненское" esr="165114" importance="4" lat="55.253552" lon="28.167058" popular_title="" region="Витебская область" short_title="Зябки" title="Зябки" /><station direction="Молодечненское" esr="165006" importance="4" lat="55.163379" lon="27.977913" popular_title="" region="Витебская область" short_title="Подсвилье" title="Подсвилье" /><station city="Глубокое" direction="Молодечненское" esr="164906" importance="2" lat="55.130163" lon="27.675522" popular_title="" region="Витебская область" short_title="Глубокое" title="Глубокое" /><station direction="Молодечненское" esr="164427" importance="4" lat="55.149429" lon="27.383480" popular_title="" region="Витебская область" short_title="Новодруцк" title="Новодруцк" /><station direction="Молодечненское" esr="164408" importance="4" lat="55.137003" lon="27.197591" popular_title="" region="Витебская область" short_title="Воропаево" title="Воропаево" /><station city="Поставы" direction="Молодечненское" esr="164304" importance="2" lat="55.120969" lon="26.871080" popular_title="" region="Витебская область" short_title="Поставы" title="Поставы" /><station city="Витебск" direction="Витебское" esr="160002" importance="2" lat="55.192189" lon="30.189197" popular_title="" region="Витебская область" short_title="Витебск-Пасс." title="Витебск-Пасс." /><station city="Верхнедвинск" direction="Даугавпилское" esr="161804" importance="2" lat="55.814802" lon="27.939980" popular_title="" region="Витебская область" short_title="Верхнедвинск" title="Верхнедвинск" /><station city="Полоцк" direction="Молодечненское" esr="161306" importance="1" lat="55.490304" lon="28.791957" popular_title="" region="Витебская область" short_title="Полоцк" title="Полоцк" /><station direction="Даугавпилское" esr="161908" importance="4" lat="55.667728" lon="28.333866" popular_title="" region="Витебская область" short_title="Борковичи" title="Борковичи" /><station city="Алёща" direction="Невельское" esr="161607" importance="1" lat="55.732543" lon="29.317966" popular_title="" region="Витебская область" short_title="Алёща" title="Алёща" /><station direction="Витебское" esr="160910" importance="4" lat="55.318132" lon="29.460977" popular_title="" region="Витебская область" short_title="Ловша" title="Ловша" /><station direction="Витебское" esr="160040" importance="4" lat="55.224752" lon="29.895475" popular_title="" region="Витебская область" short_title="Старое Село" title="Старое Село" /><station direction="Молодечненское" esr="165203" importance="4" lat="55.423228" lon="28.578814" popular_title="" region="Витебская область" short_title="Фариново" title="Фариново" /><station direction="Молодечненское" esr="165148" importance="4" lat="55.348242" lon="28.350345" popular_title="" region="Витебская область" short_title="Загатье" title="Загатье" /><station direction="Молодечненское" esr="165103" importance="4" lat="55.214142" lon="28.081318" popular_title="" region="Витебская область" short_title="Боровое" title="Боровое" /><station city="Вилейка" direction="Молодечненское" esr="163602" importance="2" lat="54.506091" lon="26.940245" popular_title="" region="Минская область" short_title="Вилейка" title="Вилейка" /><station direction="Даугавпилское" esr="161823" importance="4" lat="55.708949" lon="28.232583" popular_title="" region="Витебская область" short_title="Бениславского" title="Бениславского" /><station direction="Витебское" esr="161128" importance="4" lat="55.424899" lon="29.046423" popular_title="" region="Витебская область" short_title="Горяны" title="Горяны" /><station city="Молодечно" direction="Молодечненское" esr="162900" importance="2" lat="54.315872" lon="26.848802" popular_title="" region="Минская область" short_title="Молодечно" title="Молодечно" /><station direction="Молодечненское" esr="164003" importance="3" lat="55.021348" lon="27.774961" popular_title="" region="Витебская область" short_title="Крулевщизна" title="Крулевщизна" /><station direction="Молодечненское" esr="165307" importance="4" lat="55.455498" lon="28.726070" popular_title="" region="Витебская область" short_title="Ксты" title="Ксты" /><station direction="Молодечненское" esr="164215" importance="4" lat="55.141892" lon="26.654353" popular_title="" region="Витебская область" short_title="Ярево" title="Ярево" /><station city="Лынтупы" direction="Молодечненское" esr="164516" importance="1" lat="55.035467" lon="26.317458" popular_title="" region="Витебская область" short_title="Лынтупы" title="Лынтупы" /><station direction="Молодечненское" esr="164253" importance="4" lat="55.088537" lon="26.424627" popular_title="" region="Витебская область" short_title="Разлоги" title="Разлоги" /><station direction="Молодечненское" esr="164249" importance="4" popular_title="" region="Витебская область" short_title="Камайка" title="Камайка" /><station direction="Молодечненское" esr="164342" importance="4" lat="55.146918" lon="26.572975" popular_title="" region="Витебская область" short_title="Годутишки" title="Годутишки" /><station direction="Даугавпилское" esr="161912" importance="4" lat="55.654927" lon="28.368887" popular_title="" region="Витебская область" short_title="Подозерцы" title="Подозерцы" /><station direction="Даугавпилское" esr="162012" importance="4" lat="55.618513" lon="28.474804" popular_title="" region="Витебская область" short_title="Адамово" title="Адамово" /><station city="Новополоцк" direction="Даугавпилское" esr="162211" importance="2" lat="55.544426" lon="28.672307" popular_title="" region="Витебская область" short_title="Ропнянская" title="Ропнянская" /><station direction="Невельское" esr="161240" importance="4" lat="55.548666" lon="28.902158" popular_title="" region="Витебская область" short_title="Поздняково" title="Поздняково" /><station direction="Витебское" esr="161221" importance="4" lat="55.445659" lon="28.977533" popular_title="" region="Витебская область" short_title="Сосница" title="Сосница" /><station direction="Витебское" esr="161113" importance="4" lat="55.392828" lon="29.156323" popular_title="" region="Витебская область" short_title="Глушанино" title="Глушанино" /><station direction="Витебское" esr="160055" importance="4" lat="55.263373" lon="29.768435" popular_title="" region="Витебская область" short_title="Язвино" title="Язвино" /><station direction="Витебское" esr="160021" importance="4" lat="55.179702" lon="30.018929" popular_title="" region="Витебская область" short_title="Княжица" title="Княжица" /><station direction="Витебское" esr="160017" importance="4" lat="55.178110" lon="30.097504" popular_title="" region="Витебская область" short_title="Гришаны" title="Гришаны" /><station direction="Невельское" esr="161217" importance="4" lat="55.516459" lon="28.854195" popular_title="" region="Витебская область" short_title="Секеровщина" title="Секеровщина" /><station direction="Молодечненское" esr="163918" importance="4" lat="54.957700" lon="27.672250" popular_title="" region="Витебская область" short_title="Порплище" title="Порплище" /><station city="Парафьяново" direction="Молодечненское" esr="163903" importance="1" lat="54.877983" lon="27.603261" popular_title="" region="Витебская область" short_title="Парафьянов" title="Парафьянов" /><station direction="Молодечненское" esr="163617" importance="4" lat="54.559612" lon="26.988160" popular_title="" region="Минская область" short_title="Куренец" title="Куренец" /><station direction="Молодечненское" esr="163621" importance="4" lat="54.616987" lon="27.088001" popular_title="" region="Минская область" short_title="Страж" title="Страж" /><station direction="Молодечненское" esr="162915" importance="4" lat="54.353685" lon="26.856649" popular_title="" region="Минская область" short_title="Тышкевичи" title="Тышкевичи" /><station direction="Молодечненское" esr="163922" importance="4" lat="54.989348" lon="27.704854" popular_title="" region="Витебская область" short_title="Володьки" title="Володьки" /><station direction="Молодечненское" esr="164338" importance="4" lat="55.141629" lon="27.078070" popular_title="" region="Витебская область" short_title="Жефарово" title="Жефарово" /><station direction="Молодечненское" esr="164450" importance="4" lat="55.130007" lon="27.501095" popular_title="" region="Витебская область" short_title="Константинов Двор" title="Константинов Двор" /><station direction="Молодечненское" esr="162934" importance="4" lat="54.456076" lon="26.884697" popular_title="" region="Минская область" short_title="Красный Бережок" title="Красный Бережок" /><station direction="Молодечненское" esr="163710" importance="4" lat="54.736649" lon="27.292238" popular_title="" region="Минская область" short_title="Кривичи" title="Кривичи" /><station direction="Молодечненское" esr="165133" importance="4" lat="55.306899" lon="28.289371" popular_title="" region="Витебская область" short_title="Кульгаи" title="Кульгаи" /><station direction="Витебское" esr="160036" importance="4" lat="55.202635" lon="29.937480" popular_title="" region="Витебская область" short_title="Летцы" title="Летцы" /><station direction="Молодечненское" esr="163636" importance="4" lat="54.637702" lon="27.123205" popular_title="" region="Минская область" short_title="Нивки" title="Нивки" /><station direction="Молодечненское" esr="165129" importance="4" lat="55.283164" lon="28.213092" popular_title="" region="Витебская область" short_title="Полеваче" title="Полеваче" /><station direction="Молодечненское" esr="164465" importance="4" lat="55.131856" lon="27.581957" popular_title="" region="Витебская область" short_title="Шарабаи" title="Шарабаи" /><station direction="Молодечненское" esr="163814" importance="4" lat="54.827752" lon="27.486499" popular_title="" region="Минская область" short_title="Вереньки" title="Вереньки" /><station direction="Даугавпилское" esr="161819" importance="4" lat="55.751839" lon="28.115336" popular_title="" region="Витебская область" short_title="Свольно" title="Свольно" /><station direction="Молодечненское" esr="162949" importance="4" lat="54.482196" lon="26.888617" popular_title="" region="Минская область" short_title="Зенит" title="Зенит" /><station direction="Молодечненское" esr="164446" importance="4" lat="55.135573" lon="27.274128" popular_title="" region="Витебская область" short_title="Черное" title="Черное" /><station direction="Витебское" esr="165025" importance="4" lat="55.240691" lon="29.855058" popular_title="" region="Витебская область" short_title="Краево" title="Краево" /><station direction="Витебское" esr="160063" importance="4" lat="55.254287" lon="29.809686" popular_title="" region="Витебская область" short_title="Ужлятино" title="Ужлятино" /><station direction="Витебское" esr="165311" importance="4" lat="55.435474" lon="29.013224" popular_title="" region="Витебская область" short_title="Фомино" title="Фомино" /><station direction="Даугавпилское" esr="161838" importance="4" lat="55.832598" lon="27.864104" popular_title="" region="Витебская область" short_title="Сарьянка" title="Сарьянка" /><station direction="Молодечненское" esr="164431" importance="4" lat="55.138747" lon="27.420499" popular_title="" region="Витебская область" short_title="Веретеи" title="Веретеи" /><station direction="Молодечненское" esr="164412" importance="4" lat="55.138531" lon="27.318196" popular_title="" region="Витебская область" short_title="Ляховщина" title="Ляховщина" /><station direction="Молодечненское" esr="164323" importance="4" lat="55.133473" lon="27.012443" popular_title="" region="Витебская область" short_title="Новоселки" title="Новоселки" /><station direction="Витебское" esr="160924" importance="4" lat="55.346164" lon="29.364897" popular_title="" region="Витебская область" short_title="Пуща" title="Пуща" /><station direction="Витебское" esr="160939" importance="4" lat="55.316330" lon="29.530842" popular_title="" region="Витебская область" short_title="Добрино" title="Добрино" /><station direction="Молодечненское" esr="162926" importance="4" lat="54.407678" lon="26.873752" popular_title="" region="Минская область" short_title="Домановский" title="Домановский" /><station direction="Молодечненское" esr="163829" importance="4" lat="54.805293" lon="27.437898" popular_title="" region="Минская область" short_title="Илово" title="Илово" /><station direction="Молодечненское" esr="165037" importance="4" lat="55.110487" lon="27.873281" popular_title="" region="Витебская область" short_title="Замошье" title="Замошье" /><station direction="Невельское" esr="161269" importance="4" lat="55.571884" lon="28.974576" popular_title="" region="Витебская область" short_title="Юровичи" title="Юровичи" /><station direction="Невельское" esr="067227" importance="4" lat="56.217337" lon="30.068627" popular_title="" region="Псковская область" short_title="439 км" title="439 км" /><station direction="Невельское" esr="003119" importance="4" lat="56.164773" lon="30.066269" popular_title="" region="Псковская область" short_title="447 км" title="447 км" /><station direction="Невельское" esr="003120" importance="4" lat="56.132290" lon="30.018643" popular_title="" region="Псковская область" short_title="453 км" title="453 км" /><station direction="Невельское" esr="067157" importance="4" lat="56.134139" lon="30.000293" popular_title="" region="Псковская область" short_title="454 км" title="454 км" /><station city="Великие Луки" direction="Невельское" esr="067346" importance="4" lat="56.327715" lon="30.518491" popular_title="" region="Псковская область" short_title="314 км" title="314 км" /><station direction="Невельское" esr="003121" importance="4" lat="56.262802" lon="30.418153" popular_title="" region="Псковская область" short_title="323 км" title="323 км" /><station direction="Невельское" esr="003122" importance="4" lat="56.122953" lon="30.218672" popular_title="" region="Псковская область" short_title="344 км" title="344 км" /><station direction="Невельское" esr="003123" importance="4" lat="56.053344" lon="30.030615" popular_title="" region="Псковская область" short_title="355 км" title="355 км" /><station direction="Невельское" esr="067015" importance="4" lat="56.049024" lon="29.992284" popular_title="" region="Псковская область" short_title="357 км" title="357 км" /><station direction="Невельское" esr="003124" importance="4" lat="55.858885" lon="29.554983" popular_title="" region="Псковская область" short_title="398 км" title="398 км" /><station direction="Молодечненское" esr="164018" importance="4" lat="55.067791" lon="27.818033" popular_title="" region="Витебская область" short_title="Шипы" title="Шипы" /></suburban_zone>