<?xml version='1.0' encoding='UTF-8'?>
<suburban_zone id="174"><station city="Минск" direction="Осиповичское" esr="140210" importance="1" lat="53.890410" lon="27.550656" popular_title="" region="Минская область" short_title="Минск-Пасс." title="Минск-Пасс." /><station city="Минск" direction="Осиповичское" esr="140013" importance="2" lat="53.883925" lon="27.535564" popular_title="" region="Минская область" short_title="Минск (Институт Культуры)" title="Минск (Институт Культуры)" /><station city="Минск" direction="Осиповичское" esr="140507" importance="3" lat="53.865547" lon="27.560248" popular_title="" region="Минская область" short_title="Минск-Южный" title="Минск-Южный" /><station city="Буда-Кошелево" direction="Гомельское" esr="155201" importance="2" lat="52.714821" lon="30.568582" popular_title="" region="Гомельская область" short_title="Буда-Кошелевская" title="Буда-Кошелевская" /><station city="Бобруйск" direction="Осиповичское" esr="147703" importance="4" lat="53.129775" lon="29.237081" popular_title="" region="Могилёвская область" short_title="Березина" title="Березина" /><station city="Бобруйск" direction="Осиповичское" esr="146912" importance="4" lat="53.157861" lon="29.143245" popular_title="" region="Могилёвская область" short_title="Киселевичи" title="Киселевичи" /><station city="Быхов" direction="Могилёвское" esr="156100" importance="2" lat="53.514530" lon="30.233969" popular_title="" region="Могилёвская область" short_title="Быхов" title="Быхов" /><station direction="Осиповичское" esr="145454" importance="4" lat="53.372993" lon="28.338985" popular_title="" region="Минская область" short_title="Талька" title="Талька" /><station city="Жлобин" direction="Гомельское" esr="155004" importance="1" lat="52.889081" lon="30.036709" popular_title="" region="Гомельская область" short_title="Жлобин-Пасс." title="Жлобин-Пасс." /><station city="Калинковичи" direction="Калинковичское" esr="153808" importance="1" lat="52.139078" lon="29.315864" popular_title="" region="Гомельская область" short_title="Калинковичи" title="Калинковичи" /><station direction="Осиповичское" esr="146715" importance="4" lat="53.255372" lon="28.833342" popular_title="" region="Могилёвская область" short_title="Татарка" title="Татарка" /><station direction="Осиповичское" esr="146857" importance="4" lat="53.218211" lon="28.936559" popular_title="" region="Могилёвская область" short_title="Ясень" title="Ясень" /><station city="Гомель" direction="Гомельское" esr="150000" importance="1" lat="52.429240" lon="30.995165" popular_title="" region="Гомельская область" short_title="Гомель-Пасс." title="Гомель-Пасс." /><station direction="Осиповичское" esr="145002" importance="4" lat="53.751493" lon="27.683385" popular_title="" region="Минская область" short_title="Михановичи" title="Михановичи" /><station city="Бобруйск" direction="Осиповичское" esr="147008" importance="1" lat="53.140687" lon="29.187449" popular_title="" region="Могилёвская область" short_title="Бобруйск" title="Бобруйск" /><station direction="Осиповичское" esr="147722" importance="4" lat="53.085350" lon="29.371397" popular_title="" region="Могилёвская область" short_title="Савичи" title="Савичи" /><station direction="Осиповичское" esr="147807" importance="4" lat="53.044945" lon="29.510510" popular_title="" region="Могилёвская область" short_title="Телуша" title="Телуша" /><station direction="Осиповичское" esr="147826" importance="4" lat="53.010362" lon="29.654902" popular_title="" region="Могилёвская область" short_title="Омельня" title="Омельня" /><station direction="Осиповичское" esr="147602" importance="4" lat="53.031290" lon="29.165133" popular_title="" region="Могилёвская область" short_title="Красный Брод" title="Красный Брод" /><station direction="Осиповичское" esr="147506" importance="4" lat="52.953160" lon="29.115952" popular_title="" region="Могилёвская область" short_title="Брожа" title="Брожа" /><station direction="Осиповичское" esr="147402" importance="4" lat="52.773101" lon="28.962050" popular_title="" region="Гомельская область" short_title="Ратмировичи" title="Ратмировичи" /><station direction="Осиповичское" esr="147205" importance="4" lat="52.616804" lon="28.851255" popular_title="" region="Гомельская область" short_title="Рабкор" title="Рабкор" /><station city="Могилёв" direction="Могилёвское" esr="156609" importance="1" lat="53.926302" lon="30.337927" popular_title="" region="Могилёвская область" short_title="Могилёв-1" title="Могилёв-1" /><station city="Марьина Горка" direction="Осиповичское" esr="145407" importance="2" lat="53.513737" lon="28.141613" popular_title="" region="Минская область" short_title="Пуховичи" title="Пуховичи" /><station city="Светлогорск" direction="Калинковичское" esr="154209" importance="2" lat="52.630323" lon="29.712326" popular_title="" region="Гомельская область" short_title="Светлогорск-на-Березине" title="Светлогорск-на-Березине" /><station direction="Гомельское" esr="155409" importance="4" lat="52.570560" lon="30.874414" popular_title="" region="Гомельская область" short_title="Лазурная" title="Лазурная" /><station direction="Гомельское" esr="155076" importance="4" lat="52.841434" lon="30.273023" popular_title="" region="Гомельская область" short_title="Старая Рудня" title="Старая Рудня" /><station direction="Гомельское" esr="155305" importance="4" lat="52.599606" lon="30.811190" popular_title="" region="Гомельская область" short_title="Уза" title="Уза" /><station direction="Гомельское" esr="155112" importance="4" lat="52.812371" lon="30.343034" popular_title="" region="Гомельская область" short_title="Салтановка" title="Салтановка" /><station direction="Гомельское" esr="155042" importance="4" lat="52.882248" lon="30.087149" popular_title="" region="Гомельская область" short_title="Вирский" title="Вирский" /><station direction="Калинковичское" esr="154232" importance="4" lat="52.777592" lon="29.896369" popular_title="" region="Гомельская область" short_title="Мормаль" title="Мормаль" /><station direction="Калинковичское" esr="154228" importance="4" lat="52.722671" lon="29.818495" popular_title="" region="Гомельская область" short_title="Ящицы" title="Ящицы" /><station direction="Калинковичское" esr="154162" importance="4" lat="52.550136" lon="29.633687" popular_title="" region="Гомельская область" short_title="Жердь" title="Жердь" /><station direction="Калинковичское" esr="154143" importance="4" lat="52.472549" lon="29.545167" popular_title="" region="Гомельская область" short_title="Останковичи" title="Останковичи" /><station direction="Калинковичское" esr="154124" importance="4" lat="52.362181" lon="29.473123" popular_title="" region="Гомельская область" short_title="Холодники" title="Холодники" /><station direction="Гомельское" esr="150024" importance="3" lat="52.482833" lon="30.974406" popular_title="" region="Гомельская область" short_title="Светоч" title="Светоч" /><station direction="Могилёвское" esr="155818" importance="4" lat="52.989207" lon="30.009677" popular_title="" region="Гомельская область" short_title="Лукское" title="Лукское" /><station direction="Гомельское" esr="150015" importance="4" lat="52.509959" lon="30.953442" popular_title="" region="Гомельская область" short_title="Еремино" title="Еремино" /><station direction="Калинковичское" esr="154105" importance="4" lat="52.273367" lon="29.422008" popular_title="" region="Гомельская область" short_title="Горочичи" title="Горочичи" /><station direction="Калинковичское" esr="154016" importance="4" lat="52.210375" lon="29.381629" popular_title="" region="Гомельская область" short_title="Юшки" title="Юшки" /><station direction="Могилёвское" esr="156127" importance="4" lat="53.593375" lon="30.242689" popular_title="" region="Могилёвская область" short_title="Баркалабово" title="Баркалабово" /><station direction="Могилёвское" esr="156134" importance="4" lat="53.662458" lon="30.259831" popular_title="" region="Могилёвская область" short_title="Барсуки" title="Барсуки" /><station direction="Могилёвское" esr="156401" importance="4" lat="53.868137" lon="30.248441" popular_title="" region="Могилёвская область" short_title="Буйничи" title="Буйничи" /><station city="Осиповичи" direction="Осиповичское" esr="146407" importance="1" lat="53.300989" lon="28.636099" popular_title="" region="Могилёвская область" short_title="Осиповичи-1" title="Осиповичи-1" /><station city="Осиповичи" direction="Осиповичское" esr="146433" importance="2" lat="53.279812" lon="28.715367" popular_title="" region="Могилёвская область" short_title="Осиповичи-3" title="Осиповичи-3" /><station direction="Осиповичское" esr="146109" importance="3" lat="53.336473" lon="28.522759" popular_title="" region="Могилёвская область" short_title="Верейцы" title="Верейцы" /><station direction="Осиповичское" esr="148000" importance="4" lat="52.955069" lon="29.778352" popular_title="" region="Гомельская область" short_title="Красный Берег" title="Красный Берег" /><station direction="Калинковичское" esr="153827" importance="4" lat="52.183055" lon="29.365819" popular_title="" region="Гомельская область" short_title="Дубровичи" title="Дубровичи" /><station direction="Осиповичское" esr="148015" importance="4" lat="52.945894" lon="29.804303" popular_title="" region="Гомельская область" short_title="Казимирово" title="Казимирово" /><station city="Минск" direction="Осиповичское" esr="144809" importance="3" lat="53.807944" lon="27.579056" popular_title="" region="Минская область" short_title="Колядичи" title="Колядичи" /><station city="Рогачев" direction="Могилёвское" esr="155907" importance="2" lat="53.095361" lon="30.057009" popular_title="" region="Гомельская область" short_title="Рогачев" title="Рогачев" /><station city="Могилёв" direction="Могилёвское" esr="156505" importance="3" lat="53.912207" lon="30.306936" popular_title="" region="Могилёвская область" short_title="Могилёв-2" title="Могилёв-2" /><station direction="Осиповичское" esr="147440" importance="4" lat="52.931842" lon="29.089218" popular_title="" region="Могилёвская область" short_title="Орсичи" title="Орсичи" /><station direction="Осиповичское" esr="144813" importance="4" lat="53.785513" lon="27.605800" popular_title="" region="Минская область" short_title="Мачулищи" title="Мачулищи" /><station direction="Осиповичское" esr="145040" importance="4" lat="53.663027" lon="27.759660" popular_title="" region="Минская область" short_title="Зазерка" title="Зазерка" /><station direction="Осиповичское" esr="145021" importance="4" lat="53.655766" lon="27.768764" popular_title="" region="Минская область" short_title="Рыбцы" title="Рыбцы" /><station direction="Осиповичское" esr="145036" importance="4" lat="53.644542" lon="27.783704" popular_title="" region="Минская область" short_title="Равнополье" title="Равнополье" /><station direction="Осиповичское" esr="145318" importance="4" lat="53.575767" lon="27.925854" popular_title="" region="Минская область" short_title="Новое Село" title="Новое Село" /><station direction="Осиповичское" esr="145337" importance="4" lat="53.548381" lon="28.062144" popular_title="" region="Минская область" short_title="Вендеж" title="Вендеж" /><station direction="Осиповичское" esr="145341" importance="4" lat="53.533070" lon="28.120189" popular_title="" region="Минская область" short_title="Техникум" title="Техникум" /><station direction="Осиповичское" esr="145411" importance="4" lat="53.490222" lon="28.157307" popular_title="" region="Минская область" short_title="Веленский" title="Веленский" /><station direction="Осиповичское" esr="145430" importance="4" lat="53.414574" lon="28.258164" popular_title="" region="Минская область" short_title="Майский" title="Майский" /><station direction="Осиповичское" esr="145445" importance="4" lat="53.391708" lon="28.297590" popular_title="" region="Минская область" short_title="Веселовский" title="Веселовский" /><station direction="Осиповичское" esr="146452" importance="4" lat="53.270288" lon="28.762933" popular_title="" region="Могилёвская область" short_title="Бродище" title="Бродище" /><station direction="Осиповичское" esr="147718" importance="4" lat="53.118615" lon="29.308016" popular_title="" region="Могилёвская область" short_title="Бабино" title="Бабино" /><station direction="Осиповичское" esr="147830" importance="4" lat="52.978400" lon="29.724524" popular_title="" region="Могилёвская область" short_title="Данилов Мост" title="Данилов Мост" /><station city="Жлобин" direction="Могилёвское" esr="155023" importance="3" lat="52.894890" lon="30.008894" popular_title="" region="Гомельская область" short_title="Деповской" title="Деповской" /><station direction="Гомельское" esr="155057" importance="4" lat="52.858194" lon="30.159377" popular_title="" region="Гомельская область" short_title="Калыбовка" title="Калыбовка" /><station direction="Гомельское" esr="155131" importance="4" lat="52.787261" lon="30.401995" popular_title="" region="Гомельская область" short_title="Забабье" title="Забабье" /><station direction="Гомельское" esr="155150" importance="4" lat="52.761570" lon="30.459338" popular_title="" region="Гомельская область" short_title="Качаново" title="Качаново" /><station direction="Гомельское" esr="155165" importance="4" lat="52.753500" lon="30.481063" popular_title="" region="Гомельская область" short_title="Потаповка" title="Потаповка" /><station direction="Гомельское" esr="155216" importance="4" lat="52.684205" lon="30.629247" popular_title="" region="Гомельская область" short_title="Бушевка" title="Бушевка" /><station direction="Гомельское" esr="155220" importance="4" lat="52.674349" lon="30.648837" popular_title="" region="Гомельская область" short_title="Череток" title="Череток" /><station direction="Гомельское" esr="155254" importance="4" lat="52.625319" lon="30.752772" popular_title="" region="Гомельская область" short_title="Зелёный остров" title="Зелёный остров" /><station direction="Гомельское" esr="155273" importance="4" lat="52.613088" lon="30.781466" popular_title="" region="Гомельская область" short_title="Тихиничи" title="Тихиничи" /><station direction="Гомельское" esr="155317" importance="4" lat="52.584687" lon="30.841434" popular_title="" region="Гомельская область" short_title="Калининский" title="Калининский" /><station direction="Осиповичское" esr="147614" importance="4" lat="53.072372" lon="29.170669" popular_title="" region="Могилёвская область" short_title="Туголица" title="Туголица" /><station direction="Осиповичское" esr="147510" importance="4" lat="52.986164" lon="29.148439" popular_title="" region="Могилёвская область" short_title="Глебова Рудня" title="Глебова Рудня" /><station direction="Осиповичское" esr="147421" importance="4" lat="52.813639" lon="29.040752" popular_title="" region="Гомельская область" short_title="Черные Броды" title="Черные Броды" /><station direction="Осиповичское" esr="147313" importance="4" lat="52.743733" lon="28.932012" popular_title="" region="Гомельская область" short_title="Оземля" title="Оземля" /><station direction="Осиповичское" esr="147417" importance="4" lat="52.790972" lon="29.009726" popular_title="" region="Гомельская область" short_title="Заозерщина" title="Заозерщина" /><station direction="Осиповичское" esr="147224" importance="4" lat="52.680825" lon="28.888500" popular_title="" region="Гомельская область" short_title="Новая Дуброва" title="Новая Дуброва" /><station direction="Могилёвское" esr="156115" importance="4" lat="53.549440" lon="30.228282" popular_title="" region="Могилёвская область" short_title="Мокрое" title="Мокрое" /><station city="Жлобин" direction="Могилёвское" esr="155822" importance="4" lat="52.908964" lon="30.008159" popular_title="" region="Гомельская область" short_title="Жлобин-Северный" title="Жлобин-Северный" /><station direction="Калинковичское" esr="153812" importance="4" lat="52.142891" lon="29.338142" popular_title="" region="Гомельская область" short_title="Мелькомбинат" title="Мелькомбинат" /><station city="Гомель" direction="Гомельское" esr="150123" importance="4" lat="52.440355" lon="30.964871" popular_title="" region="Гомельская область" short_title="Никольский переезд" title="Никольский переезд" /><station city="Гомель" direction="Гомельское" esr="150119" importance="4" lat="52.433949" lon="30.925308" popular_title="" region="Гомельская область" short_title="Гомель-Чётный" title="Гомель-Чётный" /><station direction="Осиповичское" esr="146011" importance="4" lat="53.365277" lon="28.421096" popular_title="" region="Могилёвская область" short_title="Верхи" title="Верхи" /><station direction="Могилёвское" esr="156030" importance="4" lat="53.304286" lon="30.133254" popular_title="" region="Могилёвская область" short_title="Тощица" title="Тощица" /><station direction="Осиповичское" esr="148027" importance="4" lat="52.918714" lon="29.907788" popular_title="" region="Гомельская область" short_title="Малевичи" title="Малевичи" /><station direction="Осиповичское" esr="147737" importance="4" lat="53.057859" lon="29.446662" popular_title="" region="Могилёвская область" short_title="Малинники" title="Малинники" /><station direction="Осиповичское" esr="145322" importance="4" lat="53.561699" lon="28.004146" popular_title="" region="Минская область" short_title="Дричин" title="Дричин" /><station city="Жлобин" direction="Осиповичское" esr="155038" importance="4" lat="52.894303" lon="29.958085" popular_title="" region="Гомельская область" short_title="Жлобин-Западный" title="Жлобин-Западный" /><station city="Жлобин" direction="Калинковичское" esr="154270" importance="4" lat="52.864737" lon="30.033573" popular_title="" region="Гомельская область" short_title="Жлобин-Подольский" title="Жлобин-Подольский" /><station direction="Осиповичское" esr="147436" importance="4" lat="52.851626" lon="29.051371" popular_title="" region="Гомельская область" short_title="Мошны" title="Мошны" /><station direction="Гомельское" esr="155235" importance="4" lat="52.655638" lon="30.688861" popular_title="" region="Гомельская область" short_title="Радеево" title="Радеево" /><station direction="Гомельское" esr="155146" importance="4" lat="52.776907" lon="30.425032" popular_title="" region="Гомельская область" short_title="Шарыбовка" title="Шарыбовка" /><station direction="Осиповичское" esr="146823" importance="4" lat="53.186745" lon="29.016831" popular_title="" region="Могилёвская область" short_title="Бибковщина" title="Бибковщина" /><station direction="Осиповичское" esr="145426" importance="4" lat="53.437816" lon="28.223464" popular_title="" region="Минская область" short_title="Блужа" title="Блужа" /><station direction="Осиповичское" esr="147328" importance="4" lat="52.708873" lon="28.901480" popular_title="" region="Гомельская область" short_title="Бумажково" title="Бумажково" /><station direction="Гомельское" esr="155240" importance="4" lat="52.636927" lon="30.728884" popular_title="" region="Гомельская область" short_title="Буслы" title="Буслы" /><station direction="Могилёвское" esr="156242" importance="4" lat="53.748147" lon="30.241157" popular_title="" region="Могилёвская область" short_title="Дашковка" title="Дашковка" /><station direction="Калинковичское" esr="153831" importance="4" lat="52.193225" lon="29.371950" popular_title="" region="Гомельская область" short_title="Дудичи" title="Дудичи" /><station direction="Могилёвское" esr="156026" importance="4" lat="53.455178" lon="30.188900" popular_title="" region="Могилёвская область" short_title="Залесская Слобода" title="Залесская Слобода" /><station direction="Калинковичское" esr="154247" importance="4" lat="52.796881" lon="29.923499" popular_title="" region="Гомельская область" short_title="Истопки" title="Истопки" /><station direction="Осиповичское" esr="147811" importance="4" lat="53.027376" lon="29.570129" popular_title="" region="Могилёвская область" short_title="Микуличи" title="Микуличи" /><station direction="Калинковичское" esr="154251" importance="4" lat="52.811972" lon="29.944078" popular_title="" region="Гомельская область" short_title="Нивы" title="Нивы" /><station direction="Калинковичское" esr="154139" importance="4" lat="52.409067" lon="29.503654" popular_title="" region="Гомельская область" short_title="Плудим" title="Плудим" /><station direction="Могилёвское" esr="155837" importance="4" lat="52.957515" lon="30.007033" popular_title="" region="Гомельская область" short_title="Новые Луки" title="Новые Луки" /><station direction="Осиповичское" esr="145017" importance="4" lat="53.675093" lon="27.749012" popular_title="" region="Минская область" short_title="Седча" title="Седча" /><station direction="Калинковичское" esr="154213" importance="4" lat="52.684581" lon="29.753175" popular_title="" region="Гомельская область" short_title="Сельное" title="Сельное" /><station direction="Калинковичское" esr="154266" importance="4" lat="52.854944" lon="30.015449" popular_title="" region="Гомельская область" short_title="Солоноя" title="Солоноя" /><station direction="Осиповичское" esr="146819" importance="4" lat="53.207336" lon="28.956929" popular_title="" region="Могилёвская область" short_title="Токари" title="Токари" /><station direction="Калинковичское" esr="154111" importance="4" lat="52.319098" lon="29.448715" popular_title="" region="Гомельская область" short_title="Уболоть" title="Уболоть" /><station direction="Калинковичское" esr="154158" importance="4" lat="52.524714" lon="29.583481" popular_title="" region="Гомельская область" short_title="Узнаж" title="Узнаж" /><station direction="Могилёвское" esr="155803" importance="4" lat="53.054477" lon="30.013729" popular_title="" region="Гомельская область" short_title="Сверково" title="Сверково" /><station direction="Могилёвское" esr="155911" importance="4" lat="53.196018" lon="30.095152" popular_title="" region="Гомельская область" short_title="Старосельский" title="Старосельский" /><station direction="Могилёвское" esr="156308" importance="4" lat="53.792088" lon="30.214120" popular_title="" region="Могилёвская область" short_title="Черноземовка" title="Черноземовка" /><station city="Руденск" direction="Осиповичское" esr="145303" importance="2" lat="53.596857" lon="27.858941" popular_title="" region="Минская область" short_title="Руденск" title="Руденск" /><station direction="Могилёвское" esr="156011" importance="4" lat="53.404967" lon="30.167752" popular_title="" region="Могилёвская область" short_title="Лудчицы" title="Лудчицы" /><station direction="Осиповичское" esr="146927" importance="4" lat="53.178336" lon="29.062305" popular_title="" region="Могилёвская область" short_title="Мирадино" title="Мирадино" /><station direction="Гомельское" esr="155502" importance="4" lat="52.520113" lon="30.941747" popular_title="" region="Гомельская область" short_title="Костюковка" title="Костюковка" /><station direction="Гомельское" esr="155061" importance="4" lat="52.849282" lon="30.208912" popular_title="" region="Гомельская область" short_title="Хальч" title="Хальч" /><station direction="Осиповичское" esr="146448" importance="3" lat="53.316476" lon="28.582065" popular_title="" region="Могилёвская область" short_title="Советский" title="Советский" /><station direction="Осиповичское" esr="146467" importance="3" lat="53.309370" lon="28.603401" popular_title="" region="Могилёвская область" short_title="Юбилейный" title="Юбилейный" /><station city="Жлобин" direction="Могилёвское" esr="155841" importance="3" lat="52.889441" lon="30.013360" popular_title="" region="Гомельская область" short_title="Жлобин-Сорт." title="Жлобин-Сорт." /><station city="Минск" direction="Осиповичское" esr="140511" importance="4" lat="53.849784" lon="27.555779" popular_title="" region="Минская область" short_title="Лошица" title="Лошица" /><station city="Жлобин" direction="Могилёвское" esr="155856" importance="4" lat="52.903932" lon="30.008676" popular_title="" region="Гомельская область" short_title="Больница" title="Больница" /><station direction="Могилёвское" esr="156238" importance="4" lat="53.616959" lon="30.261560" popular_title="" region="Могилёвская область" short_title="Соболевка" title="Соболевка" /><station direction="Могилёвское" esr="156223" importance="4" lat="53.679479" lon="30.255625" popular_title="" region="Могилёвская область" short_title="Металлург" title="Металлург" /><station direction="Могилёвское" esr="156219" importance="4" lat="53.729659" lon="30.245172" popular_title="" region="Могилёвская область" short_title="Текстильщик" title="Текстильщик" /><station city="Гомель" direction="Гомельское" esr="150049" importance="4" lat="52.432293" lon="30.910838" popular_title="" region="Гомельская область" short_title="Мильча" title="Мильча" /><station direction="Гомельское" esr="155080" importance="4" lat="52.871469" lon="30.125979" popular_title="" region="Гомельская область" short_title="Металлург" title="Металлург" /><station city="Гомель" direction="Гомельское" esr="150034" importance="4" lat="52.442214" lon="30.990418" popular_title="" region="Гомельская область" short_title="Гомель-Нечётный" title="Гомель-Нечётный" /><station direction="Осиповичское" esr="147741" importance="4" lat="53.068064" lon="29.404245" popular_title="" region="Могилёвская область" short_title="331км" title="331км" /><station direction="Осиповичское" esr="146838" importance="4" lat="53.195335" lon="28.980945" popular_title="" region="Могилёвская область" short_title="Кветка" title="Кветка" /><station direction="Осиповичское" esr="146842" importance="4" lat="53.243683" lon="28.891507" popular_title="" region="Могилёвская область" short_title="Гай" title="Гай" /><station city="Бобруйск" direction="Осиповичское" esr="147027" importance="2" lat="53.101644" lon="29.169199" popular_title="" region="Могилёвская область" short_title="Дедново" title="Дедново" /><station direction="Осиповичское" esr="146734" importance="4" lat="53.252217" lon="28.863193" popular_title="" region="Могилёвская область" short_title="Дачная" title="Дачная" /><station city="Минск" direction="Осиповичское" esr="140526" importance="4" lat="53.818515" lon="27.572522" popular_title="" region="Минская область" short_title="Железнодорожный" title="Железнодорожный" /><station direction="Могилёвское" esr="155926" importance="4" lat="53.075949" lon="30.017450" popular_title="" region="Гомельская область" short_title="Задрутье" title="Задрутье" /><station city="Гомель" direction="Гомельское" esr="150138" importance="4" lat="52.436967" lon="30.942784" popular_title="" region="Гомельская область" short_title="Гомель-Северный" title="Гомель-Северный" /><station city="Октябрьский" direction="Осиповичское" esr="147217" importance="1" lat="52.652650" lon="28.879275" popular_title="" region="Гомельская область" short_title="Октябрьский" title="Октябрьский" /><station direction="Осиповичское" esr="144832" importance="4" lat="53.771629" lon="27.642865" popular_title="" region="Минская область" short_title="Асеевка" title="Асеевка" /></suburban_zone>