<?xml version='1.0' encoding='UTF-8'?>
<suburban_zone id="175"><station city="Унеча" direction="Новозыбковское" esr="202008" importance="2" lat="52.842070" lon="32.678494" popular_title="" region="Брянская область" short_title="Унеча" title="Унеча" /><station direction="Новозыбковское" esr="202027" importance="4" lat="52.807053" lon="32.544867" popular_title="" region="Брянская область" short_title="Песчаники" title="Песчаники" /><station direction="Новозыбковское" esr="202046" importance="4" lat="52.768186" lon="32.405344" popular_title="" region="Брянская область" short_title="Робчик" title="Робчик" /><station direction="Новозыбковское" esr="202116" importance="4" lat="52.656462" lon="32.173709" popular_title="" region="Брянская область" short_title="Туросна" title="Туросна" /><station direction="Новозыбковское" esr="202050" importance="4" lat="52.760147" lon="32.343775" popular_title="" region="Брянская область" short_title="164 км" title="164 км" /><station city="Новозыбков" direction="Новозыбковское" esr="202205" importance="2" lat="52.523305" lon="31.947306" popular_title="" region="Брянская область" short_title="Новозыбков" title="Новозыбков" /><station direction="Новозыбковское" esr="202135" importance="4" lat="52.554643" lon="32.091960" popular_title="" region="Брянская область" short_title="Манюки" title="Манюки" /><station direction="Новозыбковское" esr="202212" importance="2" lat="52.494037" lon="31.842165" popular_title="" region="Брянская область" short_title="Перевоз" title="Перевоз" /><station city="Клинцы" direction="Новозыбковское" esr="202101" importance="2" lat="52.734747" lon="32.232443" popular_title="" region="Брянская область" short_title="Клинцы" title="Клинцы" /><station direction="Новозыбковское" esr="202031" importance="4" lat="52.785052" lon="32.489897" popular_title="" region="Брянская область" short_title="153 км" title="153 км" /><station direction="Новозыбковское" esr="202146" importance="4" lat="52.531857" lon="32.016635" popular_title="" region="Брянская область" short_title="202 км" title="202 км" /><station direction="Новозыбковское" esr="202120" importance="4" lat="52.614026" lon="32.135860" popular_title="" region="Брянская область" short_title="187 км" title="187 км" /><station direction="Новозыбковское" esr="202012" importance="4" lat="52.826119" lon="32.605045" popular_title="" region="Брянская область" short_title="143 км" title="143 км" /><station direction="Новозыбковское" esr="202224" importance="4" lat="52.481121" lon="31.778753" popular_title="" region="Брянская область" short_title="221 км" title="221 км" /><station city="Буда-Кошелево" direction="Жлобинское" esr="155201" importance="2" lat="52.714821" lon="30.568582" popular_title="" region="Гомельская область" short_title="Буда-Кошелевская" title="Буда-Кошелевская" /><station city="Бобруйск" direction="Жлобинское" esr="147703" importance="4" lat="53.129775" lon="29.237081" popular_title="" region="Могилёвская область" short_title="Березина" title="Березина" /><station city="Бобруйск" direction="Жлобинское" esr="146912" importance="4" lat="53.157861" lon="29.143245" popular_title="" region="Могилёвская область" short_title="Киселевичи" title="Киселевичи" /><station city="Быхов" direction="Жлобинское" esr="156100" importance="2" lat="53.514530" lon="30.233969" popular_title="" region="Могилёвская область" short_title="Быхов" title="Быхов" /><station direction="Калинковичское" esr="153600" importance="4" lat="52.203758" lon="28.574610" popular_title="" region="Гомельская область" short_title="Муляровка" title="Муляровка" /><station city="Жлобин" direction="Калинковичское" esr="155004" importance="1" lat="52.889081" lon="30.036709" popular_title="" region="Гомельская область" short_title="Жлобин-Пасс." title="Жлобин-Пасс." /><station direction="Калинковичское" esr="153329" importance="4" lat="52.250619" lon="28.142260" popular_title="" region="Гомельская область" short_title="Старушки" title="Старушки" /><station city="Калинковичи" direction="Калинковичское" esr="153808" importance="1" lat="52.139078" lon="29.315864" popular_title="" region="Гомельская область" short_title="Калинковичи" title="Калинковичи" /><station direction="Жлобинское" esr="146715" importance="4" lat="53.255372" lon="28.833342" popular_title="" region="Могилёвская область" short_title="Татарка" title="Татарка" /><station direction="Жлобинское" esr="146857" importance="4" lat="53.218211" lon="28.936559" popular_title="" region="Могилёвская область" short_title="Ясень" title="Ясень" /><station city="Гомель" direction="Калинковичское" esr="150000" importance="1" lat="52.429240" lon="30.995165" popular_title="" region="Гомельская область" short_title="Гомель-Пасс." title="Гомель-Пасс." /><station city="Бобруйск" direction="Жлобинское" esr="147008" importance="1" lat="53.140687" lon="29.187449" popular_title="" region="Могилёвская область" short_title="Бобруйск" title="Бобруйск" /><station direction="Жлобинское" esr="147722" importance="4" lat="53.085350" lon="29.371397" popular_title="" region="Могилёвская область" short_title="Савичи" title="Савичи" /><station direction="Жлобинское" esr="147807" importance="4" lat="53.044945" lon="29.510510" popular_title="" region="Могилёвская область" short_title="Телуша" title="Телуша" /><station direction="Жлобинское" esr="147826" importance="4" lat="53.010362" lon="29.654902" popular_title="" region="Могилёвская область" short_title="Омельня" title="Омельня" /><station direction="Жлобинское" esr="147602" importance="4" lat="53.031290" lon="29.165133" popular_title="" region="Могилёвская область" short_title="Красный Брод" title="Красный Брод" /><station direction="Жлобинское" esr="147506" importance="4" lat="52.953160" lon="29.115952" popular_title="" region="Могилёвская область" short_title="Брожа" title="Брожа" /><station direction="Жлобинское" esr="147402" importance="4" lat="52.773101" lon="28.962050" popular_title="" region="Гомельская область" short_title="Ратмировичи" title="Ратмировичи" /><station direction="Жлобинское" esr="147205" importance="4" lat="52.616804" lon="28.851255" popular_title="" region="Гомельская область" short_title="Рабкор" title="Рабкор" /><station city="Ельск" direction="Калинковичское" esr="151304" importance="2" lat="51.820144" lon="29.151785" popular_title="" region="Гомельская область" short_title="Ельск" title="Ельск" /><station city="Могилёв" direction="Жлобинское" esr="156609" importance="1" lat="53.926302" lon="30.337927" popular_title="" region="Могилёвская область" short_title="Могилёв-1" title="Могилёв-1" /><station direction="Калинковичское" esr="153761" importance="4" lat="52.185689" lon="28.831124" popular_title="" region="Гомельская область" short_title="Птичь" title="Птичь" /><station city="Добруш" direction="Новозыбковское" esr="150509" importance="1" lat="52.399723" lon="31.322917" popular_title="" region="Гомельская область" short_title="Добруш" title="Добруш" /><station direction="Калинковичское" esr="153507" importance="4" lat="52.223656" lon="28.322147" popular_title="" region="Гомельская область" short_title="Копцевичи" title="Копцевичи" /><station city="Речица" direction="Калинковичское" esr="154800" importance="2" lat="52.348633" lon="30.392117" popular_title="" region="Гомельская область" short_title="Речица" title="Речица" /><station direction="Калинковичское" esr="153719" importance="4" lat="52.174827" lon="28.947617" popular_title="" region="Гомельская область" short_title="Мышанка" title="Мышанка" /><station direction="Калинковичское" esr="153723" importance="4" lat="52.172205" lon="28.964288" popular_title="" region="Гомельская область" short_title="Кацуры" title="Кацуры" /><station direction="Калинковичское" esr="153850" importance="4" lat="52.161862" lon="29.497767" popular_title="" region="Гомельская область" short_title="Голевицы" title="Голевицы" /><station direction="Калинковичское" esr="153884" importance="4" lat="52.222519" lon="29.674623" popular_title="" region="Гомельская область" short_title="Нахов" title="Нахов" /><station city="Хойники" direction="Калинковичское" esr="154507" importance="2" lat="51.917106" lon="30.007913" popular_title="" region="Гомельская область" short_title="Хойники" title="Хойники" /><station direction="Калинковичское" esr="154425" importance="4" lat="52.282629" lon="29.989260" popular_title="" region="Гомельская область" short_title="Бабичи" title="Бабичи" /><station direction="Калинковичское" esr="154459" importance="4" lat="52.335755" lon="30.203049" popular_title="" region="Гомельская область" short_title="Демехи" title="Демехи" /><station direction="Калинковичское" esr="154815" importance="4" lat="52.356741" lon="30.441461" popular_title="" region="Гомельская область" short_title="Сенозавод" title="Сенозавод" /><station city="Гомель" direction="Гомельский узел" esr="150208" importance="3" lat="52.406102" lon="31.017563" popular_title="" region="Гомельская область" short_title="Новобелицкая" title="Новобелицкая" /><station direction="Гомельский узел" esr="150246" importance="3" lat="52.383248" lon="31.061772" popular_title="" region="Гомельская область" short_title="Лисички" title="Лисички" /><station direction="Тереховское" esr="150250" importance="4" lat="52.350658" lon="31.122636" popular_title="" region="Гомельская область" short_title="Кореневка" title="Кореневка" /><station direction="Тереховское" esr="150674" importance="4" lat="52.310846" lon="31.204643" popular_title="" region="Гомельская область" short_title="Зябровка" title="Зябровка" /><station direction="Тереховское" esr="150636" importance="4" lat="52.278629" lon="31.293137" popular_title="" region="Гомельская область" short_title="Борок" title="Борок" /><station direction="Тереховское" esr="150706" importance="3" lat="52.211821" lon="31.416888" popular_title="" region="Гомельская область" short_title="Тереховка" title="Тереховка" /><station direction="Тереховское" esr="150903" importance="4" lat="52.174888" lon="31.691409" popular_title="" region="Гомельская область" short_title="Круговец" title="Круговец" /><station direction="Новозыбковское" esr="150227" importance="4" lat="52.388452" lon="31.164180" popular_title="" region="Гомельская область" short_title="Ларищево" title="Ларищево" /><station direction="Новозыбковское" esr="150513" importance="4" lat="52.433701" lon="31.484375" popular_title="" region="Гомельская область" short_title="Закопытье" title="Закопытье" /><station city="Светлогорск" direction="Калинковичское" esr="154209" importance="2" lat="52.630323" lon="29.712326" popular_title="" region="Гомельская область" short_title="Светлогорск-на-Березине" title="Светлогорск-на-Березине" /><station direction="Жлобинское" esr="155409" importance="4" lat="52.570560" lon="30.874414" popular_title="" region="Гомельская область" short_title="Лазурная" title="Лазурная" /><station direction="Жлобинское" esr="155076" importance="4" lat="52.841434" lon="30.273023" popular_title="" region="Гомельская область" short_title="Старая Рудня" title="Старая Рудня" /><station direction="Жлобинское" esr="155305" importance="4" lat="52.599606" lon="30.811190" popular_title="" region="Гомельская область" short_title="Уза" title="Уза" /><station direction="Жлобинское" esr="155112" importance="4" lat="52.812371" lon="30.343034" popular_title="" region="Гомельская область" short_title="Салтановка" title="Салтановка" /><station direction="Жлобинское" esr="155042" importance="4" lat="52.882248" lon="30.087149" popular_title="" region="Гомельская область" short_title="Вирский" title="Вирский" /><station direction="Калинковичское" esr="154232" importance="4" lat="52.777592" lon="29.896369" popular_title="" region="Гомельская область" short_title="Мормаль" title="Мормаль" /><station direction="Калинковичское" esr="154228" importance="4" lat="52.722671" lon="29.818495" popular_title="" region="Гомельская область" short_title="Ящицы" title="Ящицы" /><station direction="Калинковичское" esr="154162" importance="4" lat="52.550136" lon="29.633687" popular_title="" region="Гомельская область" short_title="Жердь" title="Жердь" /><station direction="Калинковичское" esr="154143" importance="4" lat="52.472549" lon="29.545167" popular_title="" region="Гомельская область" short_title="Останковичи" title="Останковичи" /><station direction="Калинковичское" esr="154124" importance="4" lat="52.362181" lon="29.473123" popular_title="" region="Гомельская область" short_title="Холодники" title="Холодники" /><station city="Житковичи" direction="Калинковичское" esr="153301" importance="2" lat="52.219093" lon="27.853334" popular_title="" region="Гомельская область" short_title="Житковичи" title="Житковичи" /><station direction="Гомельский узел" esr="150024" importance="3" lat="52.482833" lon="30.974406" popular_title="" region="Гомельская область" short_title="Светоч" title="Светоч" /><station direction="Жлобинское" esr="155818" importance="4" lat="52.989207" lon="30.009677" popular_title="" region="Гомельская область" short_title="Лукское" title="Лукское" /><station city="Василевичи" direction="Калинковичское" esr="154406" importance="2" lat="52.254496" lon="29.831377" popular_title="" region="Гомельская область" short_title="Василевичи" title="Василевичи" /><station direction="Жлобинское" esr="150015" importance="4" lat="52.509959" lon="30.953442" popular_title="" region="Гомельская область" short_title="Еремино" title="Еремино" /><station direction="Калинковичское" esr="151802" importance="4" lat="52.086129" lon="29.233066" popular_title="" region="Гомельская область" short_title="Пхов" title="Пхов" /><station direction="Калинковичское" esr="154105" importance="4" lat="52.273367" lon="29.422008" popular_title="" region="Гомельская область" short_title="Горочичи" title="Горочичи" /><station direction="Калинковичское" esr="154016" importance="4" lat="52.210375" lon="29.381629" popular_title="" region="Гомельская область" short_title="Юшки" title="Юшки" /><station city="Мозырь" direction="Калинковичское" esr="151709" importance="2" lat="52.078368" lon="29.202320" popular_title="" region="Гомельская область" short_title="Мозырь" title="Мозырь" /><station direction="Калинковичское" esr="151605" importance="4" lat="52.038450" lon="29.176014" popular_title="" region="Гомельская область" short_title="Козенки" title="Козенки" /><station direction="Калинковичское" esr="151338" importance="4" lat="51.948479" lon="29.204050" popular_title="" region="Гомельская область" short_title="Михалки" title="Михалки" /><station direction="Калинковичское" esr="151319" importance="4" lat="51.887542" lon="29.182176" popular_title="" region="Гомельская область" short_title="Мытва" title="Мытва" /><station direction="Калинковичское" esr="151234" importance="4" lat="51.721311" lon="29.109929" popular_title="" region="Гомельская область" short_title="Богутичи" title="Богутичи" /><station direction="Калинковичское" esr="151130" importance="4" lat="51.625413" lon="29.064802" popular_title="" region="Гомельская область" short_title="Словечно" title="Словечно" /><station direction="Жлобинское" esr="156127" importance="4" lat="53.593375" lon="30.242689" popular_title="" region="Могилёвская область" short_title="Баркалабово" title="Баркалабово" /><station direction="Жлобинское" esr="156134" importance="4" lat="53.662458" lon="30.259831" popular_title="" region="Могилёвская область" short_title="Барсуки" title="Барсуки" /><station direction="Жлобинское" esr="156401" importance="4" lat="53.868137" lon="30.248441" popular_title="" region="Могилёвская область" short_title="Буйничи" title="Буйничи" /><station city="Осиповичи" direction="Жлобинское" esr="146407" importance="1" lat="53.300989" lon="28.636099" popular_title="" region="Могилёвская область" short_title="Осиповичи-1" title="Осиповичи-1" /><station city="Осиповичи" direction="Жлобинское" esr="146433" importance="2" lat="53.279812" lon="28.715367" popular_title="" region="Могилёвская область" short_title="Осиповичи-3" title="Осиповичи-3" /><station direction="Калинковичское" esr="154410" importance="4" lat="52.249314" lon="29.918021" popular_title="" region="Гомельская область" short_title="Ведрич" title="Ведрич" /><station direction="Жлобинское" esr="148000" importance="4" lat="52.955069" lon="29.778352" popular_title="" region="Гомельская область" short_title="Красный Берег" title="Красный Берег" /><station direction="Калинковичское" esr="153827" importance="4" lat="52.183055" lon="29.365819" popular_title="" region="Гомельская область" short_title="Дубровичи" title="Дубровичи" /><station direction="Жлобинское" esr="148015" importance="4" lat="52.945894" lon="29.804303" popular_title="" region="Гомельская область" short_title="Казимирово" title="Казимирово" /><station direction="Калинковичское" esr="154444" importance="4" lat="52.255503" lon="29.774264" popular_title="" region="Гомельская область" short_title="Кастрычник" title="Кастрычник" /><station direction="Калинковичское" esr="153615" importance="4" lat="52.203707" lon="28.598494" popular_title="" region="Гомельская область" short_title="Коржевка" title="Коржевка" /><station direction="Калинковичское" esr="154430" importance="3" lat="52.326763" lon="30.100668" popular_title="" region="Гомельская область" short_title="Лиски" title="Лиски" /><station city="Рогачев" direction="Жлобинское" esr="155907" importance="2" lat="53.095361" lon="30.057009" popular_title="" region="Гомельская область" short_title="Рогачев" title="Рогачев" /><station direction="Калинковичское" esr="153873" importance="4" lat="52.200973" lon="29.624460" popular_title="" region="Гомельская область" short_title="Лозки" title="Лозки" /><station city="Могилёв" direction="Жлобинское" esr="156505" importance="3" lat="53.912207" lon="30.306936" popular_title="" region="Могилёвская область" short_title="Могилёв-2" title="Могилёв-2" /><station direction="Жлобинское" esr="147440" importance="4" lat="52.931842" lon="29.089218" popular_title="" region="Могилёвская область" short_title="Орсичи" title="Орсичи" /><station direction="Жлобинское" esr="146452" importance="4" lat="53.270288" lon="28.762933" popular_title="" region="Могилёвская область" short_title="Бродище" title="Бродище" /><station direction="Жлобинское" esr="147718" importance="4" lat="53.118615" lon="29.308016" popular_title="" region="Могилёвская область" short_title="Бабино" title="Бабино" /><station direction="Жлобинское" esr="147830" importance="4" lat="52.978400" lon="29.724524" popular_title="" region="Могилёвская область" short_title="Данилов Мост" title="Данилов Мост" /><station city="Жлобин" direction="Жлобинское" esr="155023" importance="3" lat="52.894890" lon="30.008894" popular_title="" region="Гомельская область" short_title="Деповской" title="Деповской" /><station direction="Жлобинское" esr="155057" importance="4" lat="52.858194" lon="30.159377" popular_title="" region="Гомельская область" short_title="Калыбовка" title="Калыбовка" /><station direction="Жлобинское" esr="155131" importance="4" lat="52.787261" lon="30.401995" popular_title="" region="Гомельская область" short_title="Забабье" title="Забабье" /><station direction="Жлобинское" esr="155150" importance="4" lat="52.761570" lon="30.459338" popular_title="" region="Гомельская область" short_title="Качаново" title="Качаново" /><station direction="Жлобинское" esr="155165" importance="4" lat="52.753500" lon="30.481063" popular_title="" region="Гомельская область" short_title="Потаповка" title="Потаповка" /><station direction="Жлобинское" esr="155216" importance="4" lat="52.684205" lon="30.629247" popular_title="" region="Гомельская область" short_title="Бушевка" title="Бушевка" /><station direction="Жлобинское" esr="155220" importance="4" lat="52.674349" lon="30.648837" popular_title="" region="Гомельская область" short_title="Череток" title="Череток" /><station direction="Жлобинское" esr="155254" importance="4" lat="52.625319" lon="30.752772" popular_title="" region="Гомельская область" short_title="Зелёный остров" title="Зелёный остров" /><station direction="Жлобинское" esr="155273" importance="4" lat="52.613088" lon="30.781466" popular_title="" region="Гомельская область" short_title="Тихиничи" title="Тихиничи" /><station direction="Жлобинское" esr="155317" importance="4" lat="52.584687" lon="30.841434" popular_title="" region="Гомельская область" short_title="Калининский" title="Калининский" /><station direction="Тереховское" esr="150277" importance="4" lat="52.323381" lon="31.173187" popular_title="" region="Гомельская область" short_title="Соколка" title="Соколка" /><station direction="Тереховское" esr="150617" importance="4" lat="52.282330" lon="31.278895" popular_title="" region="Гомельская область" short_title="Носовичи" title="Носовичи" /><station direction="Тереховское" esr="150640" importance="4" lat="52.274284" lon="31.313423" popular_title="" region="Гомельская область" short_title="Иваки" title="Иваки" /><station direction="Жлобинское" esr="147614" importance="4" lat="53.072372" lon="29.170669" popular_title="" region="Могилёвская область" short_title="Туголица" title="Туголица" /><station direction="Жлобинское" esr="147510" importance="4" lat="52.986164" lon="29.148439" popular_title="" region="Могилёвская область" short_title="Глебова Рудня" title="Глебова Рудня" /><station direction="Жлобинское" esr="147421" importance="4" lat="52.813639" lon="29.040752" popular_title="" region="Гомельская область" short_title="Черные Броды" title="Черные Броды" /><station direction="Жлобинское" esr="147313" importance="4" lat="52.743733" lon="28.932012" popular_title="" region="Гомельская область" short_title="Оземля" title="Оземля" /><station direction="Жлобинское" esr="147417" importance="4" lat="52.790972" lon="29.009726" popular_title="" region="Гомельская область" short_title="Заозерщина" title="Заозерщина" /><station direction="Жлобинское" esr="147224" importance="4" lat="52.680825" lon="28.888500" popular_title="" region="Гомельская область" short_title="Новая Дуброва" title="Новая Дуброва" /><station direction="Жлобинское" esr="156115" importance="4" lat="53.549440" lon="30.228282" popular_title="" region="Могилёвская область" short_title="Мокрое" title="Мокрое" /><station city="Жлобин" direction="Жлобинское" esr="155822" importance="4" lat="52.908964" lon="30.008159" popular_title="" region="Гомельская область" short_title="Жлобин-Северный" title="Жлобин-Северный" /><station direction="Калинковичское" esr="153812" importance="4" lat="52.142891" lon="29.338142" popular_title="" region="Гомельская область" short_title="Мелькомбинат" title="Мелькомбинат" /><station direction="Новозыбковское" esr="150231" importance="4" lat="52.387802" lon="31.234253" popular_title="" region="Гомельская область" short_title="Дударево" title="Дударево" /><station direction="Тереховское" esr="150725" importance="4" lat="52.177921" lon="31.478827" popular_title="" region="Гомельская область" short_title="Красная Буда" title="Красная Буда" /><station direction="Тереховское" esr="150739" importance="4" lat="52.170618" lon="31.539955" popular_title="" region="Гомельская область" short_title="Машок" title="Машок" /><station direction="Тереховское" esr="150744" importance="4" lat="52.166326" lon="31.584487" popular_title="" region="Гомельская область" short_title="Лукьяновка" title="Лукьяновка" /><station direction="Тереховское" esr="150759" importance="4" lat="52.174012" lon="31.648875" popular_title="" region="Гомельская область" short_title="Ленинодар" title="Ленинодар" /><station city="Гомель" direction="Калинковичское" esr="150123" importance="4" lat="52.440355" lon="30.964871" popular_title="" region="Гомельская область" short_title="Никольский переезд" title="Никольский переезд" /><station city="Гомель" direction="Калинковичское" esr="150119" importance="4" lat="52.433949" lon="30.925308" popular_title="" region="Гомельская область" short_title="Гомель-Чётный" title="Гомель-Чётный" /><station direction="Калинковичское" esr="154919" importance="4" lat="52.413335" lon="30.825984" popular_title="" region="Гомельская область" short_title="Рандовский" title="Рандовский" /><station direction="Калинковичское" esr="153757" importance="4" lat="52.135178" lon="29.202046" popular_title="" region="Гомельская область" short_title="Руднянский" title="Руднянский" /><station direction="Калинковичское" esr="153511" importance="4" lat="52.210851" lon="28.379566" popular_title="" region="Гомельская область" short_title="Оголичи" title="Оголичи" /><station direction="Гомельский узел" esr="155733" importance="4" lat="52.461972" lon="31.066121" popular_title="" region="Гомельская область" short_title="Плесы" title="Плесы" /><station direction="Гомельский узел" esr="155748" importance="4" lat="52.446595" lon="31.082845" popular_title="" region="Гомельская область" short_title="Кленки" title="Кленки" /><station direction="Гомельский узел" esr="155767" importance="4" lat="52.408688" lon="31.090718" popular_title="" region="Гомельская область" short_title="Романовичи" title="Романовичи" /><station direction="Гомельский узел" esr="155771" importance="4" lat="52.394747" lon="31.039096" popular_title="" region="Гомельская область" short_title="Ипуть" title="Ипуть" /><station direction="Калинковичское" esr="154548" importance="4" lat="52.148175" lon="29.894551" popular_title="" region="Гомельская область" short_title="Макановичи" title="Макановичи" /><station direction="Калинковичское" esr="154533" importance="4" lat="52.112999" lon="29.981087" popular_title="" region="Гомельская область" short_title="Избынь" title="Избынь" /><station direction="Калинковичское" esr="154514" importance="4" lat="52.025260" lon="30.004867" popular_title="" region="Гомельская область" short_title="Осов" title="Осов" /><station direction="Тереховское" esr="150655" importance="4" lat="52.240150" lon="31.382597" popular_title="" region="Гомельская область" short_title="Прудовка" title="Прудовка" /><station direction="Тереховское" esr="150710" importance="4" lat="52.196083" lon="31.436473" popular_title="" region="Гомельская область" short_title="Грушевка" title="Грушевка" /><station direction="Гомельский узел" esr="155714" importance="4" lat="52.480520" lon="31.024317" popular_title="" region="Гомельская область" short_title="Сож" title="Сож" /><station direction="Жлобинское" esr="156030" importance="4" lat="53.304286" lon="30.133254" popular_title="" region="Могилёвская область" short_title="Тощица" title="Тощица" /><station direction="Жлобинское" esr="148027" importance="4" lat="52.918714" lon="29.907788" popular_title="" region="Гомельская область" short_title="Малевичи" title="Малевичи" /><station direction="Калинковичское" esr="154552" importance="4" lat="52.175609" lon="29.878884" popular_title="" region="Гомельская область" short_title="Защобье" title="Защобье" /><station direction="Жлобинское" esr="147737" importance="4" lat="53.057859" lon="29.446662" popular_title="" region="Могилёвская область" short_title="Малинники" title="Малинники" /><station city="Жлобин" direction="Жлобинское" esr="155038" importance="4" lat="52.894303" lon="29.958085" popular_title="" region="Гомельская область" short_title="Жлобин-Западный" title="Жлобин-Западный" /><station city="Жлобин" direction="Калинковичское" esr="154270" importance="4" lat="52.864737" lon="30.033573" popular_title="" region="Гомельская область" short_title="Жлобин-Подольский" title="Жлобин-Подольский" /><station direction="Жлобинское" esr="147436" importance="4" lat="52.851626" lon="29.051371" popular_title="" region="Гомельская область" short_title="Мошны" title="Мошны" /><station direction="Калинковичское" esr="153742" importance="4" lat="52.142915" lon="29.152972" popular_title="" region="Гомельская область" short_title="Клинск" title="Клинск" /><station direction="Калинковичское" esr="154834" importance="4" lat="52.365861" lon="30.588305" popular_title="" region="Гомельская область" short_title="Якимовка" title="Якимовка" /><station direction="Калинковичское" esr="154872" importance="4" lat="52.398149" lon="30.756923" popular_title="" region="Гомельская область" short_title="Прибор" title="Прибор" /><station direction="Калинковичское" esr="154904" importance="4" lat="52.421240" lon="30.861630" popular_title="" region="Гомельская область" short_title="Центролит" title="Центролит" /><station direction="Гомельский узел" esr="150212" importance="3" lat="52.391659" lon="31.101429" popular_title="" region="Гомельская область" short_title="Берёзки" title="Берёзки" /><station direction="Жлобинское" esr="155235" importance="4" lat="52.655638" lon="30.688861" popular_title="" region="Гомельская область" short_title="Радеево" title="Радеево" /><station direction="Жлобинское" esr="155146" importance="4" lat="52.776907" lon="30.425032" popular_title="" region="Гомельская область" short_title="Шарыбовка" title="Шарыбовка" /><station direction="Жлобинское" esr="146823" importance="4" lat="53.186745" lon="29.016831" popular_title="" region="Могилёвская область" short_title="Бибковщина" title="Бибковщина" /><station direction="Жлобинское" esr="147328" importance="4" lat="52.708873" lon="28.901480" popular_title="" region="Гомельская область" short_title="Бумажково" title="Бумажково" /><station direction="Жлобинское" esr="155240" importance="4" lat="52.636927" lon="30.728884" popular_title="" region="Гомельская область" short_title="Буслы" title="Буслы" /><station direction="Жлобинское" esr="156242" importance="4" lat="53.748147" lon="30.241157" popular_title="" region="Могилёвская область" short_title="Дашковка" title="Дашковка" /><station direction="Калинковичское" esr="154529" importance="4" lat="52.049779" lon="29.995038" popular_title="" region="Гомельская область" short_title="Авраамовская" title="Авраамовская" /><station direction="Калинковичское" esr="153831" importance="4" lat="52.193225" lon="29.371950" popular_title="" region="Гомельская область" short_title="Дудичи" title="Дудичи" /><station direction="Жлобинское" esr="156026" importance="4" lat="53.455178" lon="30.188900" popular_title="" region="Могилёвская область" short_title="Залесская Слобода" title="Залесская Слобода" /><station direction="Калинковичское" esr="154247" importance="4" lat="52.796881" lon="29.923499" popular_title="" region="Гомельская область" short_title="Истопки" title="Истопки" /><station direction="Калинковичское" esr="154826" importance="4" lat="52.374599" lon="30.527067" popular_title="" region="Гомельская область" short_title="Копань" title="Копань" /><station direction="Жлобинское" esr="147811" importance="4" lat="53.027376" lon="29.570129" popular_title="" region="Могилёвская область" short_title="Микуличи" title="Микуличи" /><station direction="Калинковичское" esr="154251" importance="4" lat="52.811972" lon="29.944078" popular_title="" region="Гомельская область" short_title="Нивы" title="Нивы" /><station direction="Калинковичское" esr="154139" importance="4" lat="52.409067" lon="29.503654" popular_title="" region="Гомельская область" short_title="Плудим" title="Плудим" /><station direction="Жлобинское" esr="155837" importance="4" lat="52.957515" lon="30.007033" popular_title="" region="Гомельская область" short_title="Новые Луки" title="Новые Луки" /><station direction="Калинковичское" esr="153738" importance="4" lat="52.158542" lon="29.097079" popular_title="" region="Гомельская область" short_title="Садки" title="Садки" /><station direction="Калинковичское" esr="154213" importance="4" lat="52.684581" lon="29.753175" popular_title="" region="Гомельская область" short_title="Сельное" title="Сельное" /><station direction="Калинковичское" esr="154266" importance="4" lat="52.854944" lon="30.015449" popular_title="" region="Гомельская область" short_title="Солоноя" title="Солоноя" /><station direction="Жлобинское" esr="146819" importance="4" lat="53.207336" lon="28.956929" popular_title="" region="Могилёвская область" short_title="Токари" title="Токари" /><station direction="Калинковичское" esr="154111" importance="4" lat="52.319098" lon="29.448715" popular_title="" region="Гомельская область" short_title="Уболоть" title="Уболоть" /><station direction="Калинковичское" esr="154158" importance="4" lat="52.524714" lon="29.583481" popular_title="" region="Гомельская область" short_title="Узнаж" title="Узнаж" /><station direction="Калинковичское" esr="154849" importance="4" lat="52.373202" lon="30.628084" popular_title="" region="Гомельская область" short_title="Чижовка" title="Чижовка" /><station direction="Калинковичское" esr="154868" importance="4" lat="52.386412" lon="30.697224" popular_title="" region="Гомельская область" short_title="Щербовка" title="Щербовка" /><station direction="Калинковичское" esr="153526" importance="4" lat="52.200936" lon="28.458592" popular_title="" region="Гомельская область" short_title="Бобрич" title="Бобрич" /><station direction="Калинковичское" esr="154711" importance="4" lat="52.343080" lon="30.317250" popular_title="" region="Гомельская область" short_title="Ребуса" title="Ребуса" /><station direction="Жлобинское" esr="155803" importance="4" lat="53.054477" lon="30.013729" popular_title="" region="Гомельская область" short_title="Сверково" title="Сверково" /><station direction="Жлобинское" esr="155911" importance="4" lat="53.196018" lon="30.095152" popular_title="" region="Гомельская область" short_title="Старосельский" title="Старосельский" /><station direction="Жлобинское" esr="156308" importance="4" lat="53.792088" lon="30.214120" popular_title="" region="Могилёвская область" short_title="Черноземовка" title="Черноземовка" /><station direction="Жлобинское" esr="156011" importance="4" lat="53.404967" lon="30.167752" popular_title="" region="Могилёвская область" short_title="Лудчицы" title="Лудчицы" /><station direction="Жлобинское" esr="146927" importance="4" lat="53.178336" lon="29.062305" popular_title="" region="Могилёвская область" short_title="Мирадино" title="Мирадино" /><station direction="Жлобинское" esr="155502" importance="4" lat="52.520113" lon="30.941747" popular_title="" region="Гомельская область" short_title="Костюковка" title="Костюковка" /><station direction="Жлобинское" esr="155061" importance="4" lat="52.849282" lon="30.208912" popular_title="" region="Гомельская область" short_title="Хальч" title="Хальч" /><station direction="Черниговское" esr="150265" importance="4" lat="52.303858" lon="31.077334" popular_title="" region="Гомельская область" short_title="Уть" title="Уть" /><station city="Жлобин" direction="Жлобинское" esr="155841" importance="3" lat="52.889441" lon="30.013360" popular_title="" region="Гомельская область" short_title="Жлобин-Сорт." title="Жлобин-Сорт." /><station direction="Калинковичское" esr="151220" importance="4" lat="51.657993" lon="29.081411" popular_title="" region="Гомельская область" short_title="Новая Рудня" title="Новая Рудня" /><station direction="Калинковичское" esr="151215" importance="4" lat="51.684376" lon="29.093729" popular_title="" region="Гомельская область" short_title="Забозье" title="Забозье" /><station direction="Калинковичское" esr="151342" importance="4" lat="51.921502" lon="29.195873" popular_title="" region="Гомельская область" short_title="Сосновый Бор" title="Сосновый Бор" /><station city="Калинковичи" direction="Калинковичское" esr="153916" importance="4" lat="52.129256" lon="29.277236" popular_title="" region="Гомельская область" short_title="Калинковичи-Южные" title="Калинковичи-Южные" /><station city="Жлобин" direction="Жлобинское" esr="155856" importance="4" lat="52.903932" lon="30.008676" popular_title="" region="Гомельская область" short_title="Больница" title="Больница" /><station direction="Жлобинское" esr="156238" importance="4" lat="53.616959" lon="30.261560" popular_title="" region="Могилёвская область" short_title="Соболевка" title="Соболевка" /><station direction="Жлобинское" esr="156223" importance="4" lat="53.679479" lon="30.255625" popular_title="" region="Могилёвская область" short_title="Металлург" title="Металлург" /><station direction="Жлобинское" esr="156219" importance="4" lat="53.729659" lon="30.245172" popular_title="" region="Могилёвская область" short_title="Текстильщик" title="Текстильщик" /><station city="Гомель" direction="Калинковичское" esr="150049" importance="4" lat="52.432293" lon="30.910838" popular_title="" region="Гомельская область" short_title="Мильча" title="Мильча" /><station direction="Калинковичское" esr="154478" importance="4" lat="52.329853" lon="30.162734" popular_title="" region="Гомельская область" short_title="Ритм" title="Ритм" /><station direction="Калинковичское" esr="154463" importance="4" lat="52.331042" lon="30.122689" popular_title="" region="Гомельская область" short_title="Геолог" title="Геолог" /><station city="Калинковичи" direction="Калинковичское" esr="153846" importance="4" lat="52.139439" lon="29.343837" popular_title="" region="Гомельская область" short_title="Калинковичи-Восточные" title="Калинковичи-Восточные" /><station city="Калинковичи" direction="Калинковичское" esr="153899" importance="4" lat="52.137957" lon="29.294735" popular_title="" region="Гомельская область" short_title="Калинковичи-Западные" title="Калинковичи-Западные" /><station direction="Калинковичское" esr="153776" importance="4" lat="52.186164" lon="28.744060" popular_title="" region="Гомельская область" short_title="Борречье" title="Борречье" /><station direction="Гомельский узел" esr="150547" importance="4" lat="52.471192" lon="31.044468" popular_title="" region="Гомельская область" short_title="Волотова" title="Волотова" /><station direction="Гомельский узел" esr="150551" importance="4" lat="52.424272" lon="31.091650" popular_title="" region="Гомельская область" short_title="Будотень" title="Будотень" /><station direction="Жлобинское" esr="155080" importance="4" lat="52.871469" lon="30.125979" popular_title="" region="Гомельская область" short_title="Металлург" title="Металлург" /><station city="Гомель" direction="Калинковичское" esr="150034" importance="4" lat="52.442214" lon="30.990418" popular_title="" region="Гомельская область" short_title="Гомель-Нечётный" title="Гомель-Нечётный" /><station direction="Жлобинское" esr="147741" importance="4" lat="53.068064" lon="29.404245" popular_title="" region="Могилёвская область" short_title="331км" title="331км" /><station direction="Жлобинское" esr="146838" importance="4" lat="53.195335" lon="28.980945" popular_title="" region="Могилёвская область" short_title="Кветка" title="Кветка" /><station direction="Черниговское" esr="150299" importance="4" lat="52.259152" lon="31.086345" popular_title="" region="Гомельская область" short_title="15км" title="15км" /><station direction="Черниговское" esr="150662" importance="4" lat="52.205235" lon="31.103187" popular_title="" region="Гомельская область" short_title="Журавинка" title="Журавинка" /><station direction="Черниговское" esr="150621" importance="4" lat="52.166736" lon="31.115178" popular_title="" region="Гомельская область" short_title="Радуга" title="Радуга" /><station direction="Черниговское" esr="150343" importance="4" lat="52.344103" lon="31.072947" popular_title="" region="Гомельская область" short_title="Дачный" title="Дачный" /><station direction="Жлобинское" esr="146842" importance="4" lat="53.243683" lon="28.891507" popular_title="" region="Могилёвская область" short_title="Гай" title="Гай" /><station city="Бобруйск" direction="Жлобинское" esr="147027" importance="2" lat="53.101644" lon="29.169199" popular_title="" region="Могилёвская область" short_title="Дедново" title="Дедново" /><station direction="Жлобинское" esr="146734" importance="4" lat="53.252217" lon="28.863193" popular_title="" region="Могилёвская область" short_title="Дачная" title="Дачная" /><station direction="Черниговское" esr="150316" importance="4" lat="52.182814" lon="31.109524" popular_title="" region="Гомельская область" short_title="Грабовка" title="Грабовка" /><station direction="Жлобинское" esr="155926" importance="4" lat="53.075949" lon="30.017450" popular_title="" region="Гомельская область" short_title="Задрутье" title="Задрутье" /><station direction="Калинковичское" esr="154923" importance="4" lat="52.404809" lon="30.787373" popular_title="" region="Гомельская область" short_title="Сады" title="Сады" /><station direction="Калинковичское" esr="154726" importance="4" lat="52.338456" lon="30.250476" popular_title="" region="Гомельская область" short_title="Антополь" title="Антополь" /><station city="Гомель" direction="Калинковичское" esr="150138" importance="4" lat="52.436967" lon="30.942784" popular_title="" region="Гомельская область" short_title="Гомель-Северный" title="Гомель-Северный" /><station direction="Калинковичское" esr="153314" importance="4" lat="52.248883" lon="27.987713" popular_title="" region="Гомельская область" short_title="Бринево" title="Бринево" /><station direction="Черниговское" esr="150301" importance="3" lat="52.218817" lon="31.098570" popular_title="" region="Гомельская область" short_title="Терюха" title="Терюха" /><station city="Октябрьский" direction="Жлобинское" esr="147217" importance="1" lat="52.652650" lon="28.879275" popular_title="" region="Гомельская область" short_title="Октябрьский" title="Октябрьский" /><station direction="Тереховское" esr="150763" importance="4" lat="52.142793" lon="31.446620" popular_title="" region="Гомельская область" short_title="Куток" title="Куток" /><station direction="Черниговское" esr="150284" importance="4" lat="52.277108" lon="31.079679" popular_title="" region="Гомельская область" short_title="Коровышень" title="Коровышень" /><station direction="Черниговское" esr="150335" importance="4" lat="52.105812" lon="31.137286" popular_title="" region="Гомельская область" short_title="Кравцовка" title="Кравцовка" /><station direction="Черниговское" esr="150320" importance="4" lat="52.145466" lon="31.122198" popular_title="" region="Гомельская область" short_title="Дикаловка" title="Дикаловка" /></suburban_zone>