<?xml version='1.0' encoding='UTF-8'?>
<suburban_zone id="178"><station city="Барановичи" direction="Лидское" esr="138901" importance="1" lat="53.128704" lon="26.042478" popular_title="" region="Брестская область" short_title="Барановичи-Полесские" title="Барановичи-Полесские" /><station city="Барановичи" direction="Лидское" esr="138507" importance="2" lat="53.129143" lon="25.988204" popular_title="" region="Брестская область" short_title="Барановичи-Центральные" title="Барановичи-Центральные" /><station city="Свислочь" direction="Лидское" esr="135602" importance="2" lat="53.014985" lon="24.077194" popular_title="" region="Гродненская область" short_title="Свислочь" title="Свислочь" /><station city="Гродно" direction="Белостокское" esr="135208" importance="1" lat="53.686046" lon="23.848772" popular_title="" region="Гродненская область" short_title="Гродно" title="Гродно" /><station direction="Лидское" esr="137114" importance="4" lat="53.115828" lon="25.820854" popular_title="" region="Брестская область" short_title="Севрюки" title="Севрюки" /><station city="Волковыск" direction="Лидское" esr="136709" importance="2" lat="53.151071" lon="24.440638" popular_title="" region="Гродненская область" short_title="Волковыск-Центр." title="Волковыск-Центр." /><station direction="Лидское" esr="137101" importance="4" lat="53.120190" lon="25.718117" popular_title="" region="Брестская область" short_title="Полонка" title="Полонка" /><station city="Слоним" direction="Лидское" esr="137006" importance="2" lat="53.093108" lon="25.345631" popular_title="" region="Гродненская область" short_title="Слоним" title="Слоним" /><station city="Зельва" direction="Лидское" esr="136802" importance="2" lat="53.165771" lon="24.789217" popular_title="" region="Гродненская область" short_title="Зельва" title="Зельва" /><station direction="Лидское" esr="136200" importance="4" lat="53.114588" lon="23.968857" popular_title="" region="Гродненская область" short_title="Берестовица" title="Берестовица" /><station direction="Лидское" esr="137307" importance="4" lat="53.287617" lon="24.426836" popular_title="" region="Гродненская область" short_title="Рось" title="Рось" /><station direction="Лидское" esr="135335" importance="4" lat="53.613487" lon="24.113920" popular_title="" region="Гродненская область" short_title="Житомля" title="Житомля" /><station direction="Лидское" esr="137400" importance="4" lat="53.555459" lon="24.783306" popular_title="" region="Гродненская область" short_title="Рожанка" title="Рожанка" /><station direction="Лидское" esr="137504" importance="4" lat="53.694002" lon="24.994114" popular_title="" region="Гродненская область" short_title="Скрибовцы" title="Скрибовцы" /><station direction="Лидское" esr="137538" importance="4" lat="53.775882" lon="25.152273" popular_title="" region="Гродненская область" short_title="Поречаны" title="Поречаны" /><station direction="Лидское" esr="135424" importance="4" lat="53.493252" lon="24.318581" popular_title="" region="Гродненская область" short_title="Черлена" title="Черлена" /><station city="Скидель" direction="Лидское" esr="135405" importance="1" lat="53.571506" lon="24.221750" popular_title="" region="Гродненская область" short_title="Скидель" title="Скидель" /><station city="Лида" direction="Лидское" esr="137608" importance="2" lat="53.888092" lon="25.282459" popular_title="" region="Гродненская область" short_title="Лида" title="Лида" /><station city="Волковыск" direction="Лидское" esr="136713" importance="3" lat="53.151097" lon="24.440582" popular_title="" region="Гродненская область" short_title="Волковыск-Город" title="Волковыск-Город" /><station direction="Лидское" esr="136747" importance="4" lat="53.186868" lon="24.685084" popular_title="" region="Гродненская область" short_title="Лебяды" title="Лебяды" /><station direction="Лидское" esr="135636" importance="4" lat="53.086341" lon="24.253880" popular_title="" region="Гродненская область" short_title="Монтовты" title="Монтовты" /><station direction="Лидское" esr="136253" importance="4" lat="53.114788" lon="24.364691" popular_title="" region="Гродненская область" short_title="Голынка" title="Голынка" /><station direction="Лидское" esr="136234" importance="4" lat="53.107030" lon="24.228587" popular_title="" region="Гродненская область" short_title="Мстибово" title="Мстибово" /><station direction="Вильнюсское" esr="134949" importance="4" lat="53.925473" lon="24.198369" popular_title="" region="Гродненская область" short_title="Лихачи" title="Лихачи" /><station direction="Вильнюсское" esr="134972" importance="3" lat="53.884667" lon="24.138287" popular_title="" region="Гродненская область" short_title="Поречье" title="Поречье" /><station direction="Лидское" esr="136906" importance="4" lat="53.084609" lon="25.027019" popular_title="" region="Гродненская область" short_title="Озерница" title="Озерница" /><station direction="Вильнюсское" esr="134934" importance="4" lat="53.909633" lon="24.106736" popular_title="" region="Гродненская область" short_title="Чернуха" title="Чернуха" /><station direction="Лидское" esr="136910" importance="4" lat="53.073764" lon="25.148845" popular_title="" region="Гродненская область" short_title="Гриньки" title="Гриньки" /><station city="Барановичи" direction="Лидское" esr="137129" importance="3" lat="53.107124" lon="25.941582" popular_title="" region="Брестская область" short_title="Боровцы" title="Боровцы" /><station direction="Лидское" esr="137059" importance="4" lat="53.103550" lon="25.584814" popular_title="" region="Гродненская область" short_title="Ивная" title="Ивная" /><station direction="Лидское" esr="136821" importance="4" lat="53.124150" lon="24.938240" popular_title="" region="Гродненская область" short_title="Плетяничи" title="Плетяничи" /><station direction="Лидское" esr="136732" importance="4" lat="53.152580" lon="24.576310" popular_title="" region="Гродненская область" short_title="Войтковичи" title="Войтковичи" /><station direction="Лидское" esr="135320" importance="4" lat="53.646604" lon="24.044510" popular_title="" region="Гродненская область" short_title="Завадичи" title="Завадичи" /><station direction="Лидское" esr="135301" importance="4" lat="53.674686" lon="23.959171" popular_title="" region="Гродненская область" short_title="Аульс" title="Аульс" /><station direction="Вильнюсское" esr="135212" importance="4" lat="53.714700" lon="23.931480" popular_title="" region="Гродненская область" short_title="Каплица" title="Каплица" /><station direction="Вильнюсское" esr="135227" importance="4" lat="53.753344" lon="23.952542" popular_title="" region="Гродненская область" short_title="Богушевка" title="Богушевка" /><station direction="Лидское" esr="137010" importance="4" lat="53.080083" lon="25.395208" popular_title="" region="Гродненская область" short_title="Фабричный" title="Фабричный" /><station direction="Лидское" esr="137241" importance="4" lat="53.511323" lon="24.725476" popular_title="" region="Гродненская область" short_title="Турья" title="Турья" /><station direction="Лидское" esr="136249" importance="3" lat="53.108363" lon="24.288596" popular_title="" region="Гродненская область" short_title="Андреевичи" title="Андреевичи" /><station direction="Вильнюсское" esr="134987" importance="4" lat="53.927797" lon="24.080266" popular_title="" region="Гродненская область" short_title="Учитель" title="Учитель" /><station direction="Лидское" esr="137557" importance="4" lat="53.835025" lon="25.226045" popular_title="" region="Гродненская область" short_title="Далекий" title="Далекий" /><station direction="Лидское" esr="137542" importance="4" lat="53.795194" lon="25.186240" popular_title="" region="Гродненская область" short_title="Белогруда" title="Белогруда" /><station direction="Лидское" esr="137523" importance="3" lat="53.745177" lon="25.097876" popular_title="" region="Гродненская область" short_title="Курган" title="Курган" /><station direction="Лидское" esr="137519" importance="4" lat="53.726644" lon="25.048428" popular_title="" region="Гродненская область" short_title="Семашки" title="Семашки" /><station direction="Лидское" esr="137415" importance="4" lat="53.625443" lon="24.895185" popular_title="" region="Гродненская область" short_title="Желудок" title="Желудок" /><station direction="Лидское" esr="137420" importance="4" lat="53.600093" lon="24.867031" popular_title="" region="Гродненская область" short_title="Логвины" title="Логвины" /><station direction="Лидское" esr="137256" importance="4" lat="53.527953" lon="24.739309" popular_title="" region="Гродненская область" short_title="Бобры" title="Бобры" /><station direction="Лидское" esr="135443" importance="4" lat="53.429512" lon="24.461969" popular_title="" region="Гродненская область" short_title="Заполье" title="Заполье" /><station direction="Лидское" esr="135439" importance="4" lat="53.458315" lon="24.394137" popular_title="" region="Гродненская область" short_title="Дубно" title="Дубно" /><station direction="Лидское" esr="135415" importance="4" lat="53.543168" lon="24.266732" popular_title="" region="Гродненская область" short_title="Хвойняны" title="Хвойняны" /><station direction="Лидское" esr="135349" importance="4" lat="53.583452" lon="24.166548" popular_title="" region="Гродненская область" short_title="Бирюличи" title="Бирюличи" /><station direction="Лидское" esr="135316" importance="4" lat="53.656459" lon="24.020324" popular_title="" region="Гродненская область" short_title="Мурованка" title="Мурованка" /><station direction="Лидское" esr="135621" importance="3" lat="53.055831" lon="24.205905" popular_title="" region="Гродненская область" short_title="Саки" title="Саки" /><station city="Свислочь" direction="Лидское" esr="135617" importance="4" lat="53.029354" lon="24.114158" popular_title="" region="Гродненская область" short_title="Свислочь-посёлок" title="Свислочь-посёлок" /><station direction="Лидское" esr="137063" importance="4" lat="53.119493" lon="25.692627" popular_title="" region="Брестская область" short_title="Детковичи" title="Детковичи" /><station direction="Лидское" esr="137035" importance="4" lat="53.079892" lon="25.492184" popular_title="" region="Гродненская область" short_title="Исса" title="Исса" /><station direction="Лидское" esr="137237" importance="4" lat="53.358910" lon="24.454916" popular_title="" region="Гродненская область" short_title="Старина" title="Старина" /><station direction="Лидское" esr="137218" importance="4" lat="53.382584" lon="24.478732" popular_title="" region="Гродненская область" short_title="Кульшичи" title="Кульшичи" /><station direction="Лидское" esr="136225" importance="4" lat="53.104542" lon="24.135190" popular_title="" region="Гродненская область" short_title="Рудавка" title="Рудавка" /><station direction="Лидское" esr="136215" importance="4" lat="53.095952" lon="24.055491" popular_title="" region="Гродненская область" short_title="Жиличи" title="Жиличи" /><station direction="Вильнюсское" esr="134968" importance="4" lat="53.941776" lon="24.228925" popular_title="" region="Гродненская область" short_title="Узбережь" title="Узбережь" /><station direction="Белостокское" esr="135299" importance="4" lat="53.659890" lon="23.818967" popular_title="" region="Гродненская область" short_title="Пригородный" title="Пригородный" /><station direction="Белостокское" esr="135284" importance="4" lat="53.623963" lon="23.771508" popular_title="" region="Гродненская область" short_title="Гибуличи" title="Гибуличи" /><station direction="Белостокское" esr="135272" importance="4" lat="53.599612" lon="23.759610" popular_title="" region="Гродненская область" short_title="Коробчицы" title="Коробчицы" /><station direction="Белостокское" esr="135265" importance="4" lat="53.576604" lon="23.748456" popular_title="" region="Гродненская область" short_title="Немейщизна" title="Немейщизна" /><station direction="Белостокское" esr="135250" importance="4" lat="53.563487" lon="23.716044" popular_title="" region="Гродненская область" short_title="Бокуны" title="Бокуны" /><station direction="Белостокское" esr="135246" importance="4" lat="53.560579" lon="23.693943" popular_title="" region="Минская область" short_title="Клочки" title="Клочки" /><station direction="Белостокское" esr="135104" importance="4" lat="53.555251" lon="23.666562" popular_title="" region="Гродненская область" short_title="Брузги" title="Брузги" /><station city="Барановичи" direction="Лидское" esr="138973" importance="3" lat="53.118808" lon="25.975753" popular_title="" region="Брестская область" short_title="Локомотивное депо" title="Локомотивное депо" /><station direction="Лидское" esr="137434" importance="4" lat="53.478260" lon="24.684789" popular_title="" region="Гродненская область" short_title="Микелевщина" title="Микелевщина" /><station direction="Вильнюсское" esr="134953" importance="4" lat="53.910467" lon="24.174268" popular_title="" region="Гродненская область" short_title="Салатье" title="Салатье" /><station direction="Лидское" esr="136930" importance="4" lat="53.065244" lon="25.200789" popular_title="" region="Гродненская область" short_title="Костени" title="Костени" /><station city="Гродно" direction="Вильнюсское" esr="135354" importance="3" lat="53.692798" lon="23.865399" popular_title="" region="Гродненская область" short_title="Полесский парк" title="Полесский парк" /><station direction="Лидское" esr="137561" importance="4" lat="53.664776" lon="24.948402" popular_title="" region="Гродненская область" short_title="Халечино" title="Халечино" /><station direction="Лидское" esr="137646" importance="4" lat="53.857784" lon="25.270656" popular_title="" region="Гродненская область" short_title="Раклевцы" title="Раклевцы" /><station direction="Вильнюсское" esr="134915" importance="4" lat="53.828655" lon="24.069570" popular_title="" region="Гродненская область" short_title="Пересельцы" title="Пересельцы" /><station direction="Вильнюсское" esr="134924" importance="4" lat="53.859611" lon="24.104014" popular_title="" region="Гродненская область" short_title="Лосево" title="Лосево" /><station direction="Лидское" esr="135640" importance="4" lat="53.065761" lon="24.226538" popular_title="" region="Гродненская область" short_title="Нестеровичи" title="Нестеровичи" /><station direction="Лидское" esr="137148" importance="4" lat="53.111384" lon="25.906308" popular_title="" region="Брестская область" short_title="Приозерный" title="Приозерный" /><station direction="Лидское" esr="136728" importance="4" lat="53.157236" lon="24.815618" popular_title="" region="Гродненская область" short_title="Старая Весь" title="Старая Весь" /><station direction="Лидское" esr="136817" importance="4" lat="53.169728" lon="24.626750" popular_title="" region="Гродненская область" short_title="Савичи" title="Савичи" /><station direction="Лидское" esr="136751" importance="3" lat="53.212677" lon="24.445605" popular_title="" region="Гродненская область" short_title="Подстанция" title="Подстанция" /><station direction="Лидское" esr="137222" importance="4" lat="53.332154" lon="24.430584" popular_title="" region="Гродненская область" short_title="Даниловцы" title="Даниловцы" /><station city="Мосты" direction="Лидское" esr="137203" importance="2" lat="53.429927" lon="24.545764" popular_title="" region="Гродненская область" short_title="Мосты" title="Мосты" /><station direction="Лидское" esr="136268" importance="4" lat="53.108123" lon="24.179287" popular_title="" region="Гродненская область" short_title="Лесники" title="Лесники" /><station city="Рыбница" direction="Вильнюсское" esr="135231" importance="2" lat="53.820276" lon="24.036481" popular_title="" region="Гродненская область" short_title="Рыбница" title="Рыбница" /></suburban_zone>