<?xml version='1.0' encoding='UTF-8'?>
<suburban_zone id="179"><station city="Барановичи" direction="Барановичское" esr="138901" importance="1" lat="53.128704" lon="26.042478" popular_title="" region="Брестская область" short_title="Барановичи-Полесские" title="Барановичи-Полесские" /><station city="Барановичи" direction="Барановичское" esr="138507" importance="2" lat="53.129143" lon="25.988204" popular_title="" region="Брестская область" short_title="Барановичи-Центральные" title="Барановичи-Центральные" /><station direction="Молодечненское" esr="162607" importance="1" lat="54.220226" lon="26.449010" popular_title="" region="Минская область" short_title="Воложин" title="Воложин" /><station direction="Молодечненское" esr="162506" importance="4" lat="54.170913" lon="26.162480" popular_title="" region="Гродненская область" short_title="Богданов" title="Богданов" /><station direction="Молодечненское" esr="162402" importance="4" lat="54.058781" lon="25.907440" popular_title="" region="Гродненская область" short_title="Юратишки" title="Юратишки" /><station direction="Молодечненское" esr="162309" importance="4" lat="53.976137" lon="25.639203" popular_title="" region="Гродненская область" short_title="Гавья" title="Гавья" /><station city="Гродно" direction="Гродненское" esr="135208" importance="1" lat="53.686046" lon="23.848772" popular_title="" region="Гродненская область" short_title="Гродно" title="Гродно" /><station direction="Молодечненское" esr="162703" importance="4" lat="54.229106" lon="26.714190" popular_title="" region="Минская область" short_title="Полочаны" title="Полочаны" /><station direction="Гродненское" esr="135335" importance="4" lat="53.613487" lon="24.113920" popular_title="" region="Гродненская область" short_title="Житомля" title="Житомля" /><station direction="Гродненское" esr="137400" importance="4" lat="53.555459" lon="24.783306" popular_title="" region="Гродненская область" short_title="Рожанка" title="Рожанка" /><station direction="Гродненское" esr="137504" importance="4" lat="53.694002" lon="24.994114" popular_title="" region="Гродненская область" short_title="Скрибовцы" title="Скрибовцы" /><station direction="Гродненское" esr="137538" importance="4" lat="53.775882" lon="25.152273" popular_title="" region="Гродненская область" short_title="Поречаны" title="Поречаны" /><station direction="Вильнюсское" esr="137805" importance="4" lat="54.073463" lon="25.295733" popular_title="" region="Гродненская область" short_title="Бастуны" title="Бастуны" /><station direction="Барановичское" esr="138121" importance="4" lat="53.670361" lon="25.430875" popular_title="" region="Гродненская область" short_title="Неман" title="Неман" /><station direction="Барановичское" esr="138206" importance="4" lat="53.468220" lon="25.575909" popular_title="" region="Гродненская область" short_title="Новоельня" title="Новоельня" /><station direction="Гродненское" esr="135424" importance="4" lat="53.493252" lon="24.318581" popular_title="" region="Гродненская область" short_title="Черлена" title="Черлена" /><station direction="Барановичское" esr="138117" importance="4" lat="53.572487" lon="25.507734" popular_title="" region="Гродненская область" short_title="Яцуки" title="Яцуки" /><station city="Скидель" direction="Гродненское" esr="135405" importance="1" lat="53.571506" lon="24.221750" popular_title="" region="Гродненская область" short_title="Скидель" title="Скидель" /><station direction="Барановичское" esr="138225" importance="4" lat="53.347381" lon="25.599731" popular_title="" region="Гродненская область" short_title="Выгода" title="Выгода" /><station direction="Барановичское" esr="138314" importance="4" lat="53.295546" lon="25.750693" popular_title="" region="Брестская область" short_title="Мицкевичи" title="Мицкевичи" /><station direction="Барановичское" esr="138403" importance="4" lat="53.264691" lon="25.825433" popular_title="" region="Брестская область" short_title="Мордичи" title="Мордичи" /><station direction="Вильнюсское" esr="137909" importance="4" lat="54.238113" lon="25.351247" popular_title="" region="Гродненская область" short_title="Беняконе" title="Беняконе" /><station city="Барановичи" direction="Барановичское" esr="138437" importance="2" lat="53.155426" lon="26.010491" popular_title="" region="Брестская область" short_title="Барановичи-Северные" title="Барановичи-Северные" /><station city="Лида" direction="Гродненское" esr="137608" importance="2" lat="53.888092" lon="25.282459" popular_title="" region="Гродненская область" short_title="Лида" title="Лида" /><station city="Молодечно" direction="Молодечненское" esr="162900" importance="2" lat="54.315872" lon="26.848802" popular_title="" region="Минская область" short_title="Молодечно" title="Молодечно" /><station direction="Молодечненское" esr="138009" importance="4" lat="53.915989" lon="25.355425" popular_title="" region="Гродненская область" short_title="Гутно" title="Гутно" /><station city="Барановичи" direction="Барановичское" esr="137129" importance="3" lat="53.107124" lon="25.941582" popular_title="" region="Брестская область" short_title="Боровцы" title="Боровцы" /><station direction="Гродненское" esr="135320" importance="4" lat="53.646604" lon="24.044510" popular_title="" region="Гродненская область" short_title="Завадичи" title="Завадичи" /><station direction="Гродненское" esr="135301" importance="4" lat="53.674686" lon="23.959171" popular_title="" region="Гродненская область" short_title="Аульс" title="Аульс" /><station direction="Барановичское" esr="137612" importance="4" lat="53.792747" lon="25.359899" popular_title="" region="Гродненская область" short_title="Минойты" title="Минойты" /><station direction="Барановичское" esr="138418" importance="4" lat="53.213671" lon="25.889011" popular_title="" region="Брестская область" short_title="Замошье" title="Замошье" /><station direction="Барановичское" esr="138422" importance="4" lat="53.193369" lon="25.927634" popular_title="" region="Брестская область" short_title="Домашевичи" title="Домашевичи" /><station direction="Вильнюсское" esr="137716" importance="4" lat="54.022836" lon="25.281098" popular_title="" region="Гродненская область" short_title="Петюны" title="Петюны" /><station direction="Гродненское" esr="137241" importance="4" lat="53.511323" lon="24.725476" popular_title="" region="Гродненская область" short_title="Турья" title="Турья" /><station direction="Вильнюсское" esr="137701" importance="4" lat="53.955748" lon="25.262054" popular_title="" region="Гродненская область" short_title="Гуды" title="Гуды" /><station direction="Барановичское" esr="138210" importance="4" lat="53.401725" lon="25.578764" popular_title="" region="Гродненская область" short_title="Дворец" title="Дворец" /><station direction="Барановичское" esr="138230" importance="4" lat="53.324551" lon="25.616385" popular_title="" region="Гродненская область" short_title="Хорошки" title="Хорошки" /><station direction="Барановичское" esr="137627" importance="4" lat="53.738544" lon="25.388546" popular_title="" region="Гродненская область" short_title="Гончары" title="Гончары" /><station city="Вороново" direction="Вильнюсское" esr="137816" importance="2" lat="54.155740" lon="25.300949" popular_title="" region="Гродненская область" short_title="Вороново" title="Вороново" /><station city="Молодечно" direction="Молодечненское" esr="162807" importance="4" lat="54.293621" lon="26.827334" popular_title="" region="Минская область" short_title="Каледино" title="Каледино" /><station direction="Молодечненское" esr="162718" importance="4" lat="54.262924" lon="26.769646" popular_title="" region="Минская область" short_title="Сечки" title="Сечки" /><station direction="Молодечненское" esr="162633" importance="4" lat="54.217838" lon="26.610379" popular_title="" region="Минская область" short_title="Березинское" title="Березинское" /><station direction="Молодечненское" esr="162614" importance="4" lat="54.217863" lon="26.521747" popular_title="" region="Минская область" short_title="Шипуличи" title="Шипуличи" /><station direction="Молодечненское" esr="162530" importance="4" lat="54.218792" lon="26.376643" popular_title="" region="Минская область" short_title="Листопады" title="Листопады" /><station direction="Молодечненское" esr="162525" importance="4" lat="54.190466" lon="26.292559" popular_title="" region="Гродненская область" short_title="Ластоянцы" title="Ластоянцы" /><station direction="Молодечненское" esr="162510" importance="4" lat="54.179432" lon="26.193218" popular_title="" region="Гродненская область" short_title="Мельковщизна" title="Мельковщизна" /><station direction="Молодечненское" esr="162436" importance="4" lat="54.161882" lon="26.097690" popular_title="" region="Гродненская область" short_title="Войгяны" title="Войгяны" /><station direction="Молодечненское" esr="162421" importance="4" lat="54.125144" lon="26.029040" popular_title="" region="Гродненская область" short_title="Яхимовщина" title="Яхимовщина" /><station direction="Молодечненское" esr="162417" importance="4" lat="54.092662" lon="25.968713" popular_title="" region="Гродненская область" short_title="Довгердишки" title="Довгердишки" /><station direction="Молодечненское" esr="162328" importance="4" lat="54.032772" lon="25.830505" popular_title="" region="Гродненская область" short_title="Лобачи" title="Лобачи" /><station direction="Молодечненское" esr="162313" importance="4" lat="54.002050" lon="25.720083" popular_title="" region="Гродненская область" short_title="Берёзовцы" title="Берёзовцы" /><station direction="Молодечненское" esr="138013" importance="4" lat="53.954164" lon="25.501434" popular_title="" region="Гродненская область" short_title="Кирьяновцы" title="Кирьяновцы" /><station direction="Гродненское" esr="137557" importance="4" lat="53.835025" lon="25.226045" popular_title="" region="Гродненская область" short_title="Далекий" title="Далекий" /><station direction="Гродненское" esr="137542" importance="4" lat="53.795194" lon="25.186240" popular_title="" region="Гродненская область" short_title="Белогруда" title="Белогруда" /><station direction="Гродненское" esr="137523" importance="3" lat="53.745177" lon="25.097876" popular_title="" region="Гродненская область" short_title="Курган" title="Курган" /><station direction="Гродненское" esr="137519" importance="4" lat="53.726644" lon="25.048428" popular_title="" region="Гродненская область" short_title="Семашки" title="Семашки" /><station direction="Гродненское" esr="137415" importance="4" lat="53.625443" lon="24.895185" popular_title="" region="Гродненская область" short_title="Желудок" title="Желудок" /><station direction="Гродненское" esr="137420" importance="4" lat="53.600093" lon="24.867031" popular_title="" region="Гродненская область" short_title="Логвины" title="Логвины" /><station direction="Гродненское" esr="137256" importance="4" lat="53.527953" lon="24.739309" popular_title="" region="Гродненская область" short_title="Бобры" title="Бобры" /><station direction="Гродненское" esr="135443" importance="4" lat="53.429512" lon="24.461969" popular_title="" region="Гродненская область" short_title="Заполье" title="Заполье" /><station direction="Гродненское" esr="135439" importance="4" lat="53.458315" lon="24.394137" popular_title="" region="Гродненская область" short_title="Дубно" title="Дубно" /><station direction="Гродненское" esr="135415" importance="4" lat="53.543168" lon="24.266732" popular_title="" region="Гродненская область" short_title="Хвойняны" title="Хвойняны" /><station direction="Гродненское" esr="135349" importance="4" lat="53.583452" lon="24.166548" popular_title="" region="Гродненская область" short_title="Бирюличи" title="Бирюличи" /><station direction="Гродненское" esr="135316" importance="4" lat="53.656459" lon="24.020324" popular_title="" region="Гродненская область" short_title="Мурованка" title="Мурованка" /><station city="Барановичи" direction="Барановичское" esr="138441" importance="4" lat="53.164843" lon="25.942553" popular_title="" region="Брестская область" short_title="Козлякевичи" title="Козлякевичи" /><station direction="Барановичское" esr="138259" importance="4" lat="53.516496" lon="25.526103" popular_title="" region="Гродненская область" short_title="Клишевичи" title="Клишевичи" /><station direction="Барановичское" esr="137631" importance="4" lat="53.762093" lon="25.372295" popular_title="" region="Гродненская область" short_title="Дитва" title="Дитва" /><station city="Барановичи" direction="Барановичское" esr="138973" importance="3" lat="53.118808" lon="25.975753" popular_title="" region="Брестская область" short_title="Локомотивное депо" title="Локомотивное депо" /><station direction="Барановичское" esr="137650" importance="4" lat="53.708410" lon="25.402504" popular_title="" region="Гродненская область" short_title="Дитрики" title="Дитрики" /><station direction="Гродненское" esr="137434" importance="4" lat="53.478260" lon="24.684789" popular_title="" region="Гродненская область" short_title="Микелевщина" title="Микелевщина" /><station direction="Барановичское" esr="138456" importance="4" lat="53.240735" lon="25.854814" popular_title="" region="Брестская область" short_title="Железница" title="Железница" /><station direction="Барановичское" esr="138244" importance="4" lat="53.313440" lon="25.712690" popular_title="" region="Брестская область" short_title="Молчадь" title="Молчадь" /><station direction="Гродненское" esr="137561" importance="4" lat="53.664776" lon="24.948402" popular_title="" region="Гродненская область" short_title="Халечино" title="Халечино" /><station direction="Гродненское" esr="137646" importance="4" lat="53.857784" lon="25.270656" popular_title="" region="Гродненская область" short_title="Раклевцы" title="Раклевцы" /><station direction="Молодечненское" esr="162347" importance="4" lat="53.935855" lon="25.441998" popular_title="" region="Гродненская область" short_title="Цверма" title="Цверма" /><station direction="Молодечненское" esr="162332" importance="4" lat="53.965627" lon="25.547939" popular_title="" region="Гродненская область" short_title="Князюковцы" title="Князюковцы" /><station direction="Молодечненское" esr="162351" importance="4" lat="54.223372" lon="26.658508" popular_title="" region="Минская область" short_title="Литва" title="Литва" /><station city="Мосты" direction="Гродненское" esr="137203" importance="2" lat="53.429927" lon="24.545764" popular_title="" region="Гродненская область" short_title="Мосты" title="Мосты" /><station direction="Вильнюсское" esr="137913" importance="4" lat="54.197577" lon="25.342857" popular_title="" region="Гродненская область" short_title="Ёткишки" title="Ёткишки" /></suburban_zone>