<?xml version='1.0' encoding='UTF-8'?>
<suburban_zone id="183"><station direction="Ленское" esr="903187" importance="4" lat="55.736968" lon="108.864699" popular_title="" region="Республика Бурятия" short_title="Дабан" title="Дабан" /><station city="Усть-Кут" direction="Ленское" esr="927800" importance="4" lat="56.811533" lon="105.956711" popular_title="" region="Иркутская область" short_title="Лена-Восточная" title="Лена-Восточная" /><station direction="Ленское" esr="902235" importance="4" lat="56.843335" lon="106.227231" popular_title="" region="Иркутская область" short_title="Чудничный" title="Чудничный" /><station direction="Ленское" esr="902201" importance="4" lat="56.745628" lon="106.502817" popular_title="" region="Иркутская область" short_title="Звёздная" title="Звёздная" /><station direction="Ленское" esr="902305" importance="4" lat="56.556999" lon="106.807488" popular_title="" region="Иркутская область" short_title="Ния" title="Ния" /><station direction="Ленское" esr="902502" importance="4" lat="56.377959" lon="107.070718" popular_title="" region="Иркутская область" short_title="Небель" title="Небель" /><station city="Магистральный" direction="Ленское" esr="902702" importance="2" lat="56.179341" lon="107.456088" popular_title="" region="Иркутская область" short_title="Киренга" title="Киренга" /><station direction="Ленское" esr="902907" importance="4" lat="55.906996" lon="107.800646" popular_title="" region="Иркутская область" short_title="Улькан" title="Улькан" /><station direction="Ленское" esr="903007" importance="4" lat="55.762826" lon="108.453438" popular_title="" region="Иркутская область" short_title="Кунерма" title="Кунерма" /><station direction="Ленское" esr="903011" importance="4" lat="55.751647" lon="108.669994" popular_title="" region="Иркутская область" short_title="Дельбичинда" title="Дельбичинда" /><station city="Северобайкальск" direction="Ленское" esr="903204" importance="2" lat="55.631782" lon="109.339827" popular_title="" region="Республика Бурятия" short_title="Северобайкальск" title="Северобайкальск" /><station direction="Тайшетское" esr="923246" importance="4" lat="56.165206" lon="98.311449" popular_title="" region="Иркутская область" short_title="38 км" title="38 км" /><station direction="Тайшетское" esr="923250" importance="4" lat="56.170089" lon="98.403994" popular_title="" region="Иркутская область" short_title="45 км" title="45 км" /><station direction="Тайшетское" esr="923316" importance="4" lat="56.118456" lon="98.485101" popular_title="" region="Иркутская область" short_title="53 км" title="53 км" /><station direction="Тайшетское" esr="923443" importance="4" lat="56.148682" lon="98.622329" popular_title="" region="Иркутская область" short_title="64 км" title="64 км" /><station direction="Ленское" esr="903127" importance="4" lat="55.756117" lon="109.276731" popular_title="" region="Республика Бурятия" short_title="Тыя" title="Тыя" /><station direction="Тайшетское" esr="923814" importance="4" lat="56.069985" lon="99.545652" popular_title="" region="Иркутская область" short_title="136 км" title="136 км" /><station city="Тайшет" direction="Тайшетское" esr="920002" importance="2" lat="55.938364" lon="98.000006" popular_title="" region="Иркутская область" short_title="Тайшет" title="Тайшет" /><station direction="Ленское" esr="925561" importance="4" lat="56.408576" lon="103.926460" popular_title="" region="Иркутская область" short_title="526 км" title="526 км" /><station direction="Тайшетское" esr="923458" importance="4" lat="56.187431" lon="98.865940" popular_title="" region="Иркутская область" short_title="86 км" title="86 км" /><station direction="Тайшетское" esr="923513" importance="4" lat="56.173249" lon="99.124473" popular_title="" region="Иркутская область" short_title="104 км" title="104 км" /><station direction="Тайшетское" esr="923617" importance="4" lat="56.158865" lon="99.182518" popular_title="" region="Иркутская область" short_title="109 км" title="109 км" /><station direction="Тайшетское" esr="923621" importance="4" lat="56.103179" lon="99.305637" popular_title="" region="Иркутская область" short_title="119 км" title="119 км" /><station direction="Тайшетское" esr="923725" importance="4" lat="56.080461" lon="99.393892" popular_title="" region="Иркутская область" short_title="125 км" title="125 км" /><station direction="Тайшетское" esr="923918" importance="4" lat="56.085564" lon="99.667956" popular_title="" region="Иркутская область" short_title="Депо" title="Депо" /><station direction="Тайшетское" esr="923922" importance="4" lat="56.085193" lon="99.724599" popular_title="" region="Иркутская область" short_title="153 км" title="153 км" /><station direction="Тайшетское" esr="924018" importance="4" lat="56.132500" lon="99.794622" popular_title="" region="Иркутская область" short_title="155 км" title="155 км" /><station direction="Тайшетское" esr="924249" importance="4" lat="56.133131" lon="100.256328" popular_title="" region="Иркутская область" short_title="192 км" title="192 км" /><station direction="Ленское" esr="924431" importance="3" lat="56.112826" lon="101.196216" popular_title="" region="Иркутская область" short_title="Депо" title="Депо" /><station direction="Ленское" esr="924446" importance="3" lat="56.103661" lon="101.230519" popular_title="" region="Иркутская область" short_title="272 км" title="272 км" /><station city="Братск" direction="Ленское" esr="924939" importance="4" lat="56.301087" lon="101.692881" popular_title="" region="Иркутская область" short_title="321 км" title="321 км" /><station city="Братск" direction="Ленское" esr="924944" importance="4" lat="56.301811" lon="101.749471" popular_title="" region="Иркутская область" short_title="Энергетик" title="Энергетик" /><station direction="Ленское" esr="925557" importance="4" lat="56.459490" lon="103.455318" popular_title="" region="Иркутская область" short_title="489 км" title="489 км" /><station direction="Ленское" esr="925576" importance="4" lat="56.458535" lon="103.945585" popular_title="" region="Иркутская область" short_title="532 км" title="532 км" /><station direction="Ленское" esr="925580" importance="4" lat="56.471600" lon="103.949621" popular_title="" region="Иркутская область" short_title="533 км" title="533 км" /><station direction="Ленское" esr="925627" importance="4" lat="56.496875" lon="103.960543" popular_title="" region="Иркутская область" short_title="536 км" title="536 км" /><station direction="Ленское" esr="926850" importance="4" lat="56.830407" lon="104.895773" popular_title="" region="Иркутская область" short_title="648 км" title="648 км" /><station direction="Ленское" esr="926865" importance="4" lat="56.832525" lon="104.935426" popular_title="" region="Иркутская область" short_title="652 км" title="652 км" /><station direction="Ленское" esr="927054" importance="4" lat="56.843000" lon="105.250626" popular_title="" region="Иркутская область" short_title="674 км" title="674 км" /><station direction="Ленское" esr="927069" importance="4" lat="56.827578" lon="105.274094" popular_title="" region="Иркутская область" short_title="676 км" title="676 км" /><station direction="Ленское" esr="927073" importance="4" lat="56.807347" lon="105.284600" popular_title="" region="Иркутская область" short_title="679 км" title="679 км" /><station direction="Ленское" esr="927092" importance="4" lat="56.776810" lon="105.312776" popular_title="" region="Иркутская область" short_title="684 км" title="684 км" /><station direction="Ленское" esr="927116" importance="4" lat="56.749592" lon="105.370729" popular_title="" region="Иркутская область" short_title="687 км" title="687 км" /><station direction="Ленское" esr="927124" importance="4" lat="56.736964" lon="105.402008" popular_title="" region="Иркутская область" short_title="690 км" title="690 км" /><station direction="Тайшетское" esr="923710" importance="4" lat="56.083302" lon="99.373842" popular_title="" region="Иркутская область" short_title="123 км" title="123 км" /><station direction="Ленское" esr="925114" importance="4" lat="56.292972" lon="102.052583" popular_title="" region="Иркутская область" short_title="Подвыездный" title="Подвыездный" /><station direction="Ленское" esr="925839" importance="4" lat="56.725452" lon="104.412298" popular_title="" region="Иркутская область" short_title="Карстовая" title="Карстовая" /><station direction="Ленское" esr="927016" importance="4" lat="56.769307" lon="105.324672" popular_title="" region="Иркутская область" short_title="Кута" title="Кута" /><station city="Усть-Кут" direction="Ленское" esr="927035" importance="4" lat="56.765913" lon="105.650277" popular_title="" region="Иркутская область" short_title="Усть-Кут" title="Усть-Кут" /><station city="Усть-Кут" direction="Ленское" esr="927603" importance="4" lat="56.804562" lon="105.897111" popular_title="" region="Иркутская область" short_title="Якурим" title="Якурим" /><station direction="Ленское" esr="927139" importance="4" lat="56.746833" lon="105.434573" popular_title="" region="Иркутская область" short_title="692 км" title="692 км" /><station direction="Ленское" esr="927143" importance="4" lat="56.743796" lon="105.456667" popular_title="" region="Иркутская область" short_title="694 км" title="694 км" /><station direction="Ленское" esr="927158" importance="4" lat="56.729774" lon="105.496066" popular_title="" region="Иркутская область" short_title="697 км" title="697 км" /><station direction="Ленское" esr="927162" importance="4" lat="56.736590" lon="105.526434" popular_title="" region="Иркутская область" short_title="699 км" title="699 км" /><station direction="Ленское" esr="927177" importance="4" lat="56.770865" lon="105.553181" popular_title="" region="Иркутская область" short_title="703 км" title="703 км" /><station direction="Ленское" esr="900013" importance="4" lat="56.807182" lon="106.039661" popular_title="" region="Иркутская область" short_title="Предленский" title="Предленский" /><station direction="Ленское" esr="902803" importance="4" lat="56.079747" lon="107.681687" popular_title="" region="Иркутская область" short_title="Окунайский" title="Окунайский" /><station direction="Ленское" esr="902911" importance="4" lat="55.851967" lon="108.008544" popular_title="" region="Иркутская область" short_title="Умбелла" title="Умбелла" /><station direction="Ленское" esr="903026" importance="4" lat="55.762149" lon="108.751923" popular_title="" region="Иркутская область" short_title="1006 км" title="1006 км" /><station direction="Ленское" esr="903134" importance="4" lat="55.717513" lon="108.949420" popular_title="" region="Республика Бурятия" short_title="1017 км" title="1017 км" /><station direction="Ленское" esr="903149" importance="4" lat="55.716356" lon="109.102254" popular_title="" region="Республика Бурятия" short_title="Солнечный" title="Солнечный" /><station direction="Ленское" esr="903153" importance="4" lat="55.716551" lon="109.309135" popular_title="" region="Республика Бурятия" short_title="1049 км" title="1049 км" /><station direction="Ленское" esr="903168" importance="4" lat="55.651650" lon="109.282846" popular_title="" region="Республика Бурятия" short_title="1057 км" title="1057 км" /><station city="Братск" direction="Ленское" esr="924499" importance="4" lat="56.132161" lon="101.429956" popular_title="" region="Иркутская область" short_title="Багульная-2" title="Багульная-2" /><station city="Братск" direction="Ленское" esr="924516" importance="4" lat="56.112896" lon="101.458933" popular_title="" region="Иркутская область" short_title="Багульная-3" title="Багульная-3" /><station city="Братск" direction="Ленское" esr="924643" importance="4" lat="56.180638" lon="101.572593" popular_title="" region="Иркутская область" short_title="Тепловая" title="Тепловая" /><station city="Братск" direction="Ленское" esr="924906" importance="1" lat="56.151755" lon="101.474708" popular_title="" region="Иркутская область" short_title="Анзёби" title="Анзёби" /><station city="Усть-Кут" direction="Ленское" esr="927105" importance="1" lat="56.782045" lon="105.746841" popular_title="" region="Иркутская область" short_title="Лена" title="Лена" /><station city="Вихоревка" direction="Ленское" esr="924408" importance="2" lat="56.117451" lon="101.169029" popular_title="" region="Иркутская область" short_title="Вихоревка" title="Вихоревка" /><station city="Братск" direction="Ленское" esr="924605" importance="2" lat="56.121584" lon="101.547135" popular_title="" region="Иркутская область" short_title="Братск" title="Братск" /><station city="Братск" direction="Ленское" esr="924501" importance="4" lat="56.123515" lon="101.447318" popular_title="" region="Иркутская область" short_title="Багульная" title="Багульная" /><station direction="Ленское" esr="926808" importance="4" lat="56.762271" lon="104.720842" popular_title="" region="Иркутская область" short_title="Мерзлотная" title="Мерзлотная" /><station direction="Ленское" esr="902841" importance="4" lat="56.029687" lon="107.700639" popular_title="" region="Иркутская область" short_title="914 км" title="914 км" /><station direction="Ленское" esr="903384" importance="4" lat="55.737658" lon="109.313094" popular_title="" region="Республика Бурятия" short_title="1047 км" title="1047 км" /><station city="Братск" direction="Ленское" esr="924610" importance="2" lat="56.146330" lon="101.612756" popular_title="" region="Иркутская область" short_title="Новобратск" title="Новобратск" /><station direction="Тайшетское" esr="920040" importance="4" lat="55.955270" lon="98.107532" popular_title="" region="Иркутская область" short_title="Акульшет" title="Акульшет" /><station direction="Тайшетское" esr="923301" importance="4" lat="56.142625" lon="98.425571" popular_title="" region="Иркутская область" short_title="Топорок" title="Топорок" /><station direction="Тайшетское" esr="923477" importance="4" lat="56.116822" lon="98.536131" popular_title="" region="Иркутская область" short_title="Невельская" title="Невельская" /><station direction="Тайшетское" esr="923706" importance="4" lat="56.115087" lon="99.276033" popular_title="" region="Иркутская область" short_title="Новочунка" title="Новочунка" /><station direction="Тайшетское" esr="923800" importance="4" lat="56.066714" lon="99.442642" popular_title="" region="Иркутская область" short_title="Сосновые Родники" title="Сосновые Родники" /><station city="Чунский" direction="Тайшетское" esr="923903" importance="2" lat="56.082220" lon="99.636945" popular_title="" region="Иркутская область" short_title="Чуна" title="Чуна" /><station direction="Тайшетское" esr="924003" importance="4" lat="56.123973" lon="99.770716" popular_title="" region="Иркутская область" short_title="Изыкан" title="Изыкан" /><station direction="Тайшетское" esr="924111" importance="4" lat="56.131502" lon="100.060186" popular_title="" region="Иркутская область" short_title="Чукша" title="Чукша" /><station direction="Тайшетское" esr="924200" importance="4" lat="56.120960" lon="100.234490" popular_title="" region="Иркутская область" short_title="Кешево" title="Кешево" /><station direction="Тайшетское" esr="924215" importance="4" lat="56.246763" lon="100.428281" popular_title="" region="Иркутская область" short_title="Торея" title="Торея" /><station direction="Тайшетское" esr="924304" importance="4" lat="56.191234" lon="100.878686" popular_title="" region="Иркутская область" short_title="Турма" title="Турма" /><station direction="Ленское" esr="924427" importance="3" lat="56.128755" lon="101.368099" popular_title="" region="Иркутская область" short_title="Моргудон" title="Моргудон" /><station city="Братск" direction="Ленское" esr="925006" importance="2" lat="56.307925" lon="101.724520" popular_title="" region="Иркутская область" short_title="Падунские Пороги" title="Падунские Пороги" /><station city="Братск" direction="Ленское" esr="925100" importance="3" lat="56.273759" lon="101.895177" popular_title="" region="Иркутская область" short_title="Гидростроитель" title="Гидростроитель" /><station direction="Ленское" esr="925129" importance="4" lat="56.380327" lon="102.119583" popular_title="" region="Иркутская область" short_title="Зяба" title="Зяба" /><station direction="Ленское" esr="925203" importance="4" lat="56.441971" lon="102.250595" popular_title="" region="Иркутская область" short_title="Пашенный" title="Пашенный" /><station direction="Ленское" esr="925307" importance="4" lat="56.562064" lon="102.438092" popular_title="" region="Иркутская область" short_title="Кежемская" title="Кежемская" /><station direction="Ленское" esr="925311" importance="4" lat="56.575103" lon="102.633307" popular_title="" region="Иркутская область" short_title="Мамырь (418 км)" title="Мамырь (418 км)" /><station direction="Ленское" esr="925909" importance="4" lat="56.525427" lon="102.872519" popular_title="" region="Иркутская область" short_title="Речушка" title="Речушка" /><station direction="Ленское" esr="925400" importance="4" lat="56.405167" lon="103.111364" popular_title="" region="Иркутская область" short_title="Видим" title="Видим" /><station direction="Ленское" esr="925523" importance="4" lat="56.414223" lon="103.639571" popular_title="" region="Иркутская область" short_title="Чёрная" title="Чёрная" /><station direction="Ленское" esr="925542" importance="4" lat="56.394075" lon="103.910771" popular_title="" region="Иркутская область" short_title="Селезнево" title="Селезнево" /><station direction="Ленское" esr="925608" importance="4" lat="56.487948" lon="103.953421" popular_title="" region="Иркутская область" short_title="Среднеилимская" title="Среднеилимская" /><station city="Железногорск-Илимский" direction="Ленское" esr="925701" importance="2" lat="56.566044" lon="104.131025" popular_title="" region="Иркутская область" short_title="Коршуниха-Ангарская" title="Коршуниха-Ангарская" /><station direction="Ленское" esr="925805" importance="3" lat="56.712349" lon="104.245053" popular_title="" region="Иркутская область" short_title="Хребтовая" title="Хребтовая" /><station direction="Ленское" esr="926901" importance="4" lat="56.854786" lon="105.063087" popular_title="" region="Иркутская область" short_title="Ручей" title="Ручей" /><station direction="Ленское" esr="926704" importance="4" lat="56.687271" lon="104.667718" popular_title="" region="Иркутская область" short_title="Семигорск" title="Семигорск" /><station direction="Ленское" esr="926206" importance="4" lat="57.274803" lon="103.763945" popular_title="" region="Иркутская область" short_title="Рудногорск" title="Рудногорск" /><station direction="Ленское" esr="926225" importance="4" lat="57.579603" lon="103.434145" popular_title="" region="Иркутская область" short_title="Тушама" title="Тушама" /><station direction="Ленское" esr="926306" importance="4" lat="57.645611" lon="103.288947" popular_title="" region="Иркутская область" short_title="Тубинская" title="Тубинская" /><station city="Усть-Илимск" direction="Ленское" esr="926403" importance="2" lat="57.909539" lon="102.776007" popular_title="" region="Иркутская область" short_title="Усть-Илимск" title="Усть-Илимск" /><station direction="Тайшетское" esr="923509" importance="4" lat="56.162570" lon="99.029630" popular_title="" region="Иркутская область" short_title="Парчум" title="Парчум" /><station direction="Тайшетское" esr="923265" importance="4" lat="56.019765" lon="98.209300" popular_title="" region="Иркутская область" short_title="Разъезд №2" title="Разъезд №2" /><station direction="Тайшетское" esr="923227" importance="4" lat="56.103606" lon="98.282386" popular_title="" region="Иркутская область" short_title="Костомарово" title="Костомарово" /><station direction="Тайшетское" esr="923414" importance="4" lat="56.165569" lon="98.629530" popular_title="" region="Иркутская область" short_title="Разъезд №5 (66 км)" title="Разъезд №5 (66 км)" /><station direction="Тайшетское" esr="923424" importance="4" lat="56.174763" lon="98.718386" popular_title="" region="Иркутская область" short_title="Разъезд №6" title="Разъезд №6" /><station direction="Тайшетское" esr="923602" importance="4" lat="56.161828" lon="99.152240" popular_title="" region="Иркутская область" short_title="Разъезд №9" title="Разъезд №9" /><station direction="Тайшетское" esr="924107" importance="4" lat="56.170013" lon="99.945196" popular_title="" region="Иркутская область" short_title="Таргиз" title="Таргиз" /><station direction="Тайшетское" esr="924224" importance="4" lat="56.275126" lon="100.616975" popular_title="" region="Иркутская область" short_title="Огневка" title="Огневка" /><station direction="Тайшетское" esr="924319" importance="4" lat="56.143763" lon="101.021770" popular_title="" region="Иркутская область" short_title="Балага" title="Балага" /><station city="Братск" direction="Ленское" esr="924910" importance="4" lat="56.224761" lon="101.588218" popular_title="" region="Иркутская область" short_title="Галачинский" title="Галачинский" /><station city="Братск" direction="Ленское" esr="924925" importance="4" lat="56.269138" lon="101.655616" popular_title="" region="Иркутская область" short_title="Братское Море" title="Братское Море" /><station direction="Ленское" esr="925504" importance="4" lat="56.427668" lon="103.340679" popular_title="" region="Иркутская область" short_title="Сохатый" title="Сохатый" /><station direction="Ленское" esr="927001" importance="4" lat="56.855407" lon="105.217717" popular_title="" region="Иркутская область" short_title="Янталь" title="Янталь" /><station city="Новая Игирма" direction="Ленское" esr="926102" importance="1" lat="57.126179" lon="103.888184" popular_title="" region="Иркутская область" short_title="Игирма" title="Игирма" /><station direction="Ленское" esr="927040" importance="4" lat="56.790763" lon="105.581026" popular_title="" region="Иркутская область" short_title="Паниха" title="Паниха" /><station city="Усть-Кут" direction="Ленское" esr="927618" importance="4" lat="56.797716" lon="105.789128" popular_title="" region="Иркутская область" short_title="724 км" title="724 км" /><station direction="Ленское" esr="925815" importance="4" lat="56.853703" lon="104.252645" popular_title="" region="Иркутская область" short_title="Начальный" title="Начальный" /><station direction="Ленское" esr="925824" importance="4" lat="57.001889" lon="104.056288" popular_title="" region="Иркутская область" short_title="Баларихта" title="Баларихта" /><station direction="Ленское" esr="926314" importance="4" lat="57.798257" lon="103.164373" popular_title="" region="Иркутская область" short_title="Диабазовый" title="Диабазовый" /><station direction="Тайшетское" esr="923212" importance="4" lat="56.049290" lon="98.240032" popular_title="" region="Иркутская область" short_title="24 км" title="24 км" /><station direction="Тайшетское" esr="924234" importance="4" lat="56.232578" lon="100.769860" popular_title="" region="Иркутская область" short_title="Разъезд №18" title="Разъезд №18" /><station direction="Ленское" esr="924412" importance="3" lat="56.100137" lon="101.261570" popular_title="" region="Иркутская область" short_title="276 км" title="276 км" /><station direction="Тайшетское" esr="001906" importance="4" lat="55.929799" lon="98.025411" popular_title="" region="Иркутская область" short_title="Первомайский" title="Первомайский" /><station direction="Ленское" esr="001907" importance="4" lat="56.796112" lon="105.292567" popular_title="" region="Иркутская область" short_title="680 км" title="680 км" /><station direction="Ленское" esr="001908" importance="4" lat="56.677918" lon="106.696142" popular_title="" region="Иркутская область" short_title="Ирдыкан" title="Ирдыкан" /><station direction="Ленское" esr="001909" importance="4" lat="56.460157" lon="106.845562" popular_title="" region="Иркутская область" short_title="Таковка" title="Таковка" /><station direction="Ленское" esr="902521" importance="4" lat="56.319864" lon="107.223311" popular_title="" region="Иркутская область" short_title="Марикта" title="Марикта" /><station direction="Ленское" esr="001910" importance="4" lat="56.258296" lon="107.334104" popular_title="" region="Иркутская область" short_title="Бирея" title="Бирея" /><station direction="Ленское" esr="001911" importance="4" lat="55.779350" lon="108.187937" popular_title="" region="Иркутская область" short_title="Калакачан" title="Калакачан" /><station direction="Тайшетское" esr="001916" importance="4" lat="56.182120" lon="99.919842" popular_title="" region="Иркутская область" short_title="165 км" title="165 км" /><station direction="Ленское" esr="001914" importance="3" lat="56.604514" lon="104.189173" popular_title="" region="Иркутская область" short_title="554 км (Фабричная)" title="554 км (Фабричная)" /><station direction="Ленское" esr="001917" importance="4" popular_title="" region="Иркутская область" short_title="Суринья" title="Суринья" /></suburban_zone>