<?xml version='1.0' encoding='UTF-8'?>
<suburban_zone id="185"><station direction="Западное" esr="906024" importance="4" lat="56.242885" lon="114.086463" popular_title="" region="Республика Бурятия" short_title="Ульги" title="Ульги" /><station direction="Западное" esr="906039" importance="4" lat="56.191059" lon="113.851542" popular_title="" region="Республика Бурятия" short_title="Аркум" title="Аркум" /><station city="Северомуйск" direction="Западное" esr="905708" importance="2" lat="56.167943" lon="113.670623" popular_title="" region="Республика Бурятия" short_title="Северомуйск" title="Северомуйск" /><station city="Северомуйск" direction="Западное" esr="905712" importance="4" lat="56.172612" lon="113.557740" popular_title="" region="Республика Бурятия" short_title="Казанкан" title="Казанкан" /><station direction="Западное" esr="903416" importance="4" lat="55.938931" lon="110.338254" popular_title="" region="Республика Бурятия" short_title="Дзелинда" title="Дзелинда" /><station city="Северобайкальск" direction="Западное" esr="903204" importance="2" lat="55.631782" lon="109.339827" popular_title="" region="Республика Бурятия" short_title="Северобайкальск" title="Северобайкальск" /><station direction="Восточное" esr="904527" importance="4" lat="57.016700" lon="119.346267" popular_title="" region="Забайкальский край" short_title="Мурурин" title="Мурурин" /><station direction="Восточное" esr="904531" importance="4" lat="57.026901" lon="119.087630" popular_title="" region="Забайкальский край" short_title="Икабьякан" title="Икабьякан" /><station direction="Западное" esr="904003" importance="4" lat="56.192299" lon="113.552241" popular_title="" region="Республика Бурятия" short_title="Окусикан" title="Окусикан" /><station direction="Восточное" esr="904546" importance="4" lat="56.915244" lon="118.530738" popular_title="" region="Забайкальский край" short_title="Кемен" title="Кемен" /><station city="Нижнеангарск" direction="Западное" esr="903308" importance="2" lat="55.811900" lon="109.603380" popular_title="" region="Республика Бурятия" short_title="Нижнеангарск" title="Нижнеангарск" /><station direction="Западное" esr="903327" importance="4" lat="55.888850" lon="109.794168" popular_title="" region="Республика Бурятия" short_title="Холодная" title="Холодная" /><station direction="Западное" esr="903401" importance="4" lat="55.930651" lon="110.101734" popular_title="" region="Республика Бурятия" short_title="Кичера" title="Кичера" /><station direction="Западное" esr="903420" importance="4" lat="55.951498" lon="110.650611" popular_title="" region="Республика Бурятия" short_title="Кирон" title="Кирон" /><station direction="Западное" esr="903505" importance="4" lat="56.011475" lon="110.908152" popular_title="" region="Республика Бурятия" short_title="Ангоя" title="Ангоя" /><station direction="Западное" esr="903524" importance="4" lat="56.114127" lon="111.306147" popular_title="" region="Республика Бурятия" short_title="Огней (Агней)" title="Огней (Агней)" /><station direction="Западное" esr="903539" importance="4" lat="56.162946" lon="111.524937" popular_title="" region="Республика Бурятия" short_title="Анамакит" title="Анамакит" /><station direction="Западное" esr="904423" importance="4" lat="56.339948" lon="114.391740" popular_title="" region="Республика Бурятия" short_title="1441 км" title="1441 км" /><station direction="Западное" esr="904334" importance="4" lat="56.639942" lon="117.575358" popular_title="" region="Забайкальский край" short_title="Леприндо" title="Леприндо" /><station direction="Западное" esr="904349" importance="4" lat="56.588217" lon="117.297193" popular_title="" region="Забайкальский край" short_title="Кодар" title="Кодар" /><station direction="Западное" esr="903831" importance="4" lat="56.160516" lon="111.994956" popular_title="" region="Республика Бурятия" short_title="Баканы" title="Баканы" /><station direction="Западное" esr="903825" importance="4" lat="56.205248" lon="112.346244" popular_title="" region="Республика Бурятия" short_title="Янчуй" title="Янчуй" /><station direction="Западное" esr="903810" importance="4" lat="56.199788" lon="112.569631" popular_title="" region="Республика Бурятия" short_title="Чуро" title="Чуро" /><station direction="Западное" esr="903806" importance="4" lat="56.258570" lon="112.822152" popular_title="" region="Республика Бурятия" short_title="Кюхельбекерская" title="Кюхельбекерская" /><station direction="Западное" esr="903914" importance="4" lat="56.319213" lon="113.010496" popular_title="" region="Республика Бурятия" short_title="Ковокта" title="Ковокта" /><station direction="Западное" esr="903929" importance="4" lat="56.327975" lon="113.224493" popular_title="" region="Республика Бурятия" short_title="Ангаракан" title="Ангаракан" /><station direction="Западное" esr="904368" importance="4" lat="56.466743" lon="116.869273" popular_title="" region="Забайкальский край" short_title="Сюльбан" title="Сюльбан" /><station direction="Западное" esr="906522" importance="4" lat="56.211900" lon="115.690716" popular_title="" region="Республика Бурятия" short_title="Шиверы" title="Шиверы" /><station city="Таксимо" direction="Западное" esr="904404" importance="2" lat="56.360413" lon="114.830878" popular_title="" region="Республика Бурятия" short_title="Таксимо" title="Таксимо" /><station direction="Западное" esr="906043" importance="4" lat="56.378674" lon="114.496686" popular_title="" region="Республика Бурятия" short_title="Улан-Макит" title="Улан-Макит" /><station direction="Западное" esr="906019" importance="4" lat="56.304963" lon="114.332266" popular_title="" region="Республика Бурятия" short_title="Муякан" title="Муякан" /><station direction="Западное" esr="906541" importance="4" lat="56.320594" lon="115.160490" popular_title="" region="Республика Бурятия" short_title="Лодья" title="Лодья" /><station direction="Западное" esr="906537" importance="4" lat="56.329047" lon="115.385344" popular_title="" region="Республика Бурятия" short_title="Аку" title="Аку" /><station direction="Западное" esr="904387" importance="4" lat="56.388511" lon="116.424253" popular_title="" region="Забайкальский край" short_title="Таку" title="Таку" /><station direction="Западное" esr="904372" importance="4" lat="56.452640" lon="116.680367" popular_title="" region="Забайкальский край" short_title="Балбухта" title="Балбухта" /><station direction="Западное" esr="903242" importance="4" lat="55.775959" lon="109.559009" popular_title="" region="Республика Бурятия" short_title="Молокон" title="Молокон" /><station direction="Западное" esr="903365" importance="4" lat="55.843300" lon="109.659818" popular_title="" region="Республика Бурятия" short_title="1095 км" title="1095 км" /><station direction="Западное" esr="903331" importance="4" lat="55.845202" lon="109.666448" popular_title="" region="Республика Бурятия" short_title="1096 км" title="1096 км" /><station direction="Западное" esr="903346" importance="4" lat="55.849860" lon="109.678128" popular_title="" region="Республика Бурятия" short_title="1098 км" title="1098 км" /><station direction="Западное" esr="903350" importance="4" lat="55.866079" lon="109.718221" popular_title="" region="Республика Бурятия" short_title="1103 км" title="1103 км" /><station direction="Западное" esr="904353" importance="4" lat="56.527259" lon="117.140894" popular_title="" region="Забайкальский край" short_title="Наледный" title="Наледный" /><station direction="Западное" esr="904322" importance="4" lat="56.682211" lon="117.703835" popular_title="" region="Забайкальский край" short_title="Салликит" title="Салликит" /><station direction="Западное" esr="904315" importance="4" lat="56.740872" lon="117.970123" popular_title="" region="Забайкальский край" short_title="Сакукан" title="Сакукан" /><station direction="Восточное" esr="904512" importance="4" lat="57.007500" lon="119.638510" popular_title="" region="Забайкальский край" short_title="Олонгдо" title="Олонгдо" /><station direction="Западное" esr="903454" importance="4" lat="55.954021" lon="110.596536" popular_title="" region="Республика Бурятия" short_title="1156 км" title="1156 км" /><station direction="Западное" esr="906058" importance="4" lat="56.269712" lon="114.151051" popular_title="" region="Республика Бурятия" short_title="1418 км" title="1418 км" /><station direction="Западное" esr="906062" importance="4" lat="56.365281" lon="114.683685" popular_title="" region="Республика Бурятия" short_title="1459 км" title="1459 км" /><station direction="Западное" esr="906575" importance="4" lat="56.322891" lon="114.936705" popular_title="" region="Республика Бурятия" short_title="1472 км" title="1472 км" /><station direction="Западное" esr="906607" importance="4" lat="56.224313" lon="115.740058" popular_title="" region="Республика Бурятия" short_title="1536 км" title="1536 км" /><station direction="Западное" esr="906611" importance="4" lat="56.323378" lon="116.115981" popular_title="" region="Забайкальский край" short_title="1564 км" title="1564 км" /><station direction="Западное" esr="904283" importance="4" lat="56.563253" lon="117.222649" popular_title="" region="Забайкальский край" short_title="1646 км" title="1646 км" /><station direction="Западное" esr="904279" importance="4" lat="56.584764" lon="117.282287" popular_title="" region="Забайкальский край" short_title="1648 км" title="1648 км" /><station direction="Восточное" esr="904461" importance="4" lat="56.828019" lon="118.359197" popular_title="" region="Забайкальский край" short_title="1732 км" title="1732 км" /><station direction="Восточное" esr="904457" importance="4" lat="56.847464" lon="118.410984" popular_title="" region="Забайкальский край" short_title="1736 км" title="1736 км" /><station direction="Восточное" esr="904550" importance="4" lat="57.065332" lon="118.881408" popular_title="" region="Забайкальский край" short_title="Чапо-Олонго" title="Чапо-Олонго" /><station city="Новый Уоян" direction="Западное" esr="903609" importance="2" lat="56.148939" lon="111.730811" popular_title="" region="Республика Бурятия" short_title="Новый Уоян" title="Новый Уоян" /><station direction="Западное" esr="904101" importance="4" lat="56.284629" lon="113.321985" popular_title="" region="Республика Бурятия" short_title="Итыкит" title="Итыкит" /><station direction="Западное" esr="001912" importance="4" lat="56.323429" lon="113.133042" popular_title="" region="Республика Бурятия" short_title="1343 км" title="1343 км" /><station direction="Западное" esr="001913" importance="4" lat="56.347459" lon="114.424948" popular_title="" region="Республика Бурятия" short_title="Щебеночный завод" title="Щебеночный завод" /><station direction="Восточное" esr="904575" importance="4" lat="57.063756" lon="118.971140" popular_title="" region="Забайкальский край" short_title="Сенаторский" title="Сенаторский" /></suburban_zone>