<?xml version='1.0' encoding='UTF-8'?>
<suburban_zone id="187"><station city="Курск" direction="Льговское" esr="208201" importance="2" lat="51.749858" lon="36.228236" popular_title="" region="Курская область" short_title="Курск" title="Курск" /><station city="Курчатов" direction="Льговское" esr="207919" importance="2" lat="51.656478" lon="35.651241" popular_title="" region="Курская область" short_title="Курчатов" title="Курчатов" /><station direction="Льговское" esr="208127" importance="4" lat="51.701192" lon="36.218166" popular_title="" region="Курская область" short_title="470 км" title="470 км" /><station city="Курск" direction="Льговское" esr="208108" importance="4" lat="51.655371" lon="36.136503" popular_title="" region="Курская область" short_title="Рышково" title="Рышково" /><station city="Прямицыно" direction="Льговское" esr="208004" importance="2" lat="51.649063" lon="35.960693" popular_title="" region="Курская область" short_title="Дьяконово" title="Дьяконово" /><station direction="Льговское" esr="207904" importance="4" lat="51.648188" lon="35.580608" popular_title="" region="Курская область" short_title="Лукашевка" title="Лукашевка" /><station direction="Льговское" esr="207800" importance="4" lat="51.621622" lon="35.500513" popular_title="" region="Курская область" short_title="Блохино" title="Блохино" /><station city="Льгов" direction="Льговское" esr="206206" importance="2" lat="51.637505" lon="35.266618" popular_title="" region="Курская область" short_title="Льгов-1-Киевский" title="Льгов-1-Киевский" /><station direction="Льговское" esr="207726" importance="4" lat="51.633395" lon="35.195895" popular_title="" region="Курская область" short_title="Артаково" title="Артаково" /><station direction="Льговское" esr="207745" importance="4" lat="51.561854" lon="35.122647" popular_title="" region="Курская область" short_title="Колонтаевка" title="Колонтаевка" /><station city="Глушково" direction="Льговское" esr="207302" importance="1" lat="51.288551" lon="34.732121" popular_title="" region="Курская область" short_title="Глушково" title="Глушково" /><station city="Коренёво" direction="Льговское" esr="207406" importance="1" lat="51.410998" lon="34.898961" popular_title="" region="Курская область" short_title="Коренево" title="Коренево" /><station direction="Льговское" esr="207711" importance="4" lat="51.610623" lon="35.157469" popular_title="" region="Курская область" short_title="387 км" title="387 км" /><station direction="Льговское" esr="207942" importance="4" lat="51.644398" lon="35.888177" popular_title="" region="Курская область" short_title="440 км" title="440 км" /><station direction="Льговское" esr="206278" importance="4" lat="51.597408" lon="35.411666" popular_title="" region="Курская область" short_title="408 км" title="408 км" /><station direction="Льговское" esr="207478" importance="4" lat="51.483954" lon="35.066811" popular_title="" region="Курская область" short_title="371 км" title="371 км" /><station direction="Льговское" esr="208019" importance="4" lat="51.646371" lon="36.035879" popular_title="" region="Курская область" short_title="454 км" title="454 км" /><station direction="Льговское" esr="207730" importance="4" lat="51.532745" lon="35.117180" popular_title="" region="Курская область" short_title="378 км" title="378 км" /><station direction="Льговское" esr="206282" importance="4" lat="51.613076" lon="35.358397" popular_title="" region="Курская область" short_title="404 км" title="404 км" /><station direction="Льговское" esr="207482" importance="4" lat="51.502018" lon="35.082186" popular_title="" region="Курская область" short_title="374 км" title="374 км" /><station direction="Льговское" esr="207266" importance="4" lat="51.254618" lon="34.539922" popular_title="" region="Курская область" short_title="322 км" title="322 км" /><station direction="Льговское" esr="207336" importance="4" lat="51.345877" lon="34.871150" popular_title="" region="Курская область" short_title="Гапоново" title="Гапоново" /><station direction="Льговское" esr="207923" importance="4" lat="51.653501" lon="35.737121" popular_title="" region="Курская область" short_title="428 км" title="428 км" /><station direction="Льговское" esr="207340" importance="4" lat="51.377041" lon="34.894326" popular_title="" region="Курская область" short_title="351 км" title="351 км" /><station direction="Тёткинское" esr="209609" importance="4" lat="51.263648" lon="34.258095" popular_title="" region="Курская область" short_title="Тёткино" title="Тёткино" /><station direction="Льговское" esr="207317" importance="4" lat="51.309828" lon="34.801291" popular_title="" region="Курская область" short_title="341 км" title="341 км" /><station direction="Льговское" esr="207270" importance="4" lat="51.266307" lon="34.605615" popular_title="" region="Курская область" short_title="329 км" title="329 км" /><station direction="Льговское" esr="207321" importance="4" lat="51.325475" lon="34.832186" popular_title="" region="Курская область" short_title="344 км" title="344 км" /><station direction="Льговское" esr="207444" importance="4" lat="51.442542" lon="34.924900" popular_title="" region="Курская область" short_title="358 км" title="358 км" /><station direction="Льговское" esr="207463" importance="4" lat="51.460799" lon="35.035399" popular_title="" region="Курская область" short_title="367 км" title="367 км" /><station direction="Льговское" esr="206263" importance="4" lat="51.631623" lon="35.325212" popular_title="" region="Курская область" short_title="401 км" title="401 км" /><station direction="Льговское" esr="207938" importance="4" lat="51.647269" lon="35.799207" popular_title="" region="Курская область" short_title="433 км" title="433 км" /><station city="Курск" direction="Льговское" esr="208023" importance="4" lat="51.648113" lon="36.087258" popular_title="" region="Курская область" short_title="457 км" title="457 км" /><station direction="Льговское" esr="208112" importance="4" lat="51.669774" lon="36.196435" popular_title="" region="Курская область" short_title="465 км" title="465 км" /><station direction="Конотопское" esr="329232" importance="4" lat="51.169285" lon="34.087071" popular_title="" region="Сумская область" short_title="Кошары" title="Кошары" /><station direction="Конотопское" esr="329119" importance="4" lat="51.211041" lon="33.698529" popular_title="" region="Сумская область" short_title="Степановка" title="Степановка" /><station direction="Конотопское" esr="329105" importance="4" lat="51.212862" lon="33.601729" popular_title="" region="Сумская область" short_title="Путейская" title="Путейская" /><station city="Конотоп" direction="Конотопское" esr="327400" importance="2" lat="51.223240" lon="33.187739" popular_title="" region="Сумская область" short_title="Конотоп" title="Конотоп" /><station city="Ворожба" direction="Сумское" esr="329302" importance="2" lat="51.170449" lon="34.224234" popular_title="" region="Сумская область" short_title="Ворожба-Пасс." title="Ворожба-Пасс." /><station city="Бурынь" direction="Конотопское" esr="329209" importance="1" lat="51.202874" lon="33.847984" popular_title="" region="Сумская область" short_title="Путивль" title="Путивль" /><station direction="Конотопское" esr="328901" importance="4" lat="51.198940" lon="33.390199" popular_title="" region="Сумская область" short_title="Дубовязовка" title="Дубовязовка" /><station direction="Конотопское" esr="327453" importance="4" lat="51.209897" lon="33.261080" popular_title="" region="Сумская область" short_title="Лобковка" title="Лобковка" /><station direction="Льговское" esr="327311" importance="4" lat="51.221546" lon="34.412854" popular_title="" region="Сумская область" short_title="312 км" title="312 км" /><station direction="Конотопское" esr="329213" importance="4" lat="51.177766" lon="33.955176" popular_title="" region="Сумская область" short_title="Клепалы" title="Клепалы" /><station direction="Льговское" esr="327330" importance="4" lat="51.183383" lon="34.327719" popular_title="" region="Сумская область" short_title="304 км" title="304 км" /><station direction="Конотопское" esr="328920" importance="4" lat="51.215031" lon="33.465428" popular_title="" region="Сумская область" short_title="Дубинка" title="Дубинка" /><station direction="Конотопское" esr="327415" importance="4" lat="51.218832" lon="33.229903" popular_title="" region="Сумская область" short_title="Железобетонный" title="Железобетонный" /><station direction="Конотопское" esr="329228" importance="4" lat="51.164405" lon="34.011511" popular_title="" region="Сумская область" short_title="Карпиловка" title="Карпиловка" /><station direction="Конотопское" esr="329247" importance="4" lat="51.173478" lon="34.133119" popular_title="" region="Сумская область" short_title="Бабаковка" title="Бабаковка" /><station direction="Конотопское" esr="327434" importance="4" lat="51.202899" lon="33.299467" popular_title="" region="Сумская область" short_title="Комсомольская Коммуна" title="Комсомольская Коммуна" /><station direction="Конотопское" esr="327449" importance="4" lat="51.200381" lon="33.353845" popular_title="" region="Сумская область" short_title="Джигаевка" title="Джигаевка" /><station direction="Конотопское" esr="328916" importance="4" lat="51.201699" lon="33.416714" popular_title="" region="Сумская область" short_title="Вязовое" title="Вязовое" /><station direction="Льговское" esr="327326" importance="4" lat="51.199879" lon="34.367884" popular_title="" region="Сумская область" short_title="308 км" title="308 км" /><station direction="Льговское" esr="327345" importance="4" lat="51.178480" lon="34.299056" popular_title="" region="Сумская область" short_title="302 км" title="302 км" /><station direction="Конотопское" esr="328935" importance="4" lat="51.214290" lon="33.501583" popular_title="" region="Сумская область" short_title="Зафатовка" title="Зафатовка" /><station direction="Сумское" esr="433614" importance="4" lat="50.727109" lon="35.445505" popular_title="" region="Сумская область" short_title="Пушкарное" title="Пушкарное" /><station direction="Сумское" esr="446012" importance="4" lat="50.450495" lon="34.981237" popular_title="" region="Сумская область" short_title="Рупино" title="Рупино" /><station direction="Сумское" esr="444816" importance="4" lat="51.050181" lon="34.346760" popular_title="" region="Сумская область" short_title="Ульяновка" title="Ульяновка" /><station city="Белополье" direction="Сумское" esr="444708" importance="1" lat="51.140881" lon="34.272268" popular_title="" region="Сумская область" short_title="Белополье" title="Белополье" /><station city="Сумы" direction="Сумское" esr="445306" importance="2" lat="50.926632" lon="34.809341" popular_title="" region="Сумская область" short_title="Сумы" title="Сумы" /><station city="Тростянец" direction="Сумское" esr="446008" importance="2" lat="50.479821" lon="34.969936" popular_title="" region="Сумская область" short_title="Смородино" title="Смородино" /><station direction="Сумское" esr="444801" importance="4" lat="51.092064" lon="34.305363" popular_title="" region="Сумская область" short_title="Торохтяный" title="Торохтяный" /><station direction="Сумское" esr="444905" importance="4" lat="51.020904" lon="34.377430" popular_title="" region="Сумская область" short_title="Виры" title="Виры" /><station direction="Сумское" esr="444910" importance="3" lat="51.001441" lon="34.464032" popular_title="" region="Сумская область" short_title="Амбары" title="Амбары" /><station direction="Сумское" esr="445109" importance="4" lat="50.974024" lon="34.573544" popular_title="" region="Сумская область" short_title="Головашевка" title="Головашевка" /><station direction="Сумское" esr="445202" importance="4" lat="50.941940" lon="34.670055" popular_title="" region="Сумская область" short_title="Торопиловка" title="Торопиловка" /><station city="Сумы" direction="Сумское" esr="445400" importance="3" lat="50.898664" lon="34.851869" popular_title="" region="Сумская область" short_title="Сумы-Тов." title="Сумы-Тов." /><station city="Сумы" direction="Сумское" esr="445607" importance="3" lat="50.862498" lon="34.886022" popular_title="" region="Сумская область" short_title="Басы" title="Басы" /><station direction="Сумское" esr="433826" importance="4" lat="50.824824" lon="35.025250" popular_title="" region="Сумская область" short_title="Золотницкий" title="Золотницкий" /><station direction="Сумское" esr="433807" importance="4" lat="50.820032" lon="35.136210" popular_title="" region="Сумская область" short_title="Корчаковка" title="Корчаковка" /><station city="Краснополье" direction="Сумское" esr="433703" importance="1" lat="50.782814" lon="35.258284" popular_title="" region="Сумская область" short_title="Краснополье" title="Краснополье" /><station direction="Сумское" esr="445630" importance="4" lat="50.792883" lon="34.859832" popular_title="" region="Сумская область" short_title="Сыроватка" title="Сыроватка" /><station direction="Сумское" esr="445645" importance="4" lat="50.758655" lon="34.858040" popular_title="" region="Сумская область" short_title="Имени Василия Несвита" title="Имени Василия Несвита" /><station direction="Сумское" esr="445804" importance="3" lat="50.650457" lon="34.877482" popular_title="" region="Сумская область" short_title="Боромля" title="Боромля" /><station direction="Сумское" esr="445838" importance="4" lat="50.547157" lon="34.919660" popular_title="" region="Сумская область" short_title="Скряговка" title="Скряговка" /><station direction="Сумское" esr="446027" importance="4" lat="50.400682" lon="35.067388" popular_title="" region="Сумская область" short_title="Бакировка" title="Бакировка" /><station direction="Сумское" esr="446046" importance="4" lat="50.357690" lon="35.110638" popular_title="" region="Сумская область" short_title="Казацкое" title="Казацкое" /><station city="Кириковка" direction="Сумское" esr="446101" importance="1" lat="50.345069" lon="35.131472" popular_title="" region="Сумская область" short_title="Кириковка" title="Кириковка" /><station direction="Сумское" esr="433633" importance="4" lat="50.729812" lon="35.315811" popular_title="" region="Сумская область" short_title="Александровка" title="Александровка" /><station direction="Сумское" esr="446031" importance="4" lat="50.385405" lon="35.077775" popular_title="" region="Сумская область" short_title="Ворскла (бывш.Пионерская)" title="Ворскла (бывш.Пионерская)" /><station direction="Сумское" esr="445819" importance="4" lat="50.596824" lon="34.886298" popular_title="" region="Сумская область" short_title="98 км" title="98 км" /><station direction="Сумское" esr="445626" importance="4" lat="50.817649" lon="34.883861" popular_title="" region="Сумская область" short_title="70 км" title="70 км" /><station direction="Сумское" esr="444924" importance="4" lat="50.985539" lon="34.527390" popular_title="" region="Сумская область" short_title="Лекарское" title="Лекарское" /><station direction="Сумское" esr="445611" importance="4" lat="50.840051" lon="34.893997" popular_title="" region="Сумская область" short_title="67 км" title="67 км" /><station direction="Сумское" esr="446135" importance="4" lat="50.315307" lon="35.019776" popular_title="" region="Сумская область" short_title="9 км" title="9 км" /><station direction="Сумское" esr="433629" importance="4" lat="50.716123" lon="35.393601" popular_title="" region="Сумская область" short_title="Пятиполье" title="Пятиполье" /><station direction="Сумское" esr="445931" importance="4" lat="50.587006" lon="34.562137" popular_title="" region="Сумская область" short_title="Садовая" title="Садовая" /><station direction="Сумское" esr="433648" importance="4" lat="50.756525" lon="35.280730" popular_title="" region="Сумская область" short_title="33 км (Ступовка)" title="33 км (Ступовка)" /><station direction="Сумское" esr="445823" importance="4" lat="50.564967" lon="34.901391" popular_title="" region="Сумская область" short_title="102 км" title="102 км" /><station direction="Сумское" esr="445861" importance="4" lat="50.593071" lon="34.775489" popular_title="" region="Сумская область" short_title="Стеблянки" title="Стеблянки" /><station direction="Сумское" esr="445880" importance="4" lat="50.571517" lon="34.676989" popular_title="" region="Сумская область" short_title="Рябушки" title="Рябушки" /><station direction="Сумское" esr="445842" importance="4" lat="50.522219" lon="34.930060" popular_title="" region="Сумская область" short_title="Алексино" title="Алексино" /><station direction="Сумское" esr="445113" importance="4" lat="50.961637" lon="34.615194" popular_title="" region="Сумская область" short_title="40 км" title="40 км" /><station direction="Сумское" esr="445857" importance="4" lat="50.613561" lon="34.836722" popular_title="" region="Сумская область" short_title="Выстороп" title="Выстороп" /><station direction="Сумское" esr="445876" importance="4" lat="50.584281" lon="34.723869" popular_title="" region="Сумская область" short_title="Гарбузовка" title="Гарбузовка" /><station direction="Сумское" esr="433811" importance="4" lat="50.822813" lon="35.079286" popular_title="" region="Сумская область" short_title="Глыбное" title="Глыбное" /><station city="Ахтырка" direction="Сумское" esr="446205" importance="2" lat="50.316342" lon="34.917171" popular_title="" region="Сумская область" short_title="Ахтырка" title="Ахтырка" /><station city="Сумы" direction="Сумское" esr="445414" importance="3" lat="50.882294" lon="34.865991" popular_title="" region="Сумская область" short_title="Олдыш" title="Олдыш" /><station city="Верхняя Сыроватка" direction="Сумское" esr="433845" importance="1" lat="50.846189" lon="34.936195" popular_title="" region="Сумская область" short_title="Бездрик" title="Бездрик" /><station city="Лебедин" direction="Сумское" esr="445908" importance="2" lat="50.567988" lon="34.491018" popular_title="" region="Сумская область" short_title="Лебединская" title="Лебединская" /><station city="Верхняя Сыроватка" direction="Сумское" esr="433830" importance="4" lat="50.830237" lon="34.990000" popular_title="" region="Сумская область" short_title="Железняк" title="Железняк" /><station direction="Конотопское" esr="329001" importance="4" lat="51.213979" lon="33.540142" popular_title="" region="Сумская область" short_title="Грузское" title="Грузское" /><station direction="Льговское" esr="003029" importance="4" lat="51.729274" lon="36.225130" popular_title="" region="Курская область" short_title="472 км" title="472 км" /><station direction="Льговское" esr="003030" importance="4" lat="51.606966" lon="35.454979" popular_title="" region="Курская область" short_title="412 км" title="412 км" /><station direction="Тёткинское" esr="003035" importance="4" lat="51.218411" lon="34.234080" popular_title="" region="Сумская область" short_title="234 км" title="234 км" /><station direction="Сумское" esr="001654" importance="4" lat="50.823991" lon="35.048857" popular_title="" region="Сумская область" short_title="14 км" title="14 км" /><station direction="Сумское" esr="001655" importance="4" lat="51.014037" lon="34.409858" popular_title="" region="Сумская область" short_title="24 км" title="24 км" /><station direction="Сумское" esr="001656" importance="4" lat="51.071943" lon="34.331283" popular_title="" region="Сумская область" short_title="15 км" title="15 км" /><station city="Сумы" direction="Сумское" esr="445217" importance="4" lat="50.935214" lon="34.766747" popular_title="" region="Сумская область" short_title="52 км" title="52 км" /><station city="Сумы" direction="Сумское" esr="445310" importance="3" lat="50.926473" lon="34.834328" popular_title="" region="Сумская область" short_title="58 км" title="58 км" /><station direction="Сумское" esr="002519" importance="4" lat="50.725576" lon="34.865401" popular_title="" region="Сумская область" short_title="86 км" title="86 км" /><station direction="Сумское" esr="002518" importance="4" lat="50.573668" lon="34.505084" popular_title="" region="Сумская область" short_title="29 км" title="29 км" /><station direction="Сумское" esr="002520" importance="4" lat="51.014476" lon="34.415613" popular_title="" region="Сумская область" short_title="4 км" title="4 км" /><station direction="Сумское" esr="002521" importance="4" lat="51.021071" lon="34.377194" popular_title="" region="Сумская область" short_title="7 км" title="7 км" /><station city="Жовтневое" direction="Сумское" esr="445005" importance="1" lat="51.050390" lon="34.346321" popular_title="" region="Сумская область" short_title="Веринский Завод" title="Веринский Завод" /></suburban_zone>