<?xml version='1.0' encoding='UTF-8'?>
<suburban_zone id="193"><station city="Киев" direction="Киевское" esr="320308" importance="1" lat="50.440046" lon="30.488236" popular_title="" region="Киев и Киевская область" short_title="Киев-Пасс." title="Киев-Пасс." /><station city="Киев" direction="Киевское" esr="320505" importance="3" lat="50.413415" lon="30.432892" popular_title="" region="Киев и Киевская область" short_title="Киев-Волынский" title="Киев-Волынский" /><station city="Киев" direction="Киевское" esr="320100" importance="3" lat="50.405254" lon="30.536880" popular_title="" region="Киев и Киевская область" short_title="Киев-Московский" title="Киев-Московский" /><station city="Киев" direction="Киевское" esr="320007" importance="2" lat="50.431415" lon="30.645705" popular_title="" region="Киев и Киевская область" short_title="Дарница" title="Дарница" /><station city="Дружба" direction="Конотопское" esr="328704" importance="1" lat="52.044009" lon="33.945087" popular_title="" region="Сумская область" short_title="Хутор-Михайловский" title="Хутор-Михайловский" /><station city="Ямполь" direction="Конотопское" esr="328600" importance="2" lat="51.910454" lon="33.744566" popular_title="" region="Сумская область" short_title="Янполь" title="Янполь" /><station direction="Конотопское" esr="328121" importance="3" lat="51.825679" lon="33.588917" popular_title="" region="Сумская область" short_title="Маково" title="Маково" /><station city="Воронеж (Сумской)" direction="Конотопское" esr="328102" importance="1" lat="51.764023" lon="33.480954" popular_title="" region="Сумская область" short_title="Терещенская" title="Терещенская" /><station direction="Конотопское" esr="328013" importance="4" lat="51.702947" lon="33.450899" popular_title="" region="Сумская область" short_title="Пиротчино" title="Пиротчино" /><station direction="Конотопское" esr="327913" importance="4" lat="51.642724" lon="33.435264" popular_title="" region="Сумская область" short_title="Брюловецкий" title="Брюловецкий" /><station city="Шостка" direction="Конотопское" esr="328206" importance="2" lat="51.858314" lon="33.479487" popular_title="" region="Сумская область" short_title="Шостка" title="Шостка" /><station direction="Конотопское" esr="327612" importance="4" lat="51.369599" lon="33.153567" popular_title="" region="Сумская область" short_title="Мельня" title="Мельня" /><station direction="Конотопское" esr="327504" importance="4" lat="51.263040" lon="33.172872" popular_title="" region="Сумская область" short_title="Виревка" title="Виревка" /><station city="Кролевец" direction="Конотопское" esr="327805" importance="2" lat="51.551802" lon="33.363560" popular_title="" region="Сумская область" short_title="Кролевец" title="Кролевец" /><station city="Кобыжча" direction="Киевское" esr="323700" importance="1" lat="50.824864" lon="31.549955" popular_title="" region="Черниговская область" short_title="Кобыжчи" title="Кобыжчи" /><station direction="Конотопское" esr="326022" importance="4" lat="51.202890" lon="32.995289" popular_title="" region="Черниговская область" short_title="Халимоново" title="Халимоново" /><station city="Бахмач" direction="Конотопское" esr="326003" importance="1" lat="51.187777" lon="32.841551" popular_title="" region="Черниговская область" short_title="Бахмач-Пасс." title="Бахмач-Пасс." /><station city="Бахмач" direction="Конотопское" esr="325903" importance="2" lat="51.180597" lon="32.800649" popular_title="" region="Черниговская область" short_title="Бахмач-Киевский" title="Бахмач-Киевский" /><station direction="Конотопское" esr="325829" importance="4" lat="51.124485" lon="32.614851" popular_title="" region="Черниговская область" short_title="Черемушки" title="Черемушки" /><station city="Плиски" direction="Конотопское" esr="325802" importance="1" lat="51.102406" lon="32.441706" popular_title="" region="Черниговская область" short_title="Плиски" title="Плиски" /><station direction="Конотопское" esr="325706" importance="4" lat="51.080781" lon="32.145404" popular_title="" region="Черниговская область" short_title="Круты" title="Круты" /><station city="Конотоп" direction="Конотопское" esr="327400" importance="2" lat="51.223240" lon="33.187739" popular_title="" region="Сумская область" short_title="Конотоп" title="Конотоп" /><station direction="Черниговское" esr="325015" importance="4" lat="51.430675" lon="31.316919" popular_title="" region="Черниговская область" short_title="Колычевка" title="Колычевка" /><station direction="Черниговское" esr="325208" importance="4" lat="51.425750" lon="31.552885" popular_title="" region="Черниговская область" short_title="Муравейка" title="Муравейка" /><station city="Куликовка" direction="Черниговское" esr="325301" importance="1" lat="51.367156" lon="31.663916" popular_title="" region="Черниговская область" short_title="им. Бориса Олейника" title="им. Бориса Олейника" /><station city="Вересочь" direction="Черниговское" esr="325316" importance="1" lat="51.326425" lon="31.784238" popular_title="" region="Черниговская область" short_title="Вересочь" title="Вересочь" /><station city="Вертиевка" direction="Черниговское" esr="325424" importance="1" lat="51.177433" lon="31.881564" popular_title="" region="Черниговская область" short_title="Вертеевка" title="Вертеевка" /><station direction="Черниговское" esr="325602" importance="4" lat="51.095284" lon="31.905371" popular_title="" region="Черниговская область" short_title="Липовый Рог" title="Липовый Рог" /><station city="Носовка" direction="Киевское" esr="323804" importance="1" lat="50.903321" lon="31.603886" popular_title="" region="Черниговская область" short_title="Носовка" title="Носовка" /><station city="Бобровица" direction="Киевское" esr="323607" importance="1" lat="50.763497" lon="31.370973" popular_title="" region="Черниговская область" short_title="Бобровицы" title="Бобровицы" /><station direction="Киевское" esr="323503" importance="4" lat="50.689422" lon="31.135171" popular_title="" region="Киев и Киевская область" short_title="Заворичи" title="Заворичи" /><station city="Бровары" direction="Киевское" esr="323306" importance="2" lat="50.514415" lon="30.813546" popular_title="" region="Киев и Киевская область" short_title="Бровары" title="Бровары" /><station direction="Черниговское" esr="324811" importance="4" lat="51.501894" lon="31.004584" popular_title="" region="Черниговская область" short_title="Жукотки" title="Жукотки" /><station direction="Черниговское" esr="324845" importance="4" lat="51.504088" lon="30.907955" popular_title="" region="Черниговская область" short_title="Малейки" title="Малейки" /><station direction="Черниговское" esr="324703" importance="4" lat="51.511388" lon="30.637985" popular_title="" region="Черниговская область" short_title="Неданчичи" title="Неданчичи" /><station city="Нежин" direction="Киевское" esr="324008" importance="2" lat="51.020196" lon="31.894306" popular_title="" region="Черниговская область" short_title="Нежин" title="Нежин" /><station city="Алтыновка" direction="Конотопское" esr="327701" importance="1" lat="51.452895" lon="33.219784" popular_title="" region="Сумская область" short_title="Алтыновка" title="Алтыновка" /><station direction="Конотопское" esr="325833" importance="4" lat="51.134300" lon="32.665609" popular_title="" region="Черниговская область" short_title="Старый Луг" title="Старый Луг" /><station city="Киев" direction="Киевское" esr="320312" importance="3" lat="50.436995" lon="30.448361" popular_title="" region="Киев и Киевская область" short_title="Караваевы Дачи" title="Караваевы Дачи" /><station direction="Черниговское" esr="324722" importance="4" lat="51.506756" lon="30.838963" popular_title="" region="Черниговская область" short_title="Демейка" title="Демейка" /><station direction="Черниговское" esr="324737" importance="4" lat="51.521698" lon="30.676416" popular_title="" region="Киев и Киевская область" short_title="Поселок Лесной" title="Поселок Лесной" /><station direction="Киевское" esr="323541" importance="4" lat="50.701533" lon="31.189129" popular_title="" region="Киев и Киевская область" short_title="Трубеж" title="Трубеж" /><station direction="Киевское" esr="323838" importance="4" lat="50.999579" lon="31.839649" popular_title="" region="Черниговская область" short_title="Григоро-Ивановка" title="Григоро-Ивановка" /><station direction="Черниговское" esr="325621" importance="4" lat="51.045236" lon="31.913100" popular_title="" region="Черниговская область" short_title="Мигалевка" title="Мигалевка" /><station direction="Конотопское" esr="327720" importance="4" lat="51.474897" lon="33.273565" popular_title="" region="Сумская область" short_title="Майоровка" title="Майоровка" /><station direction="Конотопское" esr="324027" importance="4" lat="51.154427" lon="32.725491" popular_title="" region="Черниговская область" short_title="669 км" title="669 км" /><station city="Чернигов" direction="Черниговское" esr="325000" importance="1" lat="51.485746" lon="31.266236" popular_title="" region="Черниговская область" short_title="Чернигов" title="Чернигов" /><station direction="Конотопское" esr="328831" importance="4" lat="52.080813" lon="33.973347" popular_title="" region="Сумская область" short_title="515 км" title="515 км" /><station direction="Черниговское" esr="325034" importance="4" lat="51.425729" lon="31.435148" popular_title="" region="Черниговская область" short_title="Бакланово" title="Бакланово" /><station direction="Черниговское" esr="324826" importance="4" lat="51.501385" lon="31.060299" popular_title="" region="Черниговская область" short_title="Левковичи" title="Левковичи" /><station direction="Киевское" esr="323522" importance="4" lat="50.730772" lon="31.284686" popular_title="" region="Черниговская область" short_title="Марковцы" title="Марковцы" /><station direction="Киевское" esr="323819" importance="4" lat="50.944006" lon="31.688277" popular_title="" region="Черниговская область" short_title="Опытная" title="Опытная" /><station direction="Конотопское" esr="328827" importance="4" lat="52.116848" lon="33.985177" popular_title="" region="Сумская область" short_title="Шалимовка" title="Шалимовка" /><station city="Середина-Буда" direction="Конотопское" esr="328808" importance="1" lat="52.182410" lon="34.022070" popular_title="" region="Сумская область" short_title="Зёрново" title="Зёрново" /><station direction="Конотопское" esr="328628" importance="4" lat="51.976392" lon="33.851395" popular_title="" region="Сумская область" short_title="Неплюево" title="Неплюево" /><station direction="Черниговское" esr="325021" importance="4" lat="51.422827" lon="31.354834" popular_title="" region="Черниговская область" short_title="Анисово" title="Анисово" /><station direction="Киевское" esr="320030" importance="4" lat="50.479110" lon="30.758056" popular_title="" region="Киев и Киевская область" short_title="Ялынка" title="Ялынка" /><station direction="Киевское" esr="323414" importance="4" lat="50.679677" lon="31.096908" popular_title="" region="Киев и Киевская область" short_title="Семиполки" title="Семиполки" /><station city="Киев" direction="Киевское" esr="320026" importance="4" lat="50.442022" lon="30.689393" popular_title="" region="Киев и Киевская область" short_title="ДВРЗ" title="ДВРЗ" /><station direction="Киевское" esr="323344" importance="4" lat="50.626416" lon="31.001609" popular_title="" region="Киев и Киевская область" short_title="Жердово" title="Жердово" /><station direction="Конотопское" esr="326037" importance="4" lat="51.216472" lon="33.128145" popular_title="" region="Сумская область" short_title="Куколка" title="Куколка" /><station direction="Киевское" esr="323537" importance="4" lat="50.745719" lon="31.320964" popular_title="" region="Черниговская область" short_title="Макаровка" title="Макаровка" /><station direction="Черниговское" esr="324830" importance="4" lat="51.493801" lon="31.160208" popular_title="" region="Черниговская область" short_title="Белоус" title="Белоус" /><station city="Киев" direction="Киевское" esr="320219" importance="3" lat="50.426224" lon="30.506025" popular_title="" region="Киев и Киевская область" short_title="Протасов Яр" title="Протасов Яр" /><station city="Ямполь" direction="Конотопское" esr="328615" importance="4" lat="51.942241" lon="33.798602" popular_title="" region="Сумская область" short_title="Ивотка" title="Ивотка" /><station direction="Киевское" esr="323611" importance="4" lat="50.798514" lon="31.501294" popular_title="" region="Черниговская область" short_title="Попудренка" title="Попудренка" /><station direction="Киевское" esr="323310" importance="4" lat="50.534363" lon="30.845047" popular_title="" region="Киев и Киевская область" short_title="Квитневый" title="Квитневый" /><station city="Киев" direction="Киевское" esr="320079" importance="3" lat="50.421215" lon="30.605738" popular_title="" region="Киев и Киевская область" short_title="Левый Берег" title="Левый Берег" /><station direction="Конотопское" esr="328166" importance="4" lat="51.786718" lon="33.491874" popular_title="" region="Сумская область" short_title="Осота" title="Осота" /><station direction="Конотопское" esr="326018" importance="4" lat="51.195718" lon="32.925941" popular_title="" region="Черниговская область" short_title="Хутор Халимоново" title="Хутор Халимоново" /><station direction="Киевское" esr="323715" importance="4" lat="50.865400" lon="31.578036" popular_title="" region="Черниговская область" short_title="Космическая" title="Космическая" /><station direction="Киевское" esr="323518" importance="4" lat="50.712338" lon="31.230556" popular_title="" region="Черниговская область" short_title="Ярославка" title="Ярославка" /><station direction="Киевское" esr="323823" importance="4" lat="50.969741" lon="31.758213" popular_title="" region="Черниговская область" short_title="Красные Партизаны" title="Красные Партизаны" /><station city="Бровары" direction="Киевское" esr="320045" importance="4" lat="50.496163" lon="30.784836" popular_title="" region="Киев и Киевская область" short_title="Княжичи" title="Княжичи" /><station direction="Черниговское" esr="325417" importance="4" lat="51.262592" lon="31.826636" popular_title="" region="Черниговская область" short_title="Дремайловка" title="Дремайловка" /><station direction="Конотопское" esr="324012" importance="4" lat="51.061191" lon="32.033600" popular_title="" region="Черниговская область" short_title="Приостерный" title="Приостерный" /><station direction="Киевское" esr="323401" importance="4" lat="50.659024" lon="31.060361" popular_title="" region="Киев и Киевская область" short_title="Бобрик" title="Бобрик" /><station direction="Конотопское" esr="325710" importance="4" lat="51.084489" lon="32.269350" popular_title="" region="Черниговская область" short_title="Хорошее Озеро" title="Хорошее Озеро" /><station city="Славутич" direction="Черниговское" esr="324718" importance="2" lat="51.514633" lon="30.754302" popular_title="" region="Киев и Киевская область" short_title="Славутич" title="Славутич" /><station direction="Конотопское" esr="325814" importance="4" lat="51.113961" lon="32.543820" popular_title="" region="Черниговская область" short_title="Великая Загоровка" title="Великая Загоровка" /><station direction="Киевское" esr="323325" importance="4" lat="50.570205" lon="30.902985" popular_title="" region="Киев и Киевская область" short_title="Парниковая" title="Парниковая" /><station direction="Конотопское" esr="328174" importance="4" lat="51.830258" lon="33.486912" popular_title="" region="Сумская область" short_title="Бригадный" title="Бригадный" /><station direction="Конотопское" esr="327716" importance="4" lat="51.494938" lon="33.307576" popular_title="" region="Сумская область" short_title="Лапшин" title="Лапшин" /><station city="Киев" direction="Киевское" esr="320011" importance="4" lat="50.438244" lon="30.674801" popular_title="" region="Киев и Киевская область" short_title="Дарница-депо" title="Дарница-депо" /><station city="Великая Дымерка" direction="Киевское" esr="323335" importance="1" lat="50.592910" lon="30.943028" popular_title="" region="Киев и Киевская область" short_title="Дымерка" title="Дымерка" /><station direction="Конотопское" esr="327627" importance="4" lat="51.424554" lon="33.193198" popular_title="" region="Сумская область" short_title="Присеймовье" title="Присеймовье" /><station direction="Конотопское" esr="327523" importance="4" lat="51.318479" lon="33.157726" popular_title="" region="Сумская область" short_title="Река Сейм" title="Река Сейм" /><station direction="Конотопское" esr="327818" importance="4" lat="51.598277" lon="33.384970" popular_title="" region="Сумская область" short_title="Реть" title="Реть" /><station direction="Прилукское" esr="428828" importance="4" lat="50.620743" lon="32.274439" popular_title="" region="Черниговская область" short_title="58 км" title="58 км" /><station city="Прилуки" direction="Прилукское" esr="429002" importance="2" lat="50.581080" lon="32.383890" popular_title="" region="Черниговская область" short_title="Прилуки" title="Прилуки" /><station city="Гребёнка" direction="Прилукское" esr="428300" importance="1" lat="50.121514" lon="32.432522" popular_title="" region="Полтавская область" short_title="Гребёнка" title="Гребёнка" /><station direction="Прилукское" esr="428705" importance="4" lat="50.874487" lon="31.988637" popular_title="" region="Черниговская область" short_title="Лосиновка" title="Лосиновка" /><station direction="Прилукское" esr="428739" importance="4" lat="50.789038" lon="32.099988" popular_title="" region="Черниговская область" short_title="Яхновка" title="Яхновка" /><station city="Малая Девица" direction="Прилукское" esr="428809" importance="1" lat="50.706445" lon="32.191041" popular_title="" region="Черниговская область" short_title="Галка" title="Галка" /><station city="Линовица" direction="Прилукское" esr="428508" importance="1" lat="50.472595" lon="32.376051" popular_title="" region="Черниговская область" short_title="Линовицы" title="Линовицы" /><station direction="Прилукское" esr="428438" importance="4" lat="50.366146" lon="32.403943" popular_title="" region="Полтавская область" short_title="Грабаровка" title="Грабаровка" /><station direction="Прилукское" esr="428419" importance="4" lat="50.285527" lon="32.434764" popular_title="" region="Полтавская область" short_title="Сосиновка" title="Сосиновка" /><station city="Пирятин" direction="Прилукское" esr="428404" importance="2" lat="50.238152" lon="32.506021" popular_title="" region="Полтавская область" short_title="Пирятин" title="Пирятин" /><station direction="Прилукское" esr="428423" importance="4" lat="50.312355" lon="32.435269" popular_title="" region="Полтавская область" short_title="773 км" title="773 км" /><station direction="Прилукское" esr="428512" importance="4" lat="50.544929" lon="32.395618" popular_title="" region="Черниговская область" short_title="746 км" title="746 км" /><station direction="Прилукское" esr="428813" importance="4" lat="50.641873" lon="32.240359" popular_title="" region="Черниговская область" short_title="51 км" title="51 км" /><station direction="Прилукское" esr="428724" importance="4" lat="50.834812" lon="32.035729" popular_title="" region="Черниговская область" short_title="27 км" title="27 км" /><station direction="Прилукское" esr="428710" importance="4" lat="50.937632" lon="31.917963" popular_title="" region="Черниговская область" short_title="Крапивная" title="Крапивная" /><station direction="Прилукское" esr="428353" importance="4" lat="50.129697" lon="32.460862" popular_title="" region="Полтавская область" short_title="База" title="База" /><station direction="Прилукское" esr="428368" importance="4" lat="50.195115" lon="32.487637" popular_title="" region="Полтавская область" short_title="Тарасовка" title="Тарасовка" /><station city="Киев" direction="Киевское" esr="002312" importance="3" lat="50.402704" lon="30.559150" popular_title="" region="Киев и Киевская область" short_title="Выдубичи" title="Выдубичи" /><station direction="Черниговское" esr="002302" importance="4" lat="51.063560" lon="31.910094" popular_title="" region="Черниговская область" short_title="Нефар" title="Нефар" /><station direction="Черниговское" esr="325513" importance="4" lat="51.129904" lon="31.899274" popular_title="" region="Черниговская область" short_title="Заячьи Сосны" title="Заячьи Сосны" /><station direction="Черниговское" esr="002301" importance="4" lat="51.342916" lon="31.725820" popular_title="" region="Черниговская область" short_title="144 км" title="144 км" /><station direction="Черниговское" esr="325212" importance="4" lat="51.404989" lon="31.622734" popular_title="" region="Черниговская область" short_title="Хуторянка" title="Хуторянка" /><station direction="Конотопское" esr="002367" importance="4" lat="51.805229" lon="33.552363" popular_title="" region="Сумская область" short_title="560 км" title="560 км" /><station direction="Прилукское" esr="002534" importance="4" lat="50.120745" lon="32.457764" popular_title="" region="Полтавская область" short_title="798 км" title="798 км" /><station direction="Прилукское" esr="002535" importance="4" lat="50.254518" lon="32.483696" popular_title="" region="Полтавская область" short_title="780 км" title="780 км" /><station direction="Прилукское" esr="428832" importance="4" lat="50.593227" lon="32.348261" popular_title="" region="Черниговская область" short_title="61 км" title="61 км" /><station direction="Прилукское" esr="002537" importance="4" lat="50.978012" lon="31.871250" popular_title="" region="Черниговская область" short_title="Хвыливка" title="Хвыливка" /><station direction="Прилукское" esr="002546" importance="4" lat="50.509064" lon="32.389572" popular_title="" region="Черниговская область" short_title="750 км" title="750 км" /></suburban_zone>