<?xml version='1.0' encoding='UTF-8'?>
<suburban_zone id="200"><station city="Дербент" direction="Дербентское" esr="544501" importance="2" lat="42.055006" lon="48.307323" popular_title="" region="Республика Дагестан" short_title="Дербент" title="Дербент" /><station direction="Хасавюртовское" esr="542722" importance="4" lat="43.249827" lon="46.719099" popular_title="" region="Республика Дагестан" short_title="Карлан-Юрт" title="Карлан-Юрт" /><station city="Кизилюрт" direction="Хасавюртовское" esr="542807" importance="2" lat="43.205523" lon="46.866761" popular_title="" region="Республика Дагестан" short_title="Кизилюрт" title="Кизилюрт" /><station direction="Хасавюртовское" esr="543000" importance="4" lat="43.053477" lon="47.332017" popular_title="" region="Республика Дагестан" short_title="Шамхал" title="Шамхал" /><station city="Хасавюрт" direction="Хасавюртовское" esr="542703" importance="1" lat="43.261451" lon="46.588901" popular_title="" region="Республика Дагестан" short_title="Хасав-Юрт" title="Хасав-Юрт" /><station direction="Дербентское" esr="543509" importance="4" lat="42.896893" lon="47.552043" popular_title="" region="Республика Дагестан" short_title="Тарки" title="Тарки" /><station direction="Дербентское" esr="543706" importance="4" lat="42.726812" lon="47.681490" popular_title="" region="Республика Дагестан" short_title="Манас" title="Манас" /><station direction="Дербентское" esr="543833" importance="4" lat="42.659192" lon="47.721608" popular_title="" region="Республика Дагестан" short_title="Ачи" title="Ачи" /><station city="Избербаш" direction="Дербентское" esr="543903" importance="2" lat="42.546589" lon="47.884494" popular_title="" region="Республика Дагестан" short_title="Избербаш" title="Избербаш" /><station direction="Дербентское" esr="544003" importance="4" lat="42.471100" lon="47.940327" popular_title="" region="Республика Дагестан" short_title="Инчхе" title="Инчхе" /><station city="Новокаякент" direction="Дербентское" esr="544145" importance="1" lat="42.388951" lon="47.987031" popular_title="" region="Республика Дагестан" short_title="Каягент" title="Каягент" /><station direction="Дербентское" esr="544215" importance="4" lat="42.222121" lon="48.070902" popular_title="" region="Республика Дагестан" short_title="Берикей" title="Берикей" /><station city="Мамедкала" direction="Дербентское" esr="544304" importance="1" lat="42.165720" lon="48.113048" popular_title="" region="Республика Дагестан" short_title="Мамед-Кала" title="Мамед-Кала" /><station city="Дагестанские Огни" direction="Дербентское" esr="544408" importance="2" lat="42.122171" lon="48.205093" popular_title="" region="Республика Дагестан" short_title="Дагестанские Огни" title="Дагестанские Огни" /><station direction="Дербентское" esr="544616" importance="4" lat="41.966758" lon="48.335377" popular_title="" region="Республика Дагестан" short_title="Араблинская" title="Араблинская" /><station city="Белиджи" direction="Дербентское" esr="544709" importance="1" lat="41.877746" lon="48.390649" popular_title="" region="Республика Дагестан" short_title="Белиджи" title="Белиджи" /><station direction="Дербентское" esr="544802" importance="4" lat="41.824662" lon="48.481027" popular_title="" region="Республика Дагестан" short_title="Самур" title="Самур" /><station direction="Дербентское" esr="544713" importance="4" lat="41.828218" lon="48.438803" popular_title="" region="Республика Дагестан" short_title="2444 км (Азад-Оглы)" title="2444 км (Азад-Оглы)" /><station direction="Дербентское" esr="544427" importance="4" lat="42.092252" lon="48.279725" popular_title="" region="Республика Дагестан" short_title="2411 км" title="2411 км" /><station direction="Дербентское" esr="544412" importance="4" lat="42.102137" lon="48.259897" popular_title="" region="Республика Дагестан" short_title="2408 км" title="2408 км" /><station direction="Дербентское" esr="544319" importance="4" lat="42.132128" lon="48.173424" popular_title="" region="Республика Дагестан" short_title="2398 км" title="2398 км" /><station direction="Дербентское" esr="544130" importance="4" lat="42.274741" lon="48.042113" popular_title="" region="Республика Дагестан" short_title="2383 км" title="2383 км" /><station direction="Дербентское" esr="544126" importance="4" lat="42.317105" lon="48.019775" popular_title="" region="Республика Дагестан" short_title="2376 км (Папас)" title="2376 км (Папас)" /><station direction="Дербентское" esr="544111" importance="4" lat="42.365696" lon="47.999155" popular_title="" region="Республика Дагестан" short_title="2370 км" title="2370 км" /><station direction="Дербентское" esr="544018" importance="4" lat="42.419975" lon="47.972676" popular_title="" region="Республика Дагестан" short_title="2363 км" title="2363 км" /><station direction="Дербентское" esr="543829" importance="4" lat="42.600318" lon="47.799861" popular_title="" region="Республика Дагестан" short_title="2336 км (Уллубиево)" title="2336 км (Уллубиево)" /><station direction="Дербентское" esr="543710" importance="4" lat="42.687242" lon="47.705286" popular_title="" region="Республика Дагестан" short_title="2323 км" title="2323 км" /><station direction="Дербентское" esr="543547" importance="4" lat="42.760653" lon="47.663231" popular_title="" region="Республика Дагестан" short_title="2313 км" title="2313 км" /><station direction="Дербентское" esr="543532" importance="4" lat="42.808425" lon="47.614673" popular_title="" region="Республика Дагестан" short_title="2307 км (Уйташ)" title="2307 км (Уйташ)" /><station direction="Дербентское" esr="543528" importance="4" lat="42.843944" lon="47.596628" popular_title="" region="Республика Дагестан" short_title="2304 км" title="2304 км" /><station direction="Дербентское" esr="543513" importance="4" lat="42.867517" lon="47.575666" popular_title="" region="Республика Дагестан" short_title="2300 км" title="2300 км" /><station city="Махачкала" direction="Дербентское" esr="543316" importance="4" lat="42.949329" lon="47.526315" popular_title="" region="Республика Дагестан" short_title="2290 км" title="2290 км" /><station direction="Хасавюртовское" esr="543025" importance="4" lat="43.021872" lon="47.418813" popular_title="" region="Республика Дагестан" short_title="2280 км (Вагонное депо)" title="2280 км (Вагонное депо)" /><station direction="Хасавюртовское" esr="542920" importance="4" lat="43.075105" lon="47.284949" popular_title="" region="Республика Дагестан" short_title="2265 км" title="2265 км" /><station direction="Хасавюртовское" esr="542915" importance="4" lat="43.097929" lon="47.225178" popular_title="" region="Республика Дагестан" short_title="2259 км (Алмало)" title="2259 км (Алмало)" /><station direction="Хасавюртовское" esr="542845" importance="4" lat="43.132677" lon="47.131671" popular_title="" region="Республика Дагестан" short_title="2244 км" title="2244 км" /><station direction="Хасавюртовское" esr="542830" importance="4" lat="43.158893" lon="47.058464" popular_title="" region="Республика Дагестан" short_title="2240 км (Кульзеб)" title="2240 км (Кульзеб)" /><station direction="Хасавюртовское" esr="542826" importance="4" lat="43.181531" lon="46.992428" popular_title="" region="Республика Дагестан" short_title="2236 км" title="2236 км" /><station direction="Хасавюртовское" esr="542811" importance="4" lat="43.189956" lon="46.966295" popular_title="" region="Республика Дагестан" short_title="2233 км" title="2233 км" /><station city="Сулак" direction="Хасавюртовское" esr="542741" importance="2" lat="43.208936" lon="46.826020" popular_title="" region="Республика Дагестан" short_title="Сулак" title="Сулак" /><station direction="Хасавюртовское" esr="542737" importance="4" lat="43.236648" lon="46.739729" popular_title="" region="Республика Дагестан" short_title="2219 км" title="2219 км" /><station city="Махачкала" direction="Хасавюртовское" esr="543301" importance="2" lat="42.987496" lon="47.504151" popular_title="" region="Республика Дагестан" short_title="Махачкала" title="Махачкала" /><station direction="Хасавюртовское" esr="543015" importance="4" lat="43.044566" lon="47.353772" popular_title="" region="Республика Дагестан" short_title="2275 км (Богатырёво)" title="2275 км (Богатырёво)" /><station direction="Дербентское" esr="543814" importance="4" lat="42.628808" lon="47.754211" popular_title="" region="Республика Дагестан" short_title="2330 км" title="2330 км" /><station direction="Хасавюртовское" esr="542934" importance="4" lat="43.129216" lon="47.141152" popular_title="" region="Республика Дагестан" short_title="Темиргое" title="Темиргое" /><station city="Махачкала" direction="Хасавюртовское" esr="540106" importance="4" lat="43.002147" lon="47.467470" popular_title="" region="Республика Дагестан" short_title="Махачкала-Сорт." title="Махачкала-Сорт." /><station direction="Хасавюртовское" esr="239" importance="4" lat="43.258612" lon="46.609507" popular_title="" region="Республика Дагестан" short_title="2206 км (Могилёвское)" title="2206 км (Могилёвское)" /><station direction="Хасавюртовское" esr="240" importance="4" lat="43.256650" lon="46.628484" popular_title="" region="Республика Дагестан" short_title="2208 км (Байрам)" title="2208 км (Байрам)" /><station direction="Хасавюртовское" esr="241" importance="4" lat="43.255003" lon="46.653982" popular_title="" region="Республика Дагестан" short_title="2212 км" title="2212 км" /><station direction="Хасавюртовское" esr="242" importance="4" lat="43.255834" lon="46.680468" popular_title="" region="Республика Дагестан" short_title="2214 км (Нуцалаул)" title="2214 км (Нуцалаул)" /><station direction="Хасавюртовское" esr="243" importance="4" lat="43.208278" lon="46.834034" popular_title="" region="Республика Дагестан" short_title="2224 км (Водокачка)" title="2224 км (Водокачка)" /><station direction="Хасавюртовское" esr="244" importance="4" lat="43.201457" lon="46.911668" popular_title="" region="Республика Дагестан" short_title="2230 км (Комсомольское)" title="2230 км (Комсомольское)" /><station direction="Хасавюртовское" esr="245" importance="4" lat="43.174864" lon="47.012465" popular_title="" region="Республика Дагестан" short_title="2237 км" title="2237 км" /><station direction="Хасавюртовское" esr="246" importance="4" lat="43.164303" lon="47.042889" popular_title="" region="Республика Дагестан" short_title="2239 км (Пельтиевский)" title="2239 км (Пельтиевский)" /><station direction="Хасавюртовское" esr="247" importance="4" lat="43.151411" lon="47.081077" popular_title="" region="Республика Дагестан" short_title="2242 км" title="2242 км" /><station direction="Хасавюртовское" esr="248" importance="4" lat="43.033598" lon="47.383889" popular_title="" region="Республика Дагестан" short_title="2277 км (Красноармейск)" title="2277 км (Красноармейск)" /><station city="Махачкала" direction="Дербентское" esr="249" importance="4" lat="42.930541" lon="47.532643" popular_title="" region="Республика Дагестан" short_title="2292 км (Дачи)" title="2292 км (Дачи)" /><station direction="Дербентское" esr="250" importance="4" lat="42.909231" lon="47.544593" popular_title="" region="Республика Дагестан" short_title="2294 км" title="2294 км" /><station direction="Дербентское" esr="251" importance="4" lat="42.590723" lon="47.859758" popular_title="" region="Республика Дагестан" short_title="2341 км" title="2341 км" /><station direction="Дербентское" esr="252" importance="4" lat="42.199995" lon="48.090594" popular_title="" region="Республика Дагестан" short_title="2389 км (Деличубан)" title="2389 км (Деличубан)" /><station direction="Дербентское" esr="253" importance="4" lat="42.072521" lon="48.297235" popular_title="" region="Республика Дагестан" short_title="2413 км" title="2413 км" /><station direction="Дербентское" esr="254" importance="4" lat="42.042571" lon="48.314230" popular_title="" region="Республика Дагестан" short_title="2417 км (Вагонное депо)" title="2417 км (Вагонное депо)" /><station direction="Дербентское" esr="255" importance="4" lat="42.026936" lon="48.323798" popular_title="" region="Республика Дагестан" short_title="2419 км (Больница)" title="2419 км (Больница)" /><station direction="Дербентское" esr="256" importance="4" lat="42.009061" lon="48.330619" popular_title="" region="Республика Дагестан" short_title="2421 км (Совхоз Карла Маркса)" title="2421 км (Совхоз Карла Маркса)" /><station direction="Дербентское" esr="257" importance="4" lat="41.986636" lon="48.331691" popular_title="" region="Республика Дагестан" short_title="2423 км (Вир)" title="2423 км (Вир)" /><station direction="Дербентское" esr="258" importance="4" lat="41.945254" lon="48.343474" popular_title="" region="Республика Дагестан" short_title="2429 км (Авадан)" title="2429 км (Авадан)" /><station direction="Дербентское" esr="259" importance="4" lat="41.929740" lon="48.353117" popular_title="" region="Республика Дагестан" short_title="2432 км (Аладаш)" title="2432 км (Аладаш)" /><station direction="Дербентское" esr="260" importance="4" lat="41.906854" lon="48.367480" popular_title="" region="Республика Дагестан" short_title="2435 км (Нахалкент)" title="2435 км (Нахалкент)" /><station direction="Дербентское" esr="261" importance="4" lat="41.865342" lon="48.403725" popular_title="" region="Республика Дагестан" short_title="2438 км (Хпеш)" title="2438 км (Хпеш)" /><station direction="Дербентское" esr="262" importance="4" lat="41.850247" lon="48.420063" popular_title="" region="Республика Дагестан" short_title="2441 км (Кумух)" title="2441 км (Кумух)" /><station direction="Дербентское" esr="263" importance="4" lat="41.818034" lon="48.503223" popular_title="" region="Республика Дагестан" short_title="2449 км (Тагиркент)" title="2449 км (Тагиркент)" /><station direction="Дербентское" esr="264" importance="4" lat="41.811600" lon="48.509627" popular_title="" region="Республика Дагестан" short_title="2451 км" title="2451 км" /><station direction="Дербентское" esr="265" importance="4" lat="41.803305" lon="48.519892" popular_title="" region="Республика Дагестан" short_title="2452 км" title="2452 км" /><station direction="Дербентское" esr="544906" importance="4" lat="41.787101" lon="48.544888" popular_title="" region="Республика Дагестан" short_title="Граница (2454 км)" title="Граница (2454 км)" /></suburban_zone>