<?xml version='1.0' encoding='UTF-8'?>
<suburban_zone id="208"><station city="Тында" direction="Тында-Сковородино" esr="910000" importance="2" lat="55.138473" lon="124.731742" popular_title="" region="Амурская область" short_title="Тында" title="Тында" /><station direction="Тында-Новый Ургал" esr="916401" importance="4" lat="51.753430" lon="131.025125" popular_title="" region="Амурская область" short_title="Иса" title="Иса" /><station direction="Тында-Новый Ургал" esr="916115" importance="4" lat="52.301685" lon="130.910678" popular_title="" region="Амурская область" short_title="Звонкое" title="Звонкое" /><station direction="Тында-Новый Ургал" esr="916124" importance="4" lat="52.086495" lon="130.931130" popular_title="" region="Амурская область" short_title="Демченко" title="Демченко" /><station direction="Тында-Новый Ургал" esr="916134" importance="4" lat="51.907940" lon="131.001791" popular_title="" region="Амурская область" short_title="Исакан" title="Исакан" /><station direction="Тында-Сковородино" esr="910424" importance="4" lat="54.625017" lon="123.971932" popular_title="" region="Амурская область" short_title="Аносовская" title="Аносовская" /><station direction="Тында-Сковородино" esr="910417" importance="4" lat="54.564238" lon="123.814892" popular_title="" region="Амурская область" short_title="Пурикан" title="Пурикан" /><station direction="Тында-Сковородино" esr="910320" importance="4" lat="54.649119" lon="124.070095" popular_title="" region="Амурская область" short_title="Силип" title="Силип" /><station direction="Тында-Сковородино" esr="910316" importance="4" lat="54.751088" lon="124.229358" popular_title="" region="Амурская область" short_title="Заболотное" title="Заболотное" /><station direction="Тында-Сковородино" esr="910208" importance="4" lat="55.014802" lon="124.614168" popular_title="" region="Амурская область" short_title="Сети" title="Сети" /><station direction="Тында-Новый Ургал" esr="910802" importance="4" lat="55.157807" lon="124.886278" popular_title="" region="Амурская область" short_title="Шахтаум" title="Шахтаум" /><station direction="Тында-Новый Ургал" esr="910833" importance="4" lat="55.254963" lon="125.039065" popular_title="" region="Амурская область" short_title="Бестужево" title="Бестужево" /><station direction="Тында-Сковородино" esr="910335" importance="4" lat="54.865007" lon="124.380560" popular_title="" region="Амурская область" short_title="Беленькая" title="Беленькая" /><station direction="Тында-Хани" esr="909003" importance="4" lat="55.765067" lon="122.768242" popular_title="" region="Амурская область" short_title="Лопча" title="Лопча" /><station city="Февральск" direction="Тында-Новый Ургал" esr="916100" importance="2" lat="52.455695" lon="130.845416" popular_title="" region="Амурская область" short_title="Февральск" title="Февральск" /><station direction="Тында-Сковородино" esr="910602" importance="4" lat="54.428084" lon="123.863478" popular_title="" region="Амурская область" short_title="Муртыгит" title="Муртыгит" /><station direction="Тында-Новый Ургал" esr="912307" importance="4" lat="55.129539" lon="126.787423" popular_title="" region="Амурская область" short_title="Дипкун" title="Дипкун" /><station direction="Тында-Новый Ургал" esr="911709" importance="4" lat="55.312376" lon="125.894469" popular_title="" region="Амурская область" short_title="Маревая" title="Маревая" /><station direction="Тында-Новый Ургал" esr="911906" importance="4" lat="55.148350" lon="126.584575" popular_title="" region="Амурская область" short_title="Унаха" title="Унаха" /><station direction="Тында-Хани" esr="905002" importance="4" lat="55.191185" lon="124.217065" popular_title="" region="Амурская область" short_title="Кувыкта" title="Кувыкта" /><station direction="Тында-Хани" esr="904813" importance="4" lat="55.373257" lon="123.763969" popular_title="" region="Амурская область" short_title="Хорогочи" title="Хорогочи" /><station direction="Тында-Хани" esr="909501" importance="4" lat="55.440254" lon="123.598446" popular_title="" region="Амурская область" short_title="Лумбир" title="Лумбир" /><station direction="Тында-Хани" esr="909304" importance="4" lat="55.499660" lon="123.115883" popular_title="" region="Амурская область" short_title="Ларба" title="Ларба" /><station direction="Тында-Хани" esr="909018" importance="4" lat="55.620054" lon="122.867805" popular_title="" region="Амурская область" short_title="Эльгакан" title="Эльгакан" /><station direction="Тында-Хани" esr="908706" importance="4" lat="56.012533" lon="122.407795" popular_title="" region="Амурская область" short_title="Чильчи" title="Чильчи" /><station direction="Тында-Хани" esr="904743" importance="4" lat="56.388923" lon="121.974453" popular_title="" region="Амурская область" short_title="Дюгабуль" title="Дюгабуль" /><station direction="Тында-Хани" esr="904705" importance="4" lat="56.594828" lon="121.630139" popular_title="" region="Амурская область" short_title="Юктали" title="Юктали" /><station direction="Тында-Новый Ургал" esr="910922" importance="4" lat="55.301875" lon="125.275191" popular_title="" region="Амурская область" short_title="Джалингра" title="Джалингра" /><station city="Сковородино" direction="Тында-Сковородино" esr="951706" importance="2" lat="53.987093" lon="123.937362" popular_title="" region="Амурская область" short_title="Сковородино" title="Сковородино" /><station direction="Тында-Сковородино" esr="951617" importance="4" lat="54.112927" lon="123.764175" popular_title="" region="Амурская область" short_title="Горелый" title="Горелый" /><station direction="Тында-Хани" esr="001191" importance="4" lat="56.561148" lon="121.885699" popular_title="" region="Амурская область" short_title="Талума" title="Талума" /><station direction="Тында-Хани" esr="001190" importance="4" lat="56.215556" lon="122.152442" popular_title="" region="Амурская область" short_title="Ункур" title="Ункур" /><station direction="Тында-Хани" esr="001188" importance="4" lat="55.300969" lon="124.051024" popular_title="" region="Амурская область" short_title="Кутыкан" title="Кутыкан" /><station direction="Тында-Хани" esr="001187" importance="4" lat="55.143736" lon="124.548809" popular_title="" region="Амурская область" short_title="Курьян" title="Курьян" /><station direction="Тында-Новый Ургал" esr="001186" importance="4" lat="55.278874" lon="125.620387" popular_title="" region="Амурская область" short_title="Амут" title="Амут" /><station direction="Тында-Новый Ургал" esr="001185" importance="4" lat="55.235851" lon="126.190525" popular_title="" region="Амурская область" short_title="Змейка" title="Змейка" /><station direction="Тында-Новый Ургал" esr="001184" importance="4" lat="55.198690" lon="126.333856" popular_title="" region="Амурская область" short_title="Кудули" title="Кудули" /><station direction="Тында-Хани" esr="001189" importance="4" lat="55.943114" lon="122.538428" popular_title="" region="Амурская область" short_title="Марихта" title="Марихта" /><station direction="Тында-Хани" esr="001192" importance="4" popular_title="" region="Амурская область" short_title="2107 км" title="2107 км" /></suburban_zone>