<?xml version='1.0' encoding='UTF-8'?>
<suburban_zone id="21"><station direction="Волоколамское" esr="197613" importance="3" lat="55.993838" lon="35.784663" popular_title="" region="Москва и Московская область" short_title="Благовещенс." title="Благовещенское" /><station city="Волоколамск" direction="Волоколамское" esr="197609" importance="2" lat="55.993568" lon="35.935707" popular_title="" region="Москва и Московская область" short_title="Волоколамск" title="Волоколамск" /><station city="Бухолово" direction="Волоколамское" esr="197628" importance="1" lat="56.009483" lon="35.643469" popular_title="" region="Москва и Московская область" short_title="Бухолово" title="Бухолово" /><station city="Шаховская" direction="Волоколамское" esr="197702" importance="2" lat="56.029619" lon="35.510284" popular_title="" region="Москва и Московская область" short_title="Шаховская" title="Шаховская" /><station direction="Вяземское" esr="173820" importance="4" lat="55.997215" lon="34.319084" popular_title="" region="Тверская область" short_title="168 км" title="168 км" /><station direction="Вяземское" esr="174013" importance="4" lat="55.367121" lon="34.358745" popular_title="" region="Смоленская область" short_title="Меркучево" title="Меркучево" /><station direction="Вяземское" esr="174043" importance="4" lat="55.263440" lon="34.325885" popular_title="" region="Смоленская область" short_title="Кокорево" title="Кокорево" /><station direction="Вяземское" esr="173816" importance="4" lat="55.907526" lon="34.318860" popular_title="" region="Смоленская область" short_title="Помельница" title="Помельница" /><station direction="Вяземское" esr="174024" importance="4" lat="55.321246" lon="34.343078" popular_title="" region="Смоленская область" short_title="Фомкино" title="Фомкино" /><station city="Вязьма" direction="Вяземское" esr="174306" importance="1" lat="55.197503" lon="34.317338" popular_title="" region="Смоленская область" short_title="Вязьма" title="Вязьма" /><station direction="Вяземское" esr="174058" importance="4" lat="55.392751" lon="34.329747" popular_title="" region="Смоленская область" short_title="Касня" title="Касня" /><station direction="Вяземское" esr="173905" importance="4" lat="55.631488" lon="34.295692" popular_title="" region="Смоленская область" short_title="Новодугинская" title="Новодугинская" /><station city="Сычевка" direction="Вяземское" esr="173801" importance="2" lat="55.843505" lon="34.294048" popular_title="" region="Смоленская область" short_title="Сычевка" title="Сычевка" /><station direction="Вяземское" esr="173841" importance="4" lat="55.709901" lon="34.297237" popular_title="" region="Смоленская область" short_title="Вазуза" title="Вазуза" /><station direction="Вяземское" esr="174039" importance="4" lat="55.295652" lon="34.326415" popular_title="" region="Смоленская область" short_title="Новое Село" title="Новое Село" /><station direction="Вяземское" esr="173939" importance="4" lat="55.503191" lon="34.322130" popular_title="" region="Смоленская область" short_title="Александрино" title="Александрино" /><station direction="Вяземское" esr="173835" importance="4" lat="55.790656" lon="34.293761" popular_title="" region="Смоленская область" short_title="191 км" title="191 км" /><station direction="Вяземское" esr="173924" importance="4" lat="55.545024" lon="34.311700" popular_title="" region="Смоленская область" short_title="Усадище" title="Усадище" /><station city="Вязьма" direction="Вяземское" esr="174109" importance="2" lat="55.226575" lon="34.319075" popular_title="" region="Смоленская область" short_title="Вязьма-Новоторжская" title="Вязьма-Новоторжская" /><station direction="Вяземское" esr="173943" importance="4" lat="55.427341" lon="34.326253" popular_title="" region="Смоленская область" short_title="232 км" title="232 км" /><station direction="Вяземское" esr="173918" importance="4" lat="55.588501" lon="34.302960" popular_title="" region="Смоленская область" short_title="215 км" title="215 км" /><station city="Муриково" direction="Волоколамское" esr="063325" importance="1" lat="56.031705" lon="35.405431" popular_title="" region="Москва и Московская область" short_title="Муриково" title="Муриково" /><station direction="Волоколамское" esr="063419" importance="4" lat="56.137651" lon="34.794557" popular_title="" region="Тверская область" short_title="Курково" title="Курково" /><station direction="Волоколамское" esr="063423" importance="4" lat="56.148806" lon="34.662119" popular_title="" region="Тверская область" short_title="Бартенево" title="Бартенево" /><station direction="Волоколамское" esr="063512" importance="4" lat="56.194180" lon="34.456330" popular_title="" region="Тверская область" short_title="Аристово" title="Аристово" /><station city="Ржев" direction="Торжокское" esr="063029" importance="4" lat="56.247724" lon="34.291221" popular_title="" region="Тверская область" short_title="Мелихово" title="Мелихово" /><station direction="Великолукское" esr="064411" importance="4" lat="56.195487" lon="33.793486" popular_title="" region="Тверская область" short_title="Лошаки" title="Лошаки" /><station direction="Великолукское" esr="064727" importance="4" lat="56.230043" lon="32.583097" popular_title="" region="Тверская область" short_title="Подсосенка" title="Подсосенка" /><station direction="Великолукское" esr="065310" importance="4" lat="56.291912" lon="31.915820" popular_title="" region="Тверская область" short_title="Улин" title="Улин" /><station direction="Великолукское" esr="065325" importance="4" lat="56.289855" lon="31.775808" popular_title="" region="Тверская область" short_title="Барсово" title="Барсово" /><station direction="Великолукское" esr="065819" importance="2" lat="56.323350" lon="30.871993" popular_title="" region="Псковская область" short_title="Таборы" title="Таборы" /><station direction="Великолукское" esr="065823" importance="4" lat="56.327595" lon="30.718489" popular_title="" region="Псковская область" short_title="Сердце" title="Сердце" /><station direction="Великолукское" esr="066737" importance="4" lat="56.322201" lon="30.434770" popular_title="" region="Псковская область" short_title="Воробецкая" title="Воробецкая" /><station direction="Великолукское" esr="066652" importance="4" lat="56.317203" lon="30.291479" popular_title="" region="Псковская область" short_title="Гущино" title="Гущино" /><station direction="Великолукское" esr="065113" importance="4" lat="56.092029" lon="32.368429" popular_title="" region="Тверская область" short_title="Откос" title="Откос" /><station direction="Великолукское" esr="065128" importance="4" lat="56.172881" lon="32.408880" popular_title="" region="Тверская область" short_title="10 км" title="10 км" /><station direction="Великолукское" esr="064303" importance="4" lat="56.223647" lon="34.111793" popular_title="" region="Тверская область" short_title="Мончалово" title="Мончалово" /><station direction="Вяземское" esr="063635" importance="4" lat="56.153593" lon="34.314772" popular_title="" region="Тверская область" short_title="Рождествено" title="Рождествено" /><station city="Княжьи Горы" direction="Волоколамское" esr="063315" importance="1" lat="56.075169" lon="35.234248" popular_title="" region="Тверская область" short_title="Княжьи Горы" title="Княжьи Горы" /><station direction="Волоколамское" esr="063349" importance="4" lat="56.108372" lon="35.067576" popular_title="" region="Тверская область" short_title="Обовражье" title="Обовражье" /><station direction="Волоколамское" esr="063404" importance="4" lat="56.126002" lon="34.917209" popular_title="" region="Тверская область" short_title="Погорелое Городище" title="Погорелое Городище" /><station city="Зубцов" direction="Волоколамское" esr="063508" importance="2" lat="56.162821" lon="34.557869" popular_title="" region="Тверская область" short_title="Зубцов" title="Зубцов" /><station direction="Великолукское" esr="063014" importance="4" lat="56.232728" lon="34.226920" popular_title="" region="Тверская область" short_title="Муравьёво" title="Муравьёво" /><station direction="Великолукское" esr="064430" importance="4" lat="56.202697" lon="33.899379" popular_title="" region="Тверская область" short_title="Чертолино" title="Чертолино" /><station direction="Великолукское" esr="064426" importance="4" lat="56.193023" lon="33.667035" popular_title="" region="Тверская область" short_title="Махерово" title="Махерово" /><station city="Оленино" direction="Великолукское" esr="064500" importance="2" lat="56.204692" lon="33.483785" popular_title="" region="Тверская область" short_title="Оленино" title="Оленино" /><station direction="Великолукское" esr="064515" importance="4" lat="56.220574" lon="33.285444" popular_title="" region="Тверская область" short_title="Ильмановка" title="Ильмановка" /><station direction="Великолукское" esr="064604" importance="4" lat="56.219909" lon="33.142560" popular_title="" region="Тверская область" short_title="Мостовая" title="Мостовая" /><station direction="Великолукское" esr="064619" importance="4" lat="56.228719" lon="32.952300" popular_title="" region="Тверская область" short_title="Паникля" title="Паникля" /><station city="Ржев" direction="Великолукское" esr="063006" importance="1" lat="56.239115" lon="34.319434" popular_title="" region="Тверская область" short_title="Ржев-Балтийский" title="Ржев-Балтийский" /><station direction="Великолукское" esr="064820" importance="3" lat="56.245530" lon="32.379883" popular_title="" region="Тверская область" short_title="Земцы" title="Земцы" /><station direction="Великолукское" esr="064816" importance="4" lat="56.267386" lon="32.233939" popular_title="" region="Тверская область" short_title="Замошье" title="Замошье" /><station direction="Великолукское" esr="065518" importance="4" lat="56.288142" lon="31.508849" popular_title="" region="Тверская область" short_title="Русаново" title="Русаново" /><station direction="Великолукское" esr="065611" importance="4" lat="56.281512" lon="31.349333" popular_title="" region="Псковская область" short_title="Жижица" title="Жижица" /><station direction="Великолукское" esr="065734" importance="4" lat="56.283358" lon="31.158229" popular_title="" region="Псковская область" short_title="Артёмово" title="Артёмово" /><station city="Кунья" direction="Великолукское" esr="065804" importance="1" lat="56.294660" lon="30.982675" popular_title="" region="Псковская область" short_title="Кунья" title="Кунья" /><station city="Нелидово" direction="Великолукское" esr="064708" importance="2" lat="56.221006" lon="32.777696" popular_title="" region="Тверская область" short_title="Нелидово" title="Нелидово" /><station direction="Торжокское" esr="064002" importance="4" lat="56.901966" lon="34.944043" popular_title="" region="Тверская область" short_title="Льняная" title="Льняная" /><station direction="Торжокское" esr="063828" importance="4" lat="56.695961" lon="34.909162" popular_title="" region="Тверская область" short_title="Высокое" title="Высокое" /><station city="Старица" direction="Торжокское" esr="063705" importance="2" lat="56.537947" lon="34.779247" popular_title="" region="Тверская область" short_title="Старица" title="Старица" /><station direction="Торжокское" esr="063137" importance="4" lat="56.483504" lon="34.683679" popular_title="" region="Тверская область" short_title="Зарубино" title="Зарубино" /><station direction="Торжокское" esr="063122" importance="4" lat="56.419122" lon="34.567560" popular_title="" region="Тверская область" short_title="Панино" title="Панино" /><station direction="Торжокское" esr="063118" importance="4" lat="56.341418" lon="34.450374" popular_title="" region="Тверская область" short_title="Есиповская" title="Есиповская" /><station city="Ржев" direction="Торжокское" esr="063103" importance="2" lat="56.272417" lon="34.311762" popular_title="" region="Тверская область" short_title="Ржев-Белорусский" title="Ржев-Белорусский" /><station direction="Вяземское" esr="063601" importance="4" lat="56.029838" lon="34.322767" popular_title="" region="Тверская область" short_title="Осуга" title="Осуга" /><station city="Новосокольники" direction="Великолукское" esr="066602" importance="2" lat="56.343029" lon="30.146983" popular_title="" region="Псковская область" short_title="Новосокольники" title="Новосокольники" /><station direction="Великолукское" esr="065407" importance="4" lat="56.280102" lon="31.664990" popular_title="" region="Тверская область" short_title="Старая Торопа" title="Старая Торопа" /><station city="Торжок" direction="Торжокское" esr="064106" importance="2" lat="57.042271" lon="34.980296" popular_title="" region="Тверская область" short_title="Торжок" title="Торжок" /><station direction="Торжокское" esr="063921" importance="4" lat="56.825986" lon="34.953262" popular_title="" region="Тверская область" short_title="Пожитово" title="Пожитово" /><station city="Великие Луки" direction="Великолукское" esr="066008" importance="2" lat="56.340105" lon="30.562705" popular_title="" region="Псковская область" short_title="Великие Луки" title="Великие Луки" /><station direction="Вяземское" esr="063644" importance="4" lat="56.183759" lon="34.309499" popular_title="" region="Тверская область" short_title="147 км" title="147 км" /><station city="Западная Двина" direction="Великолукское" esr="065306" importance="2" lat="56.261602" lon="32.075196" popular_title="" region="Тверская область" short_title="Западная Двина" title="Западная Двина" /><station direction="Великолукское" esr="064318" importance="4" lat="56.216003" lon="34.018493" popular_title="" region="Тверская область" short_title="Ерзово" title="Ерзово" /><station direction="Великолукское" esr="066648" importance="4" lat="56.315146" lon="30.239655" popular_title="" region="Псковская область" short_title="500 км" title="500 км" /><station direction="Великолукское" esr="066667" importance="4" lat="56.323807" lon="30.348189" popular_title="" region="Псковская область" short_title="489 км" title="489 км" /><station direction="Великолукское" esr="065132" importance="4" lat="55.983532" lon="32.323424" popular_title="" region="Тверская область" short_title="Кащёнки" title="Кащёнки" /><station direction="Торжокское" esr="063724" importance="4" lat="56.635758" lon="34.838389" popular_title="" region="Тверская область" short_title="83 км" title="83 км" /><station city="Великие Луки" direction="Великолукское" esr="066718" importance="4" lat="56.335419" lon="30.494491" popular_title="" region="Псковская область" short_title="481 км" title="481 км" /><station city="Жарковский" direction="Великолукское" esr="065005" importance="1" lat="55.851460" lon="32.272609" popular_title="" region="Тверская область" short_title="Жарковский" title="Жарковский" /><station direction="Великолукское" esr="065715" importance="4" lat="56.288583" lon="31.212497" popular_title="" region="Псковская область" short_title="434 км" title="434 км" /><station direction="Волоколамское" esr="316" importance="3" lat="55.995765" lon="35.829944" popular_title="" region="Москва и Московская область" short_title="133 км" title="133 км" /><station direction="Волоколамское" esr="318" importance="3" lat="56.021276" lon="35.588279" popular_title="" region="Москва и Московская область" short_title="149 км" title="149 км" /><station direction="Волоколамское" esr="317" importance="3" lat="56.006194" lon="35.708085" popular_title="" region="Москва и Московская область" short_title="141 км" title="141 км" /><station direction="Волоколамское" esr="610" importance="4" lat="56.050040" lon="35.370359" popular_title="" region="Москва и Московская область" short_title="165 км" title="165 км" /><station direction="Волоколамское" esr="609" importance="4" lat="56.055062" lon="35.331156" popular_title="" region="Москва и Московская область" short_title="167 км" title="167 км" /><station direction="Волоколамское" esr="608" importance="4" lat="56.082161" lon="35.187743" popular_title="" region="Тверская область" short_title="176 км" title="176 км" /><station direction="Волоколамское" esr="607" importance="4" lat="56.100904" lon="35.113297" popular_title="" region="Тверская область" short_title="180 км" title="180 км" /><station direction="Волоколамское" esr="606" importance="4" lat="56.116905" lon="35.012207" popular_title="" region="Тверская область" short_title="188 км" title="188 км" /><station direction="Волоколамское" esr="605" importance="4" lat="56.146130" lon="34.711806" popular_title="" region="Тверская область" short_title="207 км" title="207 км" /><station direction="Великолукское" esr="662" importance="4" lat="56.237096" lon="34.284877" popular_title="" region="Тверская область" short_title="239 км" title="239 км" /><station direction="Великолукское" esr="663" importance="4" lat="56.193565" lon="33.743720" popular_title="" region="Тверская область" short_title="273 км" title="273 км" /><station direction="Великолукское" esr="664" importance="4" lat="56.235786" lon="32.468170" popular_title="" region="Тверская область" short_title="354 км" title="354 км" /><station direction="Великолукское" esr="668" importance="4" lat="56.189905" lon="32.416282" popular_title="" region="Тверская область" short_title="8 км" title="8 км" /><station direction="Великолукское" esr="665" importance="4" lat="56.272210" lon="32.149752" popular_title="" region="Тверская область" short_title="375 км" title="375 км" /><station direction="Великолукское" esr="666" importance="4" lat="56.293455" lon="31.868240" popular_title="" region="Тверская область" short_title="390 км" title="390 км" /><station direction="Великолукское" esr="667" importance="4" lat="56.292200" lon="31.270929" popular_title="" region="Псковская область" short_title="Кодосно" title="Кодосно" /><station direction="Торжокское" esr="659" importance="4" lat="56.387553" lon="34.510212" popular_title="" region="Тверская область" short_title="119 км" title="119 км" /><station direction="Торжокское" esr="063710" importance="4" lat="56.575934" lon="34.793021" popular_title="" region="Тверская область" short_title="90 км" title="90 км" /><station direction="Вяземское" esr="660" importance="4" lat="56.099481" lon="34.324483" popular_title="" region="Тверская область" short_title="156 км" title="156 км" /><station direction="Вяземское" esr="661" importance="4" lat="55.674961" lon="34.296644" popular_title="" region="Смоленская область" short_title="204 км" title="204 км" /></suburban_zone>