<?xml version='1.0' encoding='UTF-8'?>
<suburban_zone id="212"><station city="Волочиск" direction="Хмельницкое" esr="330102" importance="1" lat="49.531985" lon="26.208307" popular_title="" region="Хмельницкая область" short_title="Волочиск" title="Волочиск" /><station city="Львов" direction="Львовское" esr="370006" importance="2" lat="49.840969" lon="23.994506" popular_title="" region="Львовская область" short_title="Львов-Пасс." title="Львов-Пасс." /><station city="Красное" direction="Львовское" esr="379809" importance="2" lat="49.916993" lon="24.616457" popular_title="" region="Львовская область" short_title="Красне" title="Красне" /><station city="Лановцы" direction="Шепетовское" esr="360305" importance="1" lat="49.873985" lon="26.083342" popular_title="" region="Тернопольская область" short_title="Лановцы" title="Лановцы" /><station direction="Хмельницкое" esr="361242" importance="4" lat="49.550487" lon="26.087127" popular_title="" region="Тернопольская область" short_title="Супрановка" title="Супрановка" /><station direction="Львовское" esr="379706" importance="4" lat="49.877526" lon="24.443534" popular_title="" region="Львовская область" short_title="Задворье" title="Задворье" /><station direction="Львовское" esr="379301" importance="4" lat="49.860695" lon="24.256960" popular_title="" region="Львовская область" short_title="Борщовичи" title="Борщовичи" /><station city="Ходоров" direction="Ходоровское" esr="379104" importance="2" lat="49.399390" lon="24.308042" popular_title="" region="Львовская область" short_title="Ходоров" title="Ходоров" /><station city="Чортков" direction="Чёртковское" esr="364700" importance="1" lat="49.026667" lon="25.788335" popular_title="" region="Тернопольская область" short_title="Чёртков" title="Чёртков" /><station direction="Львовское" esr="360540" importance="4" lat="49.753313" lon="25.025833" popular_title="" region="Львовская область" short_title="Плугов" title="Плугов" /><station city="Зборов" direction="Львовское" esr="360606" importance="2" lat="49.691794" lon="25.133019" popular_title="" region="Тернопольская область" short_title="Зборов" title="Зборов" /><station direction="Львовское" esr="360632" importance="4" lat="49.642303" lon="25.334264" popular_title="" region="Тернопольская область" short_title="Озерна" title="Озерна" /><station direction="Львовское" esr="360709" importance="4" lat="49.617299" lon="25.533173" popular_title="" region="Тернопольская область" short_title="Глубочек-Великий" title="Глубочек-Великий" /><station direction="Ходоровское" esr="362601" importance="3" lat="49.490912" lon="25.605221" popular_title="" region="Тернопольская область" short_title="Березовица-Остров" title="Березовица-Остров" /><station direction="Чёртковское" esr="362616" importance="4" lat="49.416716" lon="25.684756" popular_title="" region="Тернопольская область" short_title="Прошова" title="Прошова" /><station direction="Чёртковское" esr="362809" importance="4" lat="49.360099" lon="25.650117" popular_title="" region="Тернопольская область" short_title="Микулинцы-Струсов" title="Микулинцы-Струсов" /><station city="Теребовля" direction="Чёртковское" esr="362902" importance="1" lat="49.298542" lon="25.696709" popular_title="" region="Тернопольская область" short_title="Трембовля" title="Трембовля" /><station direction="Чёртковское" esr="363002" importance="4" lat="49.240020" lon="25.770250" popular_title="" region="Тернопольская область" short_title="Дереневка" title="Дереневка" /><station city="Хоростков" direction="Чёртковское" esr="363106" importance="1" lat="49.195107" lon="25.910771" popular_title="" region="Тернопольская область" short_title="Хоростков" title="Хоростков" /><station city="Копычинцы" direction="Чёртковское" esr="363303" importance="2" lat="49.099015" lon="25.931236" popular_title="" region="Тернопольская область" short_title="Копычинцы" title="Копычинцы" /><station direction="Чёртковское" esr="363604" importance="4" lat="49.045812" lon="25.901053" popular_title="" region="Тернопольская область" short_title="Годынковцы" title="Годынковцы" /><station direction="Чёртковское" esr="363708" importance="3" lat="49.039350" lon="25.860468" popular_title="" region="Тернопольская область" short_title="Выгнанка" title="Выгнанка" /><station direction="Чёртковское" esr="364804" importance="4" lat="49.022615" lon="25.723897" popular_title="" region="Тернопольская область" short_title="Белая-Чёртковская" title="Белая-Чёртковская" /><station direction="Шепетовское" esr="360254" importance="4" lat="49.775944" lon="25.873391" popular_title="" region="Тернопольская область" short_title="Карначевка" title="Карначевка" /><station city="Збараж" direction="Шепетовское" esr="360201" importance="2" lat="49.678154" lon="25.762144" popular_title="" region="Тернопольская область" short_title="Збараж" title="Збараж" /><station direction="Хмельницкое" esr="361204" importance="4" lat="49.596372" lon="25.907299" popular_title="" region="Тернопольская область" short_title="Максимовка-Тернопольская" title="Максимовка-Тернопольская" /><station city="Великие Борки" direction="Хмельницкое" esr="360907" importance="1" lat="49.531872" lon="25.758130" popular_title="" region="Тернопольская область" short_title="Борки-Великие" title="Борки-Великие" /><station city="Толстое" direction="Чёртковское" esr="365008" importance="2" lat="48.854898" lon="25.725730" popular_title="" region="Тернопольская область" short_title="Товсте" title="Товсте" /><station direction="Чёртковское" esr="364908" importance="4" lat="48.933508" lon="25.736148" popular_title="" region="Тернопольская область" short_title="Ягельница" title="Ягельница" /><station city="Золочев" direction="Львовское" esr="360502" importance="2" lat="49.788890" lon="24.891919" popular_title="" region="Львовская область" short_title="Злочев" title="Злочев" /><station city="Львов" direction="Львовское" esr="370203" importance="3" lat="49.851326" lon="24.036091" popular_title="" region="Львовская область" short_title="Подзамче" title="Подзамче" /><station city="Залещики" direction="Чёртковское" esr="365205" importance="2" lat="48.645093" lon="25.738140" popular_title="" region="Тернопольская область" short_title="Залещики" title="Залещики" /><station direction="Ходоровское" esr="379157" importance="4" lat="49.407999" lon="24.436903" popular_title="" region="Ивано-Франковская область" short_title="Помонято" title="Помонято" /><station direction="Ходоровское" esr="361721" importance="4" lat="49.378771" lon="24.899776" popular_title="" region="Тернопольская область" short_title="Мечищев" title="Мечищев" /><station direction="Ходоровское" esr="362531" importance="4" lat="49.484418" lon="25.560670" popular_title="" region="Тернопольская область" short_title="Буцнев" title="Буцнев" /><station direction="Шепетовское" esr="360273" importance="4" lat="49.792192" lon="25.928931" popular_title="" region="Тернопольская область" short_title="Вышгородок" title="Вышгородок" /><station direction="Хмельницкое" esr="360945" importance="4" lat="49.531596" lon="25.779115" popular_title="" region="Тернопольская область" short_title="Дачи" title="Дачи" /><station direction="Чёртковское" esr="365402" importance="3" lat="48.618507" lon="25.687590" popular_title="" region="Черновицкая область" short_title="Стефанешты" title="Стефанешты" /><station direction="Чёртковское" esr="365309" importance="4" lat="48.644594" lon="25.719272" popular_title="" region="Черновицкая область" short_title="Кострижевка" title="Кострижевка" /><station city="Подволочиск" direction="Хмельницкое" esr="361308" importance="1" lat="49.529112" lon="26.139039" popular_title="" region="Тернопольская область" short_title="Подволочиск" title="Подволочиск" /><station city="Тернополь" direction="Шепетовское" esr="360004" importance="1" lat="49.553918" lon="25.600548" popular_title="" region="Тернопольская область" short_title="Тернополь-пасс." title="Тернополь-пасс." /><station direction="Чёртковское" esr="365313" importance="4" lat="48.646918" lon="25.681549" popular_title="" region="Черновицкая область" short_title="Прилипче" title="Прилипче" /><station direction="Чёртковское" esr="363924" importance="4" lat="48.852495" lon="26.040133" popular_title="" region="Тернопольская область" short_title="Тересин" title="Тересин" /><station city="Пуков" direction="Ходоровское" esr="361613" importance="1" lat="49.381331" lon="24.686884" popular_title="" region="Ивано-Франковская область" short_title="Пуков" title="Пуков" /><station direction="Хмельницкое" esr="360951" importance="4" lat="49.552492" lon="25.811501" popular_title="" region="Тернопольская область" short_title="Ангеловка" title="Ангеловка" /><station direction="Хмельницкое" esr="361257" importance="4" lat="49.554599" lon="26.056448" popular_title="" region="Тернопольская область" short_title="Росоховатец" title="Росоховатец" /><station direction="Шепетовское" esr="360057" importance="4" lat="49.637816" lon="25.669365" popular_title="" region="Тернопольская область" short_title="Стегниковцы" title="Стегниковцы" /><station direction="Львовское" esr="360555" importance="4" lat="49.721819" lon="25.101611" popular_title="" region="Тернопольская область" short_title="Метенев" title="Метенев" /><station direction="Львовское" esr="360663" importance="4" lat="49.804254" lon="24.855222" popular_title="" region="Львовская область" short_title="Ясеневцы" title="Ясеневцы" /><station direction="Чёртковское" esr="363712" importance="4" lat="49.018923" lon="25.876855" popular_title="" region="Тернопольская область" short_title="Пастушье" title="Пастушье" /><station direction="Чёртковское" esr="362620" importance="4" lat="49.394640" lon="25.671569" popular_title="" region="Тернопольская область" short_title="Зелёный Гай" title="Зелёный Гай" /><station direction="Чёртковское" esr="362813" importance="4" lat="49.334687" lon="25.681142" popular_title="" region="Тернопольская область" short_title="Кровинка" title="Кровинка" /><station direction="Чёртковское" esr="363017" importance="4" lat="49.212792" lon="25.843667" popular_title="" region="Тернопольская область" short_title="Говилов" title="Говилов" /><station direction="Чёртковское" esr="363619" importance="4" lat="49.081431" lon="25.916025" popular_title="" region="Тернопольская область" short_title="Котовка" title="Котовка" /><station direction="Чёртковское" esr="365120" importance="4" lat="48.835593" lon="25.699055" popular_title="" region="Тернопольская область" short_title="Рожановка" title="Рожановка" /><station direction="Чёртковское" esr="364912" importance="4" lat="48.897547" lon="25.741323" popular_title="" region="Тернопольская область" short_title="Мухавка" title="Мухавка" /><station direction="Ходоровское" esr="362252" importance="4" lat="49.401780" lon="25.056337" popular_title="" region="Тернопольская область" short_title="Литятин" title="Литятин" /><station direction="Ходоровское" esr="361736" importance="4" lat="49.371003" lon="24.958601" popular_title="" region="Тернопольская область" short_title="Рыбники" title="Рыбники" /><station direction="Ходоровское" esr="361740" importance="4" lat="49.396841" lon="24.822493" popular_title="" region="Тернопольская область" short_title="Гутиско" title="Гутиско" /><station direction="Ходоровское" esr="361628" importance="4" lat="49.379309" lon="24.645081" popular_title="" region="Ивано-Франковская область" short_title="Путяинцы" title="Путяинцы" /><station city="Борщев" direction="Чёртковское" esr="364109" importance="2" lat="48.803485" lon="26.060858" popular_title="" region="Тернопольская область" short_title="Борщев" title="Борщев" /><station direction="Чёртковское" esr="364128" importance="4" lat="48.685884" lon="26.168954" popular_title="" region="Тернопольская область" short_title="Гермаковка" title="Гермаковка" /><station city="Иване-Пусте" direction="Чёртковское" esr="364202" importance="2" lat="48.644521" lon="26.173941" popular_title="" region="Тернопольская область" short_title="Иване-Пусте" title="Иване-Пусте" /><station direction="Львовское" esr="360517" importance="4" lat="49.820440" lon="24.787950" popular_title="" region="Львовская область" short_title="Княже" title="Княже" /><station direction="Чёртковское" esr="363905" importance="4" lat="48.889069" lon="25.946546" popular_title="" region="Тернопольская область" short_title="Озеряны-Пилатковцы" title="Озеряны-Пилатковцы" /><station direction="Ходоровское" esr="362508" importance="4" lat="49.471462" lon="25.353423" popular_title="" region="Тернопольская область" short_title="Денисов-Купчинце" title="Денисов-Купчинце" /><station city="Рогатин" direction="Ходоровское" esr="361609" importance="2" lat="49.403085" lon="24.616992" popular_title="" region="Ивано-Франковская область" short_title="Рогатин" title="Рогатин" /><station direction="Львовское" esr="379725" importance="4" lat="49.901374" lon="24.547799" popular_title="" region="Львовская область" short_title="Куткор" title="Куткор" /><station direction="Львовское" esr="379710" importance="4" lat="49.887927" lon="24.489925" popular_title="" region="Львовская область" short_title="Полтва" title="Полтва" /><station direction="Львовское" esr="360644" importance="4" lat="49.628637" lon="25.420755" popular_title="" region="Тернопольская область" short_title="Цебров" title="Цебров" /><station city="Козова" direction="Ходоровское" esr="362404" importance="2" lat="49.429635" lon="25.164789" popular_title="" region="Тернопольская область" short_title="Козова" title="Козова" /><station direction="Львовское" esr="379316" importance="4" lat="49.873562" lon="24.348589" popular_title="" region="Львовская область" short_title="Полоничи" title="Полоничи" /><station direction="Ходоровское" esr="362207" importance="4" lat="49.377623" lon="24.985127" popular_title="" region="Тернопольская область" short_title="Потуторы" title="Потуторы" /><station direction="Львовское" esr="360625" importance="4" lat="49.663415" lon="25.216078" popular_title="" region="Тернопольская область" short_title="Ярчевцы" title="Ярчевцы" /><station direction="Ходоровское" esr="361702" importance="4" lat="49.383350" lon="24.780202" popular_title="" region="Тернопольская область" short_title="Подвысокое" title="Подвысокое" /><station direction="Львовское" esr="370218" importance="4" lat="49.847223" lon="24.133320" popular_title="" region="Львовская область" short_title="Подборцы" title="Подборцы" /><station direction="Львовское" esr="360521" importance="4" lat="49.853724" lon="24.736986" popular_title="" region="Львовская область" short_title="Скваржава" title="Скваржава" /><station direction="Шепетовское" esr="360042" importance="4" lat="49.621180" lon="25.662439" popular_title="" region="Тернопольская область" short_title="Курники" title="Курники" /><station direction="Хмельницкое" esr="361238" importance="4" lat="49.548885" lon="26.023708" popular_title="" region="Тернопольская область" short_title="Богдановка-Каменка" title="Богдановка-Каменка" /><station direction="Чёртковское" esr="365101" importance="4" lat="48.756478" lon="25.711157" popular_title="" region="Тернопольская область" short_title="Торске" title="Торске" /><station direction="Львовское" esr="002616" importance="4" lat="49.845753" lon="24.166112" popular_title="" region="Львовская область" short_title="1460 км" title="1460 км" /><station direction="Львовское" esr="002617" importance="4" lat="49.861729" lon="24.280465" popular_title="" region="Львовская область" short_title="Залуги" title="Залуги" /><station direction="Львовское" esr="360536" importance="4" lat="49.769394" lon="24.977457" popular_title="" region="Львовская область" short_title="Зарваница" title="Зарваница" /><station direction="Львовское" esr="360610" importance="4" lat="49.675545" lon="25.157984" popular_title="" region="Тернопольская область" short_title="Тустоголовы" title="Тустоголовы" /><station direction="Львовское" esr="360659" importance="4" lat="49.628629" lon="25.483282" popular_title="" region="Тернопольская область" short_title="Куровцы-Тернопольские" title="Куровцы-Тернопольские" /><station direction="Львовское" esr="360714" importance="4" lat="49.585058" lon="25.573555" popular_title="" region="Тернопольская область" short_title="Белая" title="Белая" /><station city="Тернополь" direction="Львовское" esr="002619" importance="4" lat="49.566341" lon="25.592683" popular_title="" region="Тернопольская область" short_title="Тернополь-грузовой" title="Тернополь-грузовой" /><station direction="Шепетовское" esr="002674" importance="4" lat="49.567680" lon="25.606754" popular_title="" region="Тернопольская область" short_title="151 км" title="151 км" /><station direction="Шепетовское" esr="360023" importance="4" lat="49.594723" lon="25.669956" popular_title="" region="Тернопольская область" short_title="Шляхтинцы" title="Шляхтинцы" /><station direction="Шепетовское" esr="360038" importance="4" lat="49.609458" lon="25.666112" popular_title="" region="Тернопольская область" short_title="Лозова" title="Лозова" /><station direction="Шепетовское" esr="360061" importance="4" lat="49.652821" lon="25.688166" popular_title="" region="Тернопольская область" short_title="Ивашковцы" title="Ивашковцы" /><station direction="Шепетовское" esr="360216" importance="4" lat="49.697195" lon="25.809332" popular_title="" region="Тернопольская область" short_title="Малый Глубочек" title="Малый Глубочек" /><station direction="Шепетовское" esr="360220" importance="4" lat="49.717701" lon="25.825449" popular_title="" region="Тернопольская область" short_title="Красносельцы" title="Красносельцы" /><station direction="Шепетовское" esr="360235" importance="4" lat="49.744459" lon="25.821373" popular_title="" region="Тернопольская область" short_title="Зарудечко" title="Зарудечко" /><station direction="Шепетовское" esr="360247" importance="4" lat="49.767371" lon="25.847640" popular_title="" region="Тернопольская область" short_title="Шилы" title="Шилы" /><station direction="Шепетовское" esr="360269" importance="4" lat="49.782956" lon="25.901590" popular_title="" region="Тернопольская область" short_title="Пахиня" title="Пахиня" /><station direction="Шепетовское" esr="360339" importance="4" lat="49.801574" lon="25.965304" popular_title="" region="Тернопольская область" short_title="Билка" title="Билка" /><station direction="Шепетовское" esr="360324" importance="4" lat="49.829083" lon="26.004482" popular_title="" region="Тернопольская область" short_title="Бережанка" title="Бережанка" /><station direction="Шепетовское" esr="360313" importance="4" lat="49.846796" lon="26.046863" popular_title="" region="Тернопольская область" short_title="Коськовцы" title="Коськовцы" /><station direction="Хмельницкое" esr="360080" importance="4" lat="49.523069" lon="25.681129" popular_title="" region="Тернопольская область" short_title="Гаи Великие" title="Гаи Великие" /><station direction="Хмельницкое" esr="360911" importance="4" lat="49.513966" lon="25.726374" popular_title="" region="Тернопольская область" short_title="Дычков" title="Дычков" /><station direction="Хмельницкое" esr="360926" importance="4" lat="49.538025" lon="25.804563" popular_title="" region="Тернопольская область" short_title="Романовка" title="Романовка" /><station direction="Хмельницкое" esr="360930" importance="4" lat="49.568030" lon="25.821199" popular_title="" region="Тернопольская область" short_title="Стриевка" title="Стриевка" /><station direction="Хмельницкое" esr="361219" importance="4" lat="49.586130" lon="25.952309" popular_title="" region="Тернопольская область" short_title="Гуляйполе" title="Гуляйполе" /><station direction="Хмельницкое" esr="361223" importance="4" lat="49.568850" lon="25.965521" popular_title="" region="Тернопольская область" short_title="1304 км" title="1304 км" /><station direction="Ходоровское" esr="362527" importance="4" lat="49.481975" lon="25.489839" popular_title="" region="Тернопольская область" short_title="Серединки" title="Серединки" /><station direction="Ходоровское" esr="362512" importance="4" lat="49.478539" lon="25.461569" popular_title="" region="Тернопольская область" short_title="Ходачков-Великий" title="Ходачков-Великий" /><station direction="Ходоровское" esr="002675" importance="4" lat="49.467230" lon="25.329970" popular_title="" region="Тернопольская область" short_title="21 км" title="21 км" /><station direction="Ходоровское" esr="362438" importance="4" lat="49.460154" lon="25.308531" popular_title="" region="Тернопольская область" short_title="Ставки" title="Ставки" /><station direction="Ходоровское" esr="362423" importance="4" lat="49.447054" lon="25.288700" popular_title="" region="Тернопольская область" short_title="Веснивка" title="Веснивка" /><station direction="Ходоровское" esr="362419" importance="4" lat="49.439138" lon="25.237943" popular_title="" region="Тернопольская область" short_title="Слобода-Теофипольская" title="Слобода-Теофипольская" /><station direction="Ходоровское" esr="362245" importance="4" lat="49.406920" lon="25.149060" popular_title="" region="Тернопольская область" short_title="Иосифовка" title="Иосифовка" /><station direction="Ходоровское" esr="362230" importance="4" lat="49.400179" lon="25.102287" popular_title="" region="Тернопольская область" short_title="Кривое" title="Кривое" /><station direction="Ходоровское" esr="362226" importance="4" lat="49.405681" lon="25.007162" popular_title="" region="Тернопольская область" short_title="Жовновка" title="Жовновка" /><station direction="Ходоровское" esr="361717" importance="4" lat="49.393195" lon="24.847863" popular_title="" region="Тернопольская область" short_title="Награбие" title="Награбие" /><station direction="Ходоровское" esr="361519" importance="4" lat="49.417497" lon="24.472717" popular_title="" region="Ивано-Франковская область" short_title="Приозерное" title="Приозерное" /><station direction="Чёртковское" esr="364819" importance="4" lat="48.992842" lon="25.705844" popular_title="" region="Тернопольская область" short_title="Черкавщина" title="Черкавщина" /><station direction="Чёртковское" esr="365012" importance="4" lat="48.793261" lon="25.707923" popular_title="" region="Тернопольская область" short_title="Ворволинцы" title="Ворволинцы" /><station direction="Чёртковское" esr="365116" importance="4" lat="48.709920" lon="25.686454" popular_title="" region="Тернопольская область" short_title="Дзвиняч" title="Дзвиняч" /><station direction="Чёртковское" esr="363801" importance="4" lat="48.986892" lon="25.883824" popular_title="" region="Тернопольская область" short_title="Шманковчики" title="Шманковчики" /><station direction="Чёртковское" esr="363816" importance="4" lat="48.951820" lon="25.908610" popular_title="" region="Тернопольская область" short_title="Залесье" title="Залесье" /><station direction="Чёртковское" esr="363910" importance="4" lat="48.874265" lon="26.002541" popular_title="" region="Тернопольская область" short_title="Жиленцы" title="Жиленцы" /><station direction="Чёртковское" esr="002676" importance="4" lat="48.789065" lon="26.084225" popular_title="" region="Тернопольская область" short_title="Сахарный завод" title="Сахарный завод" /><station direction="Чёртковское" esr="364113" importance="4" lat="48.757060" lon="26.133869" popular_title="" region="Тернопольская область" short_title="Волковцы -Турильче" title="Волковцы -Турильче" /></suburban_zone>