<?xml version='1.0' encoding='UTF-8'?>
<suburban_zone id="214"><station city="Львов" direction="Львовское" esr="370006" importance="2" lat="49.840969" lon="23.994506" popular_title="" region="Львовская область" short_title="Львов-Пасс." title="Львов-Пасс." /><station city="Здолбунов" direction="Ровенское" esr="350002" importance="2" lat="50.505797" lon="26.271677" popular_title="" region="Ровенская область" short_title="Здолбунов" title="Здолбунов" /><station city="Ковель" direction="Ковельское" esr="354003" importance="1" lat="51.221334" lon="24.712045" popular_title="" region="Волынская область" short_title="Ковель" title="Ковель" /><station direction="Ковельское" esr="358409" importance="4" lat="51.160628" lon="24.827617" popular_title="" region="Волынская область" short_title="Любитов" title="Любитов" /><station city="Голобы" direction="Ковельское" esr="358502" importance="1" lat="51.082479" lon="25.007433" popular_title="" region="Волынская область" short_title="Голобы" title="Голобы" /><station city="Переспа" direction="Ковельское" esr="358701" importance="1" lat="50.987698" lon="25.156430" popular_title="" region="Волынская область" short_title="Переспа" title="Переспа" /><station city="Рожище" direction="Ковельское" esr="358803" importance="2" lat="50.910293" lon="25.259325" popular_title="" region="Волынская область" short_title="Рожище" title="Рожище" /><station direction="Ровенское" esr="359100" importance="4" lat="50.783362" lon="25.741472" popular_title="" region="Волынская область" short_title="Олыка" title="Олыка" /><station direction="Ровенское" esr="359204" importance="4" lat="50.772743" lon="25.885679" popular_title="" region="Волынская область" short_title="Цумань" title="Цумань" /><station city="Клевань" direction="Ровенское" esr="359308" importance="1" lat="50.750468" lon="26.031990" popular_title="" region="Ровенская область" short_title="Клевань" title="Клевань" /><station city="Луцк" direction="Львовское" esr="357707" importance="4" lat="50.692367" lon="25.321225" popular_title="" region="Волынская область" short_title="Гнидава" title="Гнидава" /><station direction="Львовское" esr="357603" importance="4" lat="50.610847" lon="25.156329" popular_title="" region="Волынская область" short_title="Несвич-Волынский" title="Несвич-Волынский" /><station direction="Львовское" esr="357506" importance="4" lat="50.526592" lon="25.043350" popular_title="" region="Волынская область" short_title="Сенкевичевка" title="Сенкевичевка" /><station city="Луцк" direction="Львовское" esr="357800" importance="2" lat="50.759841" lon="25.350929" popular_title="" region="Волынская область" short_title="Луцк" title="Луцк" /><station direction="Львовское" esr="357406" importance="4" lat="50.518059" lon="24.908749" popular_title="" region="Волынская область" short_title="Звиняче" title="Звиняче" /><station direction="Львовское" esr="370909" importance="3" lat="50.082106" lon="24.337615" popular_title="" region="Львовская область" short_title="Сапежанка" title="Сапежанка" /><station city="Стоянов" direction="Львовское" esr="371808" importance="4" lat="50.377577" lon="24.667298" popular_title="" region="Львовская область" short_title="Стоянов" title="Стоянов" /><station city="Радехов" direction="Львовское" esr="371704" importance="2" lat="50.283743" lon="24.625399" popular_title="" region="Львовская область" short_title="Радехов" title="Радехов" /><station city="Каменка-Бугская" direction="Львовское" esr="370928" importance="2" lat="50.098628" lon="24.358416" popular_title="" region="Львовская область" short_title="Каменка-Бугская" title="Каменка-Бугская" /><station city="Львов" direction="Львовское" esr="370203" importance="3" lat="49.851326" lon="24.036091" popular_title="" region="Львовская область" short_title="Подзамче" title="Подзамче" /><station city="Луцк" direction="Львовское" esr="359026" importance="4" lat="50.782684" lon="25.360220" popular_title="" region="Волынская область" short_title="Прилуцкая" title="Прилуцкая" /><station direction="Ровенское" esr="359219" importance="4" lat="50.759350" lon="25.973586" popular_title="" region="Ровенская область" short_title="Новостав" title="Новостав" /><station direction="Ровенское" esr="359312" importance="4" lat="50.746777" lon="26.100209" popular_title="" region="Ровенская область" short_title="Оржев" title="Оржев" /><station direction="Ровенское" esr="359401" importance="4" lat="50.677975" lon="26.177023" popular_title="" region="Ровенская область" short_title="Обаров" title="Обаров" /><station city="Марьяновка" direction="Львовское" esr="357302" importance="1" lat="50.449228" lon="24.816888" popular_title="" region="Волынская область" short_title="Горохов" title="Горохов" /><station direction="Львовское" esr="357340" importance="4" lat="50.408589" lon="24.745148" popular_title="" region="Волынская область" short_title="Браны" title="Браны" /><station direction="Львовское" esr="370805" importance="4" lat="50.195602" lon="24.525992" popular_title="" region="Львовская область" short_title="Воля Холоевская" title="Воля Холоевская" /><station direction="Львовское" esr="357317" importance="4" lat="50.460920" lon="24.896754" popular_title="" region="Волынская область" short_title="Галичины" title="Галичины" /><station city="Ровно" direction="Ровенское" esr="356600" importance="2" lat="50.627646" lon="26.239728" popular_title="" region="Ровенская область" short_title="Ровно" title="Ровно" /><station city="Квасилов" direction="Ровенское" esr="356653" importance="1" lat="50.556956" lon="26.260987" popular_title="" region="Ровенская область" short_title="Квасилов" title="Квасилов" /><station direction="Ровенское" esr="359327" importance="4" lat="50.702316" lon="26.132281" popular_title="" region="Ровенская область" short_title="Рогачев" title="Рогачев" /><station direction="Львовское" esr="370735" importance="4" lat="50.048201" lon="24.332298" popular_title="" region="Львовская область" short_title="Новый Став" title="Новый Став" /><station direction="Львовское" esr="370716" importance="4" lat="49.960353" lon="24.232697" popular_title="" region="Львовская область" short_title="Руданьцы" title="Руданьцы" /><station direction="Львовское" esr="370720" importance="4" lat="50.004263" lon="24.275803" popular_title="" region="Львовская область" short_title="Колодно" title="Колодно" /><station direction="Львовское" esr="370701" importance="4" lat="49.919867" lon="24.223246" popular_title="" region="Львовская область" short_title="Запытов" title="Запытов" /><station direction="Львовское" esr="371598" importance="4" lat="50.230635" lon="24.566623" popular_title="" region="Львовская область" short_title="Узловое" title="Узловое" /><station direction="Львовское" esr="370608" importance="4" lat="49.882904" lon="24.093962" popular_title="" region="Львовская область" short_title="Дубляны-Львовские" title="Дубляны-Львовские" /><station city="Киверцы" direction="Львовское" esr="359007" importance="1" lat="50.831327" lon="25.459578" popular_title="" region="Волынская область" short_title="Киверцы" title="Киверцы" /><station city="Луцк" direction="Львовское" esr="359045" importance="4" lat="50.802841" lon="25.389393" popular_title="" region="Волынская область" short_title="Промысловая" title="Промысловая" /><station direction="Львовское" esr="359050" importance="4" lat="50.810501" lon="25.406236" popular_title="" region="Волынская область" short_title="Дачное" title="Дачное" /><station direction="Ровенское" esr="356668" importance="3" lat="50.601598" lon="26.233311" popular_title="" region="Ровенская область" short_title="Басов Кут" title="Басов Кут" /><station direction="Ровенское" esr="356672" importance="3" lat="50.615245" lon="26.233931" popular_title="" region="Ровенская область" short_title="Дворецкая" title="Дворецкая" /><station direction="Львовское" esr="002624" importance="4" lat="50.161764" lon="24.461832" popular_title="" region="Львовская область" short_title="Селец-Беньков" title="Селец-Беньков" /><station direction="Львовское" esr="357336" importance="4" lat="50.432188" lon="24.751494" popular_title="" region="Волынская область" short_title="98 км" title="98 км" /><station direction="Львовское" esr="357321" importance="4" lat="50.499019" lon="24.899646" popular_title="" region="Волынская область" short_title="Заставье" title="Заставье" /><station direction="Львовское" esr="357410" importance="4" lat="50.524620" lon="24.974192" popular_title="" region="Волынская область" short_title="Венгривка" title="Венгривка" /><station direction="Львовское" esr="357514" importance="4" lat="50.533602" lon="25.085618" popular_title="" region="Волынская область" short_title="Нивы-Губинские" title="Нивы-Губинские" /><station direction="Львовское" esr="357529" importance="4" lat="50.555382" lon="25.124145" popular_title="" region="Волынская область" short_title="Дубовая Корчма" title="Дубовая Корчма" /><station direction="Львовское" esr="357533" importance="4" lat="50.586333" lon="25.116939" popular_title="" region="Волынская область" short_title="Вигуричи" title="Вигуричи" /><station direction="Львовское" esr="002625" importance="4" lat="50.636429" lon="25.170480" popular_title="" region="Волынская область" short_title="Лавров" title="Лавров" /><station direction="Львовское" esr="357618" importance="4" lat="50.660705" lon="25.222639" popular_title="" region="Волынская область" short_title="Оздов" title="Оздов" /><station direction="Львовское" esr="357622" importance="4" lat="50.671900" lon="25.292206" popular_title="" region="Волынская область" short_title="Проминь" title="Проминь" /><station city="Луцк" direction="Львовское" esr="002626" importance="4" lat="50.741591" lon="25.368189" popular_title="" region="Волынская область" short_title="Автозавод" title="Автозавод" /><station direction="Львовское" esr="002627" importance="4" lat="50.821320" lon="25.441877" popular_title="" region="Волынская область" short_title="Жабки" title="Жабки" /><station direction="Ровенское" esr="002724" importance="4" lat="50.657450" lon="26.222537" popular_title="" region="Ровенская область" short_title="Большой Олексин" title="Большой Олексин" /><station direction="Ровенское" esr="002692" importance="4" lat="50.693526" lon="26.149116" popular_title="" region="Ровенская область" short_title="Городок" title="Городок" /><station direction="Ровенское" esr="002693" importance="4" lat="50.724287" lon="26.116925" popular_title="" region="Ровенская область" short_title="Грабов" title="Грабов" /><station direction="Ровенское" esr="002694" importance="4" lat="50.757046" lon="25.989956" popular_title="" region="Ровенская область" short_title="Ветеранов" title="Ветеранов" /><station direction="Ровенское" esr="359115" importance="4" lat="50.781546" lon="25.817280" popular_title="" region="Волынская область" short_title="271 км" title="271 км" /><station direction="Ровенское" esr="002695" importance="4" lat="50.780382" lon="25.647537" popular_title="" region="Волынская область" short_title="Пальче" title="Пальче" /><station direction="Ровенское" esr="359011" importance="4" lat="50.779229" lon="25.617890" popular_title="" region="Волынская область" short_title="Арматнов" title="Арматнов" /><station direction="Ровенское" esr="002696" importance="4" lat="50.795321" lon="25.564432" popular_title="" region="Волынская область" short_title="Зверев" title="Зверев" /><station direction="Ровенское" esr="359030" importance="4" lat="50.810221" lon="25.521241" popular_title="" region="Волынская область" short_title="Веснянка" title="Веснянка" /><station direction="Ковельское" esr="358818" importance="4" lat="50.864744" lon="25.368478" popular_title="" region="Волынская область" short_title="Клепачев" title="Клепачев" /><station direction="Ковельское" esr="002697" importance="4" lat="50.886731" lon="25.285386" popular_title="" region="Волынская область" short_title="Валерьяновка" title="Валерьяновка" /><station direction="Ковельское" esr="358521" importance="4" lat="50.957834" lon="25.196673" popular_title="" region="Волынская область" short_title="Бирок" title="Бирок" /><station direction="Ковельское" esr="002698" importance="4" lat="51.004859" lon="25.140123" popular_title="" region="Волынская область" short_title="Трилесцы" title="Трилесцы" /><station direction="Ковельское" esr="358517" importance="4" lat="51.046390" lon="25.088970" popular_title="" region="Волынская область" short_title="Стоход" title="Стоход" /><station direction="Ковельское" esr="358432" importance="4" lat="51.095161" lon="24.957952" popular_title="" region="Волынская область" short_title="Вивчицк" title="Вивчицк" /><station direction="Ковельское" esr="002699" importance="4" lat="51.108413" lon="24.928469" popular_title="" region="Волынская область" short_title="Погиньки" title="Погиньки" /><station direction="Ковельское" esr="358413" importance="4" lat="51.138458" lon="24.870060" popular_title="" region="Волынская область" short_title="352 км" title="352 км" /><station direction="Ковельское" esr="358316" importance="4" lat="51.178571" lon="24.798734" popular_title="" region="Волынская область" short_title="Колодежно" title="Колодежно" /><station direction="Ковельское" esr="002700" importance="4" lat="51.195277" lon="24.757793" popular_title="" region="Волынская область" short_title="Белый налив" title="Белый налив" /></suburban_zone>