<?xml version='1.0' encoding='UTF-8'?>
<suburban_zone id="218"><station direction="Мукачевское" esr="377912" importance="4" lat="49.679289" lon="23.907625" popular_title="" region="Львовская область" short_title="Семяновка" title="Семяновка" /><station direction="Мукачевское" esr="377842" importance="4" lat="49.648417" lon="23.858894" popular_title="" region="Львовская область" short_title="Щирец-1" title="Щирец-1" /><station direction="Мукачевское" esr="377838" importance="4" lat="49.612049" lon="23.875384" popular_title="" region="Львовская область" short_title="Дмитрия" title="Дмитрия" /><station direction="Мукачевское" esr="377823" importance="4" lat="49.582083" lon="23.901745" popular_title="" region="Львовская область" short_title="Черкассы-Львовские" title="Черкассы-Львовские" /><station direction="Мукачевское" esr="377819" importance="4" lat="49.549818" lon="23.918836" popular_title="" region="Львовская область" short_title="Задорожная" title="Задорожная" /><station direction="Мукачевское" esr="377433" importance="4" lat="49.322148" lon="23.894886" popular_title="" region="Львовская область" short_title="Угерско" title="Угерско" /><station direction="Мукачевское" esr="377113" importance="4" lat="49.176644" lon="23.715638" popular_title="" region="Львовская область" short_title="Гирне" title="Гирне" /><station direction="Мукачевское" esr="377024" importance="4" lat="49.125731" lon="23.673749" popular_title="" region="Львовская область" short_title="Стинава-нижняя" title="Стинава-нижняя" /><station direction="Мукачевское" esr="377012" importance="4" lat="49.103727" lon="23.640411" popular_title="" region="Львовская область" short_title="Нижнесиневидное" title="Нижнесиневидное" /><station direction="Мукачевское" esr="376727" importance="4" lat="48.828089" lon="23.378343" popular_title="" region="Львовская область" short_title="Тернавка" title="Тернавка" /><station city="Солотвино" direction="Солотвинское" esr="385707" importance="2" lat="47.949870" lon="23.877986" popular_title="" region="Закарпатская область" short_title="Солотвино-1" title="Солотвино-1" /><station city="Мукачево" direction="Мукачевское" esr="380008" importance="2" lat="48.429341" lon="22.711836" popular_title="" region="Закарпатская область" short_title="Мукачево" title="Мукачево" /><station city="Львов" direction="Мукачевское" esr="370307" importance="3" lat="49.818823" lon="23.932652" popular_title="" region="Львовская область" short_title="Скнилов" title="Скнилов" /><station city="Щирец" direction="Мукачевское" esr="377908" importance="1" lat="49.655820" lon="23.870452" popular_title="" region="Львовская область" short_title="Щирец-2" title="Щирец-2" /><station direction="Мукачевское" esr="377804" importance="4" lat="49.510703" lon="23.954867" popular_title="" region="Львовская область" short_title="Николаев-Днестровский" title="Николаев-Днестровский" /><station direction="Мукачевское" esr="377448" importance="4" lat="49.392290" lon="23.943643" popular_title="" region="Львовская область" short_title="Бильче" title="Бильче" /><station direction="Мукачевское" esr="377096" importance="4" lat="49.146839" lon="23.693766" popular_title="" region="Львовская область" short_title="Любенцы" title="Любенцы" /><station direction="Мукачевское" esr="376917" importance="4" lat="49.092628" lon="23.588601" popular_title="" region="Львовская область" short_title="Верхнесиневидное" title="Верхнесиневидное" /><station city="Сколе" direction="Мукачевское" esr="376905" importance="2" lat="49.034951" lon="23.504758" popular_title="" region="Львовская область" short_title="Сколе" title="Сколе" /><station direction="Мукачевское" esr="376708" importance="4" lat="48.917667" lon="23.476685" popular_title="" region="Львовская область" short_title="Тухля" title="Тухля" /><station city="Стрый" direction="Мукачевское" esr="377408" importance="2" lat="49.259287" lon="23.840579" popular_title="" region="Львовская область" short_title="Стрый" title="Стрый" /><station city="Славское" direction="Мукачевское" esr="376712" importance="1" lat="48.848634" lon="23.445558" popular_title="" region="Львовская область" short_title="Славско" title="Славско" /><station city="Ужгород" direction="Мукачевское" esr="381000" importance="2" lat="48.609017" lon="22.301116" popular_title="" region="Закарпатская область" short_title="Ужгород" title="Ужгород" /><station city="Тячев" direction="Солотвинское" esr="385508" importance="2" lat="48.014974" lon="23.576809" popular_title="" region="Закарпатская область" short_title="Тячев" title="Тячев" /><station city="Чоп" direction="Мукачевское" esr="380101" importance="2" lat="48.433341" lon="22.207730" popular_title="" region="Закарпатская область" short_title="Чоп" title="Чоп" /><station direction="Самборское" esr="382200" importance="4" lat="49.023184" lon="22.902669" popular_title="" region="Львовская область" short_title="Сянки" title="Сянки" /><station direction="Самборское" esr="382130" importance="4" lat="49.002886" lon="22.887384" popular_title="" region="Львовская область" short_title="Щербин" title="Щербин" /><station city="Волосянка" direction="Самборское" esr="382126" importance="1" lat="48.981844" lon="22.808086" popular_title="" region="Закарпатская область" short_title="Волосянка-Закарпатская" title="Волосянка-Закарпатская" /><station city="Великий Берёзный" direction="Самборское" esr="381806" importance="1" lat="48.899701" lon="22.458854" popular_title="" region="Закарпатская область" short_title="Великий Березный" title="Великий Березный" /><station city="Перечин" direction="Самборское" esr="381602" importance="2" lat="48.732804" lon="22.480682" popular_title="" region="Закарпатская область" short_title="Перечин" title="Перечин" /><station direction="Самборское" esr="381509" importance="4" lat="48.692976" lon="22.415836" popular_title="" region="Закарпатская область" short_title="Камьяница" title="Камьяница" /><station direction="Мукачевское" esr="380920" importance="4" lat="48.512762" lon="22.245485" popular_title="" region="Закарпатская область" short_title="Струмковка" title="Струмковка" /><station city="Батево" direction="Мукачевское" esr="382501" importance="2" lat="48.361714" lon="22.384758" popular_title="" region="Закарпатская область" short_title="Батево" title="Батево" /><station direction="Солотвинское" esr="384028" importance="4" lat="48.287199" lon="22.466169" popular_title="" region="Закарпатская область" short_title="Косины" title="Косины" /><station city="Берегово" direction="Солотвинское" esr="384102" importance="2" lat="48.202305" lon="22.631176" popular_title="" region="Закарпатская область" short_title="Берегово" title="Берегово" /><station direction="Мукачевское" esr="383006" importance="4" lat="48.368929" lon="22.493382" popular_title="" region="Закарпатская область" short_title="Баркасово" title="Баркасово" /><station direction="Мукачевское" esr="383720" importance="4" lat="48.725974" lon="23.263550" popular_title="" region="Закарпатская область" short_title="Скатарске" title="Скатарске" /><station direction="Мукачевское" esr="383504" importance="4" lat="48.493127" lon="22.848387" popular_title="" region="Закарпатская область" short_title="Чинадиево" title="Чинадиево" /><station direction="Мукачевское" esr="383400" importance="4" lat="48.464639" lon="22.767752" popular_title="" region="Закарпатская область" short_title="Колчино" title="Колчино" /><station direction="Мукачевское" esr="383203" importance="4" lat="48.409497" lon="22.641911" popular_title="" region="Закарпатская область" short_title="Ключарки" title="Ключарки" /><station direction="Солотвинское" esr="384206" importance="4" lat="48.164081" lon="22.721794" popular_title="" region="Закарпатская область" short_title="Боржава" title="Боржава" /><station city="Воловец" direction="Мукачевское" esr="383701" importance="2" lat="48.713926" lon="23.183910" popular_title="" region="Закарпатская область" short_title="Воловец" title="Воловец" /><station direction="Солотвинское" esr="385406" importance="4" lat="48.055968" lon="23.494204" popular_title="" region="Закарпатская область" short_title="Буштино" title="Буштино" /><station city="Виноградов" direction="Солотвинское" esr="384403" importance="2" lat="48.134137" lon="23.026424" popular_title="" region="Закарпатская область" short_title="Виноградово" title="Виноградово" /><station direction="Мукачевское" esr="383769" importance="4" lat="48.812384" lon="23.358441" popular_title="" region="Львовская область" short_title="Лавочне" title="Лавочне" /><station city="Вилок" direction="Солотвинское" esr="384302" importance="2" lat="48.116632" lon="22.838185" popular_title="" region="Закарпатская область" short_title="Вилок" title="Вилок" /><station city="Свалява" direction="Мукачевское" esr="383608" importance="2" lat="48.551932" lon="22.988666" popular_title="" region="Закарпатская область" short_title="Свалява" title="Свалява" /><station city="Королево" direction="Солотвинское" esr="384704" importance="2" lat="48.156046" lon="23.145062" popular_title="" region="Закарпатская область" short_title="Королёво" title="Королёво" /><station direction="Солотвинское" esr="384117" importance="4" lat="48.170768" lon="22.666822" popular_title="" region="Закарпатская область" short_title="Великая Бакта" title="Великая Бакта" /><station city="Ужгород" direction="Самборское" esr="381025" importance="4" lat="48.637516" lon="22.335854" popular_title="" region="Закарпатская область" short_title="Доманинцы" title="Доманинцы" /><station direction="Самборское" esr="381034" importance="4" lat="48.655006" lon="22.347730" popular_title="" region="Закарпатская область" short_title="Онаковцы" title="Онаковцы" /><station direction="Самборское" esr="381053" importance="4" lat="48.684470" lon="22.402072" popular_title="" region="Закарпатская область" short_title="Невицкое-Подзамок" title="Невицкое-Подзамок" /><station direction="Самборское" esr="381513" importance="4" lat="48.717423" lon="22.437466" popular_title="" region="Закарпатская область" short_title="Ворочево" title="Ворочево" /><station direction="Самборское" esr="381617" importance="4" lat="48.770857" lon="22.497560" popular_title="" region="Закарпатская область" short_title="Заричево" title="Заричево" /><station direction="Самборское" esr="381710" importance="4" lat="48.828935" lon="22.469128" popular_title="" region="Закарпатская область" short_title="Мирча" title="Мирча" /><station direction="Самборское" esr="381730" importance="4" lat="48.871328" lon="22.449942" popular_title="" region="Закарпатская область" short_title="Школа-Интернат" title="Школа-Интернат" /><station direction="Самборское" esr="381725" importance="4" lat="48.853517" lon="22.448062" popular_title="" region="Закарпатская область" short_title="Малый Березный" title="Малый Березный" /><station direction="Самборское" esr="381814" importance="4" lat="48.925412" lon="22.456618" popular_title="" region="Закарпатская область" short_title="Забродь" title="Забродь" /><station direction="Солотвинское" esr="384210" importance="4" lat="48.159079" lon="22.761167" popular_title="" region="Закарпатская область" short_title="Доброселье" title="Доброселье" /><station direction="Солотвинское" esr="384757" importance="3" lat="48.090983" lon="23.077099" popular_title="" region="Закарпатская область" short_title="Сасово-Закарпатское" title="Сасово-Закарпатское" /><station direction="Солотвинское" esr="384812" importance="4" lat="48.013162" lon="23.008242" popular_title="" region="Закарпатская область" short_title="Дьяково" title="Дьяково" /><station direction="Мукачевское" esr="380135" importance="4" lat="48.395286" lon="22.313594" popular_title="" region="Закарпатская область" short_title="Есень (платформа)" title="Есень (платформа)" /><station direction="Мукачевское" esr="383523" importance="4" lat="48.534721" lon="22.909180" popular_title="" region="Закарпатская область" short_title="Пасика" title="Пасика" /><station direction="Мукачевское" esr="383538" importance="4" lat="48.544383" lon="22.937061" popular_title="" region="Закарпатская область" short_title="Драчино" title="Драчино" /><station direction="Самборское" esr="382145" importance="4" lat="48.987241" lon="22.839478" popular_title="" region="Закарпатская область" short_title="Ужок" title="Ужок" /><station direction="Самборское" esr="382111" importance="4" lat="48.981527" lon="22.774281" popular_title="" region="Закарпатская область" short_title="Луг" title="Луг" /><station city="Хуст" direction="Солотвинское" esr="385213" importance="2" lat="48.173817" lon="23.283073" popular_title="" region="Закарпатская область" short_title="Хуст (платформа)" title="Хуст (платформа)" /><station city="Солотвино" direction="Солотвинское" esr="385904" importance="2" lat="47.957437" lon="23.885680" popular_title="" region="Закарпатская область" short_title="Солотвино-2" title="Солотвино-2" /><station direction="Солотвинское" esr="385317" importance="4" lat="48.115638" lon="23.388342" popular_title="" region="Закарпатская область" short_title="Сокирница" title="Сокирница" /><station direction="Солотвинское" esr="384723" importance="4" lat="48.192340" lon="23.162024" popular_title="" region="Закарпатская область" short_title="Велика Копаня" title="Велика Копаня" /><station direction="Солотвинское" esr="384314" importance="4" lat="48.113877" lon="22.887523" popular_title="" region="Закарпатская область" short_title="Новое Село" title="Новое Село" /><station direction="Солотвинское" esr="384329" importance="4" lat="48.122521" lon="22.939595" popular_title="" region="Закарпатская область" short_title="Фанчиково" title="Фанчиково" /><station direction="Солотвинское" esr="385618" importance="4" lat="48.003769" lon="23.766426" popular_title="" region="Закарпатская область" short_title="Грушево" title="Грушево" /><station direction="Солотвинское" esr="382540" importance="4" lat="48.326635" lon="22.416199" popular_title="" region="Закарпатская область" short_title="Батрадь" title="Батрадь" /><station city="Солотвино" direction="Солотвинское" esr="385622" importance="4" lat="47.965544" lon="23.863520" popular_title="" region="Закарпатская область" short_title="Солотвино-Больница" title="Солотвино-Больница" /><station city="Пустомыты" direction="Мукачевское" esr="377927" importance="1" lat="49.716552" lon="23.908597" popular_title="" region="Львовская область" short_title="Пустомыты" title="Пустомыты" /><station direction="Солотвинское" esr="384418" importance="4" lat="48.136185" lon="23.080371" popular_title="" region="Закарпатская область" short_title="Черная Гора" title="Черная Гора" /><station direction="Солотвинское" esr="384738" importance="4" lat="48.193123" lon="23.192470" popular_title="" region="Закарпатская область" short_title="Рокосово (платформа)" title="Рокосово (платформа)" /><station direction="Солотвинское" esr="384742" importance="4" lat="48.123146" lon="23.110581" popular_title="" region="Закарпатская область" short_title="Теково" title="Теково" /><station direction="Мукачевское" esr="382535" importance="3" lat="48.363399" lon="22.469892" popular_title="" region="Закарпатская область" short_title="Ровное" title="Ровное" /><station direction="Солотвинское" esr="385514" importance="4" lat="48.003226" lon="23.662040" popular_title="" region="Закарпатская область" short_title="Бедевля" title="Бедевля" /><station direction="Мукачевское" esr="382412" importance="4" lat="48.376757" lon="22.354119" popular_title="" region="Закарпатская область" short_title="Свобода" title="Свобода" /><station city="Иршава" direction="Солотвинское" esr="384526" importance="2" lat="48.315832" lon="23.041552" popular_title="" region="Закарпатская область" short_title="Иршава" title="Иршава" /><station direction="Солотвинское" esr="384225" importance="4" lat="48.131717" lon="22.803074" popular_title="" region="Закарпатская область" short_title="Четово" title="Четово" /><station direction="Мукачевское" esr="381015" importance="4" lat="48.562422" lon="22.272537" popular_title="" region="Закарпатская область" short_title="Холмок" title="Холмок" /><station direction="Солотвинское" esr="384808" importance="4" lat="48.071891" lon="23.057351" popular_title="" region="Закарпатская область" short_title="Чернотиссово" title="Чернотиссово" /><station direction="Мукачевское" esr="380915" importance="4" lat="48.488742" lon="22.237482" popular_title="" region="Закарпатская область" short_title="Цегловка" title="Цегловка" /><station direction="Солотвинское" esr="384719" importance="4" lat="48.171325" lon="23.160581" popular_title="" region="Закарпатская область" short_title="Карьер" title="Карьер" /><station direction="Солотвинское" esr="385321" importance="4" lat="48.096857" lon="23.417950" popular_title="" region="Закарпатская область" short_title="Стеблевка" title="Стеблевка" /><station direction="Солотвинское" esr="385410" importance="4" lat="48.043870" lon="23.517318" popular_title="" region="Закарпатская область" short_title="Русское Поле" title="Русское Поле" /><station direction="Мукачевское" esr="378008" importance="4" lat="49.734018" lon="23.899049" popular_title="" region="Львовская область" short_title="Глинна-Навария" title="Глинна-Навария" /><station direction="Мукачевское" esr="377467" importance="4" lat="49.449838" lon="23.956180" popular_title="" region="Львовская область" short_title="Песочное" title="Песочное" /><station direction="Мукачевское" esr="377217" importance="4" lat="49.215764" lon="23.752032" popular_title="" region="Львовская область" short_title="Конюхов" title="Конюхов" /><station direction="Мукачевское" esr="376801" importance="4" lat="48.976371" lon="23.470183" popular_title="" region="Львовская область" short_title="Гребенов" title="Гребенов" /><station direction="Самборское" esr="382107" importance="4" lat="48.991425" lon="22.709141" popular_title="" region="Закарпатская область" short_title="Ставне" title="Ставне" /><station direction="Самборское" esr="382003" importance="4" lat="48.986702" lon="22.635675" popular_title="" region="Закарпатская область" short_title="Жорнава" title="Жорнава" /><station direction="Самборское" esr="381918" importance="4" lat="48.945175" lon="22.601485" popular_title="" region="Закарпатская область" short_title="Кострино" title="Кострино" /><station direction="Самборское" esr="381829" importance="4" lat="48.950366" lon="22.540378" popular_title="" region="Закарпатская область" short_title="Соля" title="Соля" /><station direction="Самборское" esr="381706" importance="4" lat="48.806423" lon="22.486021" popular_title="" region="Закарпатская область" short_title="Дубрыничи" title="Дубрыничи" /><station direction="Мукачевское" esr="382408" importance="4" lat="48.388745" lon="22.327516" popular_title="" region="Закарпатская область" short_title="Есень" title="Есень" /><station direction="Солотвинское" esr="384013" importance="4" lat="48.241385" lon="22.559777" popular_title="" region="Закарпатская область" short_title="Великая Бегань" title="Великая Бегань" /><station direction="Солотвинское" esr="385209" importance="4" lat="48.190244" lon="23.210455" popular_title="" region="Закарпатская область" short_title="Рокосово" title="Рокосово" /><station direction="Мукачевское" esr="383745" importance="4" lat="48.761584" lon="23.325788" popular_title="" region="Львовская область" short_title="Бескид" title="Бескид" /><station direction="Мукачевское" esr="383650" importance="4" lat="48.673902" lon="23.105412" popular_title="" region="Закарпатская область" short_title="Занька" title="Занька" /><station direction="Мукачевское" esr="383631" importance="4" lat="48.605056" lon="23.082533" popular_title="" region="Закарпатская область" short_title="Вовчий" title="Вовчий" /><station direction="Мукачевское" esr="383519" importance="4" lat="48.520502" lon="22.874090" popular_title="" region="Закарпатская область" short_title="Карпаты" title="Карпаты" /><station direction="Мукачевское" esr="383107" importance="4" lat="48.385813" lon="22.560524" popular_title="" region="Закарпатская область" short_title="Страбичево" title="Страбичево" /><station direction="Солотвинское" esr="385603" importance="4" lat="47.994999" lon="23.702503" popular_title="" region="Закарпатская область" short_title="Тересва" title="Тересва" /><station city="Хуст" direction="Солотвинское" esr="385302" importance="2" lat="48.161241" lon="23.298354" popular_title="" region="Закарпатская область" short_title="Хуст" title="Хуст" /><station direction="Мукачевское" esr="383415" importance="4" lat="48.488636" lon="22.833972" popular_title="" region="Закарпатская область" short_title="Чинадиево (платформа)" title="Чинадиево (платформа)" /><station direction="Мукачевское" esr="370311" importance="3" lat="49.779903" lon="23.892118" popular_title="" region="Львовская область" short_title="Оброшин" title="Оброшин" /><station city="Львов" direction="Мукачевское" esr="002600" importance="2" lat="49.836682" lon="23.995933" popular_title="" region="Львовская область" short_title="Львов-пригородный" title="Львов-пригородный" /><station direction="Мукачевское" esr="002601" importance="4" lat="49.369956" lon="23.930128" popular_title="" region="Львовская область" short_title="Пятничаны" title="Пятничаны" /><station direction="Мукачевское" esr="383754" importance="4" lat="48.791251" lon="23.351807" popular_title="" region="Львовская область" short_title="Опорец" title="Опорец" /><station direction="Мукачевское" esr="383735" importance="4" lat="48.734879" lon="23.285931" popular_title="" region="Закарпатская область" short_title="1641 км" title="1641 км" /><station direction="Мукачевское" esr="383716" importance="4" lat="48.716133" lon="23.237844" popular_title="" region="Закарпатская область" short_title="Гукливый" title="Гукливый" /><station direction="Мукачевское" esr="383665" importance="4" lat="48.706079" lon="23.138940" popular_title="" region="Закарпатская область" short_title="Яблоново" title="Яблоново" /><station direction="Мукачевское" esr="383646" importance="4" lat="48.648082" lon="23.101752" popular_title="" region="Закарпатская область" short_title="1662 км" title="1662 км" /><station direction="Мукачевское" esr="383627" importance="4" lat="48.568230" lon="23.054062" popular_title="" region="Закарпатская область" short_title="Сасовка" title="Сасовка" /><station direction="Мукачевское" esr="383612" importance="4" lat="48.559365" lon="23.029497" popular_title="" region="Закарпатская область" short_title="Нелепино" title="Нелепино" /><station city="Мукачево" direction="Мукачевское" esr="002602" importance="4" lat="48.445780" lon="22.739966" popular_title="" region="Закарпатская область" short_title="Мукачево-прибор" title="Мукачево-прибор" /><station city="Мукачево" direction="Мукачевское" esr="383218" importance="4" lat="48.420666" lon="22.681854" popular_title="" region="Закарпатская область" short_title="Мукачево-перевалочная" title="Мукачево-перевалочная" /><station direction="Мукачевское" esr="002603" importance="4" lat="48.359058" lon="22.449842" popular_title="" region="Закарпатская область" short_title="1727 км" title="1727 км" /><station direction="Мукачевское" esr="380120" importance="4" lat="48.415034" lon="22.270296" popular_title="" region="Закарпатская область" short_title="Минеральное" title="Минеральное" /><station city="Чоп" direction="Мукачевское" esr="380116" importance="4" lat="48.431414" lon="22.223692" popular_title="" region="Закарпатская область" short_title="Перевалочная база" title="Перевалочная база" /><station direction="Мукачевское" esr="002663" importance="4" lat="48.464817" lon="22.225623" popular_title="" region="Закарпатская область" short_title="Дачная" title="Дачная" /><station city="Ужгород" direction="Мукачевское" esr="002664" importance="3" lat="48.587711" lon="22.287673" popular_title="" region="Закарпатская область" short_title="ЛВЧ-5" title="ЛВЧ-5" /><station city="Ужгород" direction="Мукачевское" esr="002668" importance="4" lat="48.587711" lon="22.287673" popular_title="" region="Закарпатская область" short_title="Пункт МПРВ" title="Пункт МПРВ" /><station city="Ужгород" direction="Мукачевское" esr="002669" importance="4" lat="48.579966" lon="22.221755" popular_title="" region="Закарпатская область" short_title="Ужгород-2" title="Ужгород-2" /><station direction="Самборское" esr="381049" importance="4" lat="48.673516" lon="22.383466" popular_title="" region="Закарпатская область" short_title="Невицкое" title="Невицкое" /><station direction="Самборское" esr="381621" importance="4" lat="48.792833" lon="22.490377" popular_title="" region="Закарпатская область" short_title="Дубрыничи (платформа)" title="Дубрыничи (платформа)" /><station direction="Самборское" esr="002665" importance="4" lat="48.939283" lon="22.488458" popular_title="" region="Закарпатская область" short_title="Пороги" title="Пороги" /><station direction="Самборское" esr="002666" importance="4" lat="48.945029" lon="22.566297" popular_title="" region="Закарпатская область" short_title="202 км" title="202 км" /><station direction="Самборское" esr="382018" importance="4" lat="48.999497" lon="22.638076" popular_title="" region="Закарпатская область" short_title="Загарб" title="Загарб" /><station direction="Самборское" esr="382022" importance="4" lat="48.989022" lon="22.683050" popular_title="" region="Закарпатская область" short_title="Ставне-2" title="Ставне-2" /><station direction="Самборское" esr="002667" importance="4" lat="49.008331" lon="22.820630" popular_title="" region="Закарпатская область" short_title="172 км" title="172 км" /><station direction="Солотвинское" esr="002670" importance="4" lat="48.131442" lon="23.355618" popular_title="" region="Закарпатская область" short_title="Бороняво" title="Бороняво" /><station direction="Солотвинское" esr="385641" importance="4" lat="47.987265" lon="23.816586" popular_title="" region="Закарпатская область" short_title="Диброва" title="Диброва" /><station direction="Солотвинское" esr="384422" importance="4" lat="48.159066" lon="22.958226" popular_title="" region="Закарпатская область" short_title="Олешник" title="Олешник" /><station direction="Солотвинское" esr="384437" importance="4" lat="48.185141" lon="22.906452" popular_title="" region="Закарпатская область" short_title="Чёрный Поток" title="Чёрный Поток" /><station direction="Солотвинское" esr="384441" importance="4" lat="48.225017" lon="22.895486" popular_title="" region="Закарпатская область" short_title="Шаланки" title="Шаланки" /><station city="Хмельник" direction="Солотвинское" esr="384456" importance="1" lat="48.251565" lon="22.906664" popular_title="" region="Закарпатская область" short_title="Хмельник" title="Хмельник" /><station city="Хмельник" direction="Солотвинское" esr="384475" importance="4" lat="48.274645" lon="22.908688" popular_title="" region="Закарпатская область" short_title="Хмельник (платформа)" title="Хмельник (платформа)" /><station direction="Солотвинское" esr="384489" importance="4" lat="48.274540" lon="22.942860" popular_title="" region="Закарпатская область" short_title="Камянское" title="Камянское" /><station direction="Солотвинское" esr="384511" importance="4" lat="48.287677" lon="22.988586" popular_title="" region="Закарпатская область" short_title="Сельцо" title="Сельцо" /></suburban_zone>