<?xml version='1.0' encoding='UTF-8'?>
<suburban_zone id="26"><station direction="Ковылкинское" esr="222209" importance="3" lat="54.263982" lon="42.265981" popular_title="" region="Рязанская область" short_title="Кустарёвка" title="Кустарёвка" /><station direction="Инзенское" esr="641816" importance="4" lat="53.886780" lon="45.811295" popular_title="" region="Пензенская область" short_title="691 км" title="691 км" /><station direction="Инзенское" esr="641913" importance="4" lat="53.870930" lon="45.961807" popular_title="" region="Пензенская область" short_title="700 км" title="700 км" /><station direction="Инзенское" esr="641928" importance="4" lat="53.880077" lon="46.030214" popular_title="" region="Пензенская область" short_title="705 км" title="705 км" /><station direction="Инзенское" esr="642013" importance="4" lat="53.873601" lon="46.194830" popular_title="" region="Пензенская область" short_title="717 км" title="717 км" /><station city="Пенза" direction="Пензенское" esr="630105" importance="1" lat="53.204298" lon="45.011291" popular_title="" region="Пензенская область" short_title="Пенза-1" title="Пенза-1" /><station direction="Саранское" esr="641434" importance="4" lat="54.108414" lon="45.125997" popular_title="" region="Республика Мордовия" short_title="Луговая" title="Луговая" /><station direction="Ковылкинское" esr="640126" importance="4" lat="54.205272" lon="42.456411" popular_title="" region="Рязанская область" short_title="Пичкиряево" title="Пичкиряево" /><station direction="Ковылкинское" esr="640516" importance="4" lat="54.094391" lon="43.030200" popular_title="" region="Республика Мордовия" short_title="Вихрово" title="Вихрово" /><station direction="Ковылкинское" esr="640624" importance="4" lat="54.071278" lon="43.453379" popular_title="" region="Республика Мордовия" short_title="Воденяпинский" title="Воденяпинский" /><station direction="Ковылкинское" esr="640643" importance="4" lat="54.008411" lon="43.643471" popular_title="" region="Республика Мордовия" short_title="Самаевка" title="Самаевка" /><station direction="Ковылкинское" esr="640817" importance="4" lat="54.017374" lon="43.822290" popular_title="" region="Республика Мордовия" short_title="Запищиково" title="Запищиково" /><station direction="Ковылкинское" esr="641006" importance="4" lat="54.095902" lon="44.115976" popular_title="" region="Республика Мордовия" short_title="Токмово" title="Токмово" /><station city="Кадошкино" direction="Ковылкинское" esr="641101" importance="2" lat="54.021907" lon="44.417963" popular_title="" region="Республика Мордовия" short_title="Кадошкино" title="Кадошкино" /><station city="Зубова Поляна" direction="Ковылкинское" esr="640408" importance="2" lat="54.081511" lon="42.837117" popular_title="" region="Республика Мордовия" short_title="Зубова Поляна" title="Зубова Поляна" /><station direction="Ковылкинское" esr="641129" importance="4" lat="54.071569" lon="44.599396" popular_title="" region="Республика Мордовия" short_title="Хованщина" title="Хованщина" /><station direction="Ковылкинское" esr="641222" importance="4" lat="54.072139" lon="44.813275" popular_title="" region="Республика Мордовия" short_title="Пайгарм" title="Пайгарм" /><station direction="Ковылкинское" esr="641241" importance="4" lat="54.059167" lon="44.884691" popular_title="" region="Республика Мордовия" short_title="Пишля" title="Пишля" /><station direction="Инзенское" esr="641701" importance="4" lat="53.949291" lon="45.376456" popular_title="" region="Республика Мордовия" short_title="Воеводское" title="Воеводское" /><station direction="Инзенское" esr="641720" importance="4" lat="53.927119" lon="45.551834" popular_title="" region="Республика Мордовия" short_title="Умыс" title="Умыс" /><station direction="Инзенское" esr="641735" importance="4" lat="53.945862" lon="45.644783" popular_title="" region="Республика Мордовия" short_title="Качелай" title="Качелай" /><station direction="Инзенское" esr="641805" importance="4" lat="53.889741" lon="45.746275" popular_title="" region="Пензенская область" short_title="Сура" title="Сура" /><station direction="Инзенское" esr="642028" importance="4" lat="53.872130" lon="46.228365" popular_title="" region="Ульяновская область" short_title="Свет" title="Свет" /><station city="Потьма" direction="Ковылкинское" esr="640501" importance="2" lat="54.114558" lon="42.904427" popular_title="" region="Республика Мордовия" short_title="Потьма" title="Потьма" /><station city="Торбеево" direction="Ковылкинское" esr="640605" importance="2" lat="54.071996" lon="43.242347" popular_title="" region="Республика Мордовия" short_title="Торбеево" title="Торбеево" /><station direction="Саранское" esr="641631" importance="4" lat="54.276008" lon="45.309451" popular_title="" region="Республика Мордовия" short_title="Елоховка" title="Елоховка" /><station direction="Саранское" esr="641504" importance="4" lat="54.119751" lon="45.132438" popular_title="" region="Республика Мордовия" short_title="Ялга" title="Ялга" /><station direction="Пензенское" esr="631019" importance="4" lat="53.966599" lon="44.948382" popular_title="" region="Республика Мордовия" short_title="Медведовка" title="Медведовка" /><station direction="Пензенское" esr="631004" importance="4" lat="53.880719" lon="44.996532" popular_title="" region="Пензенская область" short_title="Булычево" title="Булычево" /><station direction="Пензенское" esr="630923" importance="4" lat="53.757755" lon="44.981233" popular_title="" region="Пензенская область" short_title="Анучино" title="Анучино" /><station direction="Пензенское" esr="630904" importance="4" lat="53.652497" lon="44.943450" popular_title="" region="Пензенская область" short_title="Танеевка" title="Танеевка" /><station city="Ковылкино" direction="Ковылкинское" esr="640906" importance="2" lat="54.041348" lon="43.914286" popular_title="" region="Республика Мордовия" short_title="Ковылкино" title="Ковылкино" /><station direction="Пензенское" esr="630800" importance="4" lat="53.616608" lon="45.110115" popular_title="" region="Пензенская область" short_title="Гольцовка" title="Гольцовка" /><station city="Лунино" direction="Пензенское" esr="630707" importance="2" lat="53.589043" lon="45.224686" popular_title="" region="Пензенская область" short_title="Лунино" title="Лунино" /><station direction="Пензенское" esr="630641" importance="4" lat="53.523449" lon="45.156917" popular_title="" region="Пензенская область" short_title="Проказна" title="Проказна" /><station direction="Пензенское" esr="630603" importance="4" lat="53.379366" lon="45.070011" popular_title="" region="Пензенская область" short_title="Грабово" title="Грабово" /><station city="Бессоновка" direction="Пензенское" esr="630505" importance="2" lat="53.304523" lon="45.041483" popular_title="" region="Пензенская область" short_title="Бессоновка" title="Бессоновка" /><station city="Пенза" direction="Пензенское" esr="630302" importance="4" lat="53.217845" lon="45.015666" popular_title="" region="Пензенская область" short_title="Пенза-4" title="Пенза-4" /><station city="Рузаевка" direction="Ковылкинское" esr="640003" importance="2" lat="54.054785" lon="44.949909" popular_title="" region="Республика Мордовия" short_title="Рузаевка" title="Рузаевка" /><station city="Инза" direction="Инзенское" esr="642102" importance="2" lat="53.856307" lon="46.351344" popular_title="" region="Ульяновская область" short_title="Инза" title="Инза" /><station city="Саранск" direction="Саранское" esr="641608" importance="1" lat="54.194070" lon="45.190864" popular_title="" region="Республика Мордовия" short_title="Саранск-1" title="Саранск-1" /><station direction="Ковылкинское" esr="640930" importance="4" lat="54.055240" lon="43.993554" popular_title="" region="Республика Мордовия" short_title="534 км" title="534 км" /><station direction="Инзенское" esr="641769" importance="4" lat="53.901557" lon="45.679584" popular_title="" region="Пензенская область" short_title="679 км" title="679 км" /><station city="Ночка" direction="Инзенское" esr="642009" importance="2" lat="53.882529" lon="46.104460" popular_title="" region="Пензенская область" short_title="Ночка" title="Ночка" /><station direction="Инзенское" esr="641824" importance="4" lat="53.875512" lon="45.905366" popular_title="" region="Пензенская область" short_title="Чаис" title="Чаис" /><station direction="Саранское" esr="641400" importance="4" lat="54.074596" lon="45.083004" popular_title="" region="Республика Мордовия" short_title="Новые Полянки" title="Новые Полянки" /><station city="Инсар" direction="Ковылкинское" esr="641044" importance="2" lat="54.064737" lon="44.293654" popular_title="" region="Республика Мордовия" short_title="Инсар" title="Инсар" /><station direction="Ковылкинское" esr="640910" importance="4" lat="54.068066" lon="44.041910" popular_title="" region="Республика Мордовия" short_title="Мокша" title="Мокша" /><station direction="Ковылкинское" esr="640713" importance="4" lat="54.010469" lon="43.737651" popular_title="" region="Республика Мордовия" short_title="Лашма" title="Лашма" /><station direction="Пензенское" esr="631023" importance="4" lat="54.022330" lon="45.014462" popular_title="" region="Республика Мордовия" short_title="9 км" title="9 км" /><station direction="Саранское" esr="641415" importance="4" lat="54.087753" lon="45.100081" popular_title="" region="Республика Мордовия" short_title="11 км" title="11 км" /><station direction="Пензенское" esr="630938" importance="4" lat="53.822384" lon="45.013654" popular_title="" region="Пензенская область" short_title="37 км" title="37 км" /><station direction="Саранское" esr="641650" importance="4" lat="54.330943" lon="45.284675" popular_title="" region="Республика Мордовия" short_title="46 км" title="46 км" /><station direction="Пензенское" esr="630919" importance="4" lat="53.707883" lon="44.942408" popular_title="" region="Пензенская область" short_title="54 км" title="54 км" /><station direction="Пензенское" esr="630815" importance="4" lat="53.651211" lon="45.040352" popular_title="" region="Пензенская область" short_title="71 км" title="71 км" /><station direction="Пензенское" esr="630711" importance="4" lat="53.601345" lon="45.213852" popular_title="" region="Пензенская область" short_title="86 км" title="86 км" /><station direction="Пензенское" esr="630622" importance="4" lat="53.467841" lon="45.128027" popular_title="" region="Пензенская область" short_title="109 км" title="109 км" /><station direction="Ковылкинское" esr="640925" importance="4" lat="54.079989" lon="44.065572" popular_title="" region="Республика Мордовия" short_title="539 км" title="539 км" /><station direction="Ковылкинское" esr="641010" importance="4" lat="54.103726" lon="44.157478" popular_title="" region="Республика Мордовия" short_title="547 км" title="547 км" /><station direction="Инзенское" esr="640037" importance="4" lat="54.062560" lon="45.095912" popular_title="" region="Республика Мордовия" short_title="626 км" title="626 км" /><station direction="Ковылкинское" esr="641025" importance="4" lat="54.096345" lon="44.202080" popular_title="" region="Республика Мордовия" short_title="551 км" title="551 км" /><station direction="Ковылкинское" esr="641218" importance="4" lat="54.079931" lon="44.746845" popular_title="" region="Республика Мордовия" short_title="595 км" title="595 км" /><station direction="Инзенское" esr="641716" importance="4" lat="53.931037" lon="45.468659" popular_title="" region="Республика Мордовия" short_title="Симбухово" title="Симбухово" /><station direction="Ковылкинское" esr="641237" importance="4" lat="54.059996" lon="44.843315" popular_title="" region="Республика Мордовия" short_title="605 км" title="605 км" /><station direction="Ковылкинское" esr="641256" importance="4" lat="54.054658" lon="44.918324" popular_title="" region="Республика Мордовия" short_title="612 км" title="612 км" /><station city="Рузаевка" direction="Саранское" esr="640018" importance="3" lat="54.054125" lon="44.993037" popular_title="" region="Республика Мордовия" short_title="Заводской" title="Заводской" /><station direction="Инзенское" esr="641311" importance="4" lat="54.030264" lon="45.186436" popular_title="" region="Республика Мордовия" short_title="632 км" title="632 км" /><station city="Пенза" direction="Пензенское" esr="630001" importance="2" lat="53.186254" lon="45.032944" popular_title="" region="Пензенская область" short_title="Пенза-3" title="Пенза-3" /><station direction="Саранское" esr="641420" importance="4" lat="54.094661" lon="45.114759" popular_title="" region="Республика Мордовия" short_title="Монастырская" title="Монастырская" /><station city="Саранск" direction="Саранское" esr="641519" importance="4" lat="54.175145" lon="45.196991" popular_title="" region="Республика Мордовия" short_title="Посоп" title="Посоп" /><station city="Саранск" direction="Саранское" esr="641612" importance="4" lat="54.209845" lon="45.209680" popular_title="" region="Республика Мордовия" short_title="Саранск-2" title="Саранск-2" /><station direction="Саранское" esr="641627" importance="4" lat="54.213056" lon="45.232870" popular_title="" region="Республика Мордовия" short_title="30 км" title="30 км" /><station direction="Саранское" esr="641646" importance="4" lat="54.297055" lon="45.297665" popular_title="" region="Республика Мордовия" short_title="43 км" title="43 км" /><station direction="Саранское" esr="641665" importance="4" lat="54.380878" lon="45.317949" popular_title="" region="Республика Мордовия" short_title="52 км" title="52 км" /><station direction="Инзенское" esr="641330" importance="4" lat="53.980553" lon="45.268533" popular_title="" region="Республика Мордовия" short_title="642 км" title="642 км" /><station direction="Инзенское" esr="641740" importance="4" lat="53.929569" lon="45.672676" popular_title="" region="Республика Мордовия" short_title="678 км" title="678 км" /><station direction="Саранское" esr="640041" importance="4" lat="54.065476" lon="45.066618" popular_title="" region="Республика Мордовия" short_title="8 км" title="8 км" /><station direction="Инзенское" esr="641345" importance="4" lat="53.952920" lon="45.329627" popular_title="" region="Республика Мордовия" short_title="649 км" title="649 км" /><station direction="Инзенское" esr="641773" importance="4" lat="53.927215" lon="45.569316" popular_title="" region="Республика Мордовия" short_title="671 км" title="671 км" /><station direction="Инзенское" esr="641788" importance="4" lat="53.940727" lon="45.618049" popular_title="" region="Республика Мордовия" short_title="673 км" title="673 км" /><station direction="Инзенское" esr="642032" importance="4" lat="53.880745" lon="46.143788" popular_title="" region="Пензенская область" short_title="713 км" title="713 км" /><station direction="Ковылкинское" esr="641035" importance="4" lat="54.089037" lon="44.250104" popular_title="" region="Республика Мордовия" short_title="554 км" title="554 км" /><station direction="Саранское" esr="640022" importance="3" lat="54.057248" lon="45.039624" popular_title="" region="Республика Мордовия" short_title="Голицино" title="Голицино" /><station direction="Инзенское" esr="641326" importance="4" lat="53.988887" lon="45.232088" popular_title="" region="Республика Мордовия" short_title="Журловка" title="Журловка" /><station direction="Пензенское" esr="630317" importance="4" lat="53.255361" lon="45.024622" popular_title="" region="Пензенская область" short_title="135 км" title="135 км" /><station direction="Пензенское" esr="630514" importance="4" lat="53.336941" lon="45.065388" popular_title="" region="Пензенская область" short_title="125 км" title="125 км" /><station direction="Пензенское" esr="630618" importance="4" lat="53.437288" lon="45.092975" popular_title="" region="Пензенская область" short_title="Вазерки" title="Вазерки" /><station direction="Пензенское" esr="630637" importance="4" lat="53.505464" lon="45.137468" popular_title="" region="Пензенская область" short_title="106 км" title="106 км" /><station direction="Пензенское" esr="630656" importance="4" lat="53.556968" lon="45.192553" popular_title="" region="Пензенская область" short_title="97 км" title="97 км" /><station direction="Пензенское" esr="630726" importance="4" lat="53.600886" lon="45.134405" popular_title="" region="Пензенская область" short_title="82 км" title="82 км" /><station direction="Пензенское" esr="630681" importance="4" lat="53.410158" lon="45.075314" popular_title="" region="Пензенская область" short_title="116 км" title="116 км" /><station direction="Пензенское" esr="630675" importance="4" lat="53.488998" lon="45.133776" popular_title="" region="Пензенская область" short_title="103 км" title="103 км" /><station direction="Пензенское" esr="630660" importance="4" lat="53.570691" lon="45.209657" popular_title="" region="Пензенская область" short_title="95 км" title="95 км" /><station direction="Пензенское" esr="630730" importance="4" lat="53.605630" lon="45.226815" popular_title="" region="Пензенская область" short_title="88 км" title="88 км" /><station direction="Пензенское" esr="630942" importance="4" lat="53.852860" lon="44.991295" popular_title="" region="Пензенская область" short_title="33 км" title="33 км" /><station direction="Пензенское" esr="631042" importance="4" lat="53.929510" lon="45.010716" popular_title="" region="Пензенская область" short_title="24 км" title="24 км" /><station city="Ромоданово" direction="Саранское" esr="247009" importance="1" lat="54.413962" lon="45.352503" popular_title="" region="Республика Мордовия" short_title="Красный Узел" title="Красный Узел" /><station city="Ужовка" direction="Саранское" esr="246608" importance="1" lat="54.791770" lon="44.908717" popular_title="" region="Нижегородская область" short_title="Ужовка" title="Ужовка" /><station direction="Саранское" esr="246612" importance="4" lat="54.764391" lon="45.120324" popular_title="" region="Республика Мордовия" short_title="Кендя" title="Кендя" /><station city="Кемля" direction="Саранское" esr="246720" importance="2" lat="54.701586" lon="45.241974" popular_title="" region="Республика Мордовия" short_title="Кемля" title="Кемля" /><station direction="Саранское" esr="246805" importance="4" lat="54.671487" lon="45.321848" popular_title="" region="Республика Мордовия" short_title="Оброчное" title="Оброчное" /><station direction="Саранское" esr="246839" importance="4" lat="54.542070" lon="45.383292" popular_title="" region="Республика Мордовия" short_title="Атьма" title="Атьма" /><station direction="Саранское" esr="246716" importance="4" lat="54.716211" lon="45.188270" popular_title="" region="Республика Мордовия" short_title="97 км" title="97 км" /><station direction="Саранское" esr="246735" importance="4" lat="54.695393" lon="45.262899" popular_title="" region="Республика Мордовия" short_title="91 км" title="91 км" /><station direction="Саранское" esr="246818" importance="4" lat="54.634634" lon="45.358816" popular_title="" region="Республика Мордовия" short_title="82 км" title="82 км" /><station direction="Саранское" esr="246824" importance="4" lat="54.589316" lon="45.380672" popular_title="" region="Республика Мордовия" short_title="76 км" title="76 км" /><station direction="Саранское" esr="246928" importance="4" lat="54.467118" lon="45.362575" popular_title="" region="Республика Мордовия" short_title="63 км" title="63 км" /><station direction="Саранское" esr="246913" importance="4" lat="54.514171" lon="45.362643" popular_title="" region="Республика Мордовия" short_title="67 км" title="67 км" /><station direction="Пензенское" esr="424" importance="4" lat="53.454701" lon="45.111013" popular_title="" region="Пензенская область" short_title="111 км" title="111 км" /><station direction="Саранское" esr="425" importance="4" lat="54.442076" lon="45.368672" popular_title="" region="Республика Мордовия" short_title="60 км" title="60 км" /></suburban_zone>