<?xml version='1.0' encoding='UTF-8'?>
<suburban_zone id="27"><station city="Инза" direction="Инзенское" esr="642102" importance="2" lat="53.856307" lon="46.351344" popular_title="" region="Ульяновская область" short_title="Инза" title="Инза" /><station city="Сызрань" direction="Сызранское" esr="635607" importance="1" lat="53.170329" lon="48.480230" popular_title="" region="Самарская область" short_title="Сызрань-1" title="Сызрань-1" /><station direction="Цильнинское" esr="645308" importance="4" lat="54.594193" lon="48.143860" popular_title="" region="Ульяновская область" short_title="Цильна" title="Цильна" /><station direction="Цильнинское" esr="645204" importance="4" lat="54.407905" lon="48.210794" popular_title="" region="Ульяновская область" short_title="Лаишевка" title="Лаишевка" /><station city="Ульяновск" direction="Димитровградское" esr="645505" importance="4" lat="54.304836" lon="48.400266" popular_title="" region="Ульяновская область" short_title="Ульяновск-2" title="Ульяновск-2" /><station city="Ульяновск" direction="Цильнинское" esr="645100" importance="4" lat="54.301169" lon="48.311333" popular_title="" region="Ульяновская область" short_title="Ульяновск-3" title="Ульяновск-3" /><station direction="Сызранское" esr="644708" importance="4" lat="54.188534" lon="48.306428" popular_title="" region="Ульяновская область" short_title="Белый Ключ" title="Белый Ключ" /><station direction="Сызранское" esr="644625" importance="4" lat="54.130298" lon="48.277287" popular_title="" region="Ульяновская область" short_title="Ключищи" title="Ключищи" /><station direction="Сызранское" esr="644606" importance="4" lat="54.025552" lon="48.334941" popular_title="" region="Ульяновская область" short_title="Красный Гуляй" title="Красный Гуляй" /><station direction="Сызранское" esr="644502" importance="4" lat="53.976603" lon="48.345990" popular_title="" region="Ульяновская область" short_title="Кучуры" title="Кучуры" /><station direction="Сызранское" esr="644413" importance="4" lat="53.896114" lon="48.393304" popular_title="" region="Ульяновская область" short_title="Ташла" title="Ташла" /><station direction="Сызранское" esr="644409" importance="4" lat="53.796576" lon="48.406483" popular_title="" region="Ульяновская область" short_title="Молвино" title="Молвино" /><station direction="Сызранское" esr="644339" importance="4" lat="53.738746" lon="48.521153" popular_title="" region="Ульяновская область" short_title="Светлый" title="Светлый" /><station direction="Сызранское" esr="644324" importance="4" lat="53.687156" lon="48.516634" popular_title="" region="Самарская область" short_title="Гремячий Ключ" title="Гремячий Ключ" /><station direction="Сызранское" esr="644312" importance="4" lat="53.614397" lon="48.488544" popular_title="" region="Самарская область" short_title="Тукшум" title="Тукшум" /><station direction="Сызранское" esr="644396" importance="4" lat="53.498046" lon="48.558675" popular_title="" region="Самарская область" short_title="Бичевной" title="Бичевной" /><station direction="Сызранское" esr="644235" importance="4" lat="53.393827" lon="48.581052" popular_title="" region="Самарская область" short_title="Малячкино" title="Малячкино" /><station city="Шигоны" direction="Сызранское" esr="644269" importance="2" lat="53.331747" lon="48.644563" popular_title="" region="Самарская область" short_title="Шигоны" title="Шигоны" /><station direction="Инзенское" esr="643251" importance="2" lat="53.905244" lon="46.459142" popular_title="" region="Ульяновская область" short_title="Дубенки" title="Дубенки" /><station direction="Инзенское" esr="643213" importance="4" lat="53.893206" lon="46.609439" popular_title="" region="Ульяновская область" short_title="Юловка" title="Юловка" /><station city="Глотовка" direction="Инзенское" esr="643302" importance="1" lat="53.953047" lon="46.694482" popular_title="" region="Ульяновская область" short_title="Глотовка" title="Глотовка" /><station direction="Инзенское" esr="643406" importance="4" lat="53.971207" lon="46.856476" popular_title="" region="Ульяновская область" short_title="Шарлово" title="Шарлово" /><station city="Вешкайма" direction="Инзенское" esr="643502" importance="2" lat="54.043288" lon="47.121020" popular_title="" region="Ульяновская область" short_title="Вешкайма" title="Вешкайма" /><station direction="Инзенское" esr="643603" importance="4" lat="54.096778" lon="47.349193" popular_title="" region="Ульяновская область" short_title="Чуфарово" title="Чуфарово" /><station direction="Инзенское" esr="643800" importance="4" lat="54.170923" lon="47.868536" popular_title="" region="Ульяновская область" short_title="Выры" title="Выры" /><station direction="Инзенское" esr="643976" importance="4" lat="54.212966" lon="48.081517" popular_title="" region="Ульяновская область" short_title="Охотничья" title="Охотничья" /><station direction="Инзенское" esr="643923" importance="4" lat="54.227080" lon="48.190600" popular_title="" region="Ульяновская область" short_title="Анненково" title="Анненково" /><station city="Ульяновск" direction="Димитровградское" esr="645806" importance="2" lat="54.335143" lon="48.537304" popular_title="" region="Ульяновская область" short_title="Верхняя Терраса" title="Верхняя Терраса" /><station direction="Димитровградское" esr="645903" importance="4" lat="54.344748" lon="48.709439" popular_title="" region="Ульяновская область" short_title="Совхозный" title="Совхозный" /><station city="Чердаклы" direction="Димитровградское" esr="646009" importance="2" lat="54.340849" lon="48.852119" popular_title="" region="Ульяновская область" short_title="Чердаклы" title="Чердаклы" /><station direction="Димитровградское" esr="646048" importance="4" lat="54.331688" lon="49.253890" popular_title="" region="Ульяновская область" short_title="Путевой" title="Путевой" /><station direction="Димитровградское" esr="646103" importance="4" lat="54.339395" lon="49.355041" popular_title="" region="Ульяновская область" short_title="Бряндино" title="Бряндино" /><station direction="Димитровградское" esr="646118" importance="4" lat="54.318257" lon="49.442537" popular_title="" region="Ульяновская область" short_title="Тиинск" title="Тиинск" /><station direction="Димитровградское" esr="646137" importance="2" lat="54.273509" lon="49.543426" popular_title="" region="Ульяновская область" short_title="Рассвет" title="Рассвет" /><station city="Димитровград" direction="Димитровградское" esr="646207" importance="2" lat="54.224696" lon="49.602886" popular_title="" region="Ульяновская область" short_title="Димитровград" title="Димитровград" /><station direction="Димитровградское" esr="646226" importance="4" lat="54.199669" lon="49.803264" popular_title="" region="Ульяновская область" short_title="Обамза" title="Обамза" /><station direction="Димитровградское" esr="646527" importance="4" lat="54.212266" lon="49.936511" popular_title="" region="Ульяновская область" short_title="Малыкла" title="Малыкла" /><station direction="Димитровградское" esr="646601" importance="4" lat="54.195888" lon="50.086413" popular_title="" region="Ульяновская область" short_title="Якушка" title="Якушка" /><station direction="Димитровградское" esr="646616" importance="4" lat="54.205484" lon="50.171519" popular_title="" region="Ульяновская область" short_title="Амировка" title="Амировка" /><station direction="Димитровградское" esr="646635" importance="4" lat="54.221906" lon="50.330315" popular_title="" region="Самарская область" short_title="Кармала" title="Кармала" /><station direction="Димитровградское" esr="646832" importance="4" lat="54.356325" lon="50.612179" popular_title="" region="Самарская область" short_title="Розовка" title="Розовка" /><station direction="Димитровградское" esr="646847" importance="4" lat="54.394897" lon="50.682769" popular_title="" region="Республика Татарстан" short_title="Ахметьево" title="Ахметьево" /><station direction="Димитровградское" esr="646921" importance="4" lat="54.443628" lon="50.965549" popular_title="" region="Республика Татарстан" short_title="Клиновка" title="Клиновка" /><station direction="Димитровградское" esr="647017" importance="4" lat="54.380411" lon="51.214742" popular_title="" region="Самарская область" short_title="Сосна" title="Сосна" /><station direction="Димитровградское" esr="647110" importance="4" lat="54.375377" lon="51.357044" popular_title="" region="Самарская область" short_title="Кондурчи" title="Кондурчи" /><station direction="Димитровградское" esr="647229" importance="4" lat="54.456349" lon="51.572011" popular_title="" region="Самарская область" short_title="Баландаево" title="Баландаево" /><station direction="Димитровградское" esr="647233" importance="4" lat="54.396585" lon="51.621373" popular_title="" region="Самарская область" short_title="Денискино" title="Денискино" /><station direction="Димитровградское" esr="647252" importance="4" lat="54.290954" lon="51.792583" popular_title="" region="Самарская область" short_title="Шелашниково" title="Шелашниково" /><station direction="Димитровградское" esr="647303" importance="4" lat="54.262561" lon="51.865598" popular_title="" region="Самарская область" short_title="Пронино" title="Пронино" /><station direction="Димитровградское" esr="647411" importance="4" lat="54.293235" lon="52.130907" popular_title="" region="Самарская область" short_title="Новый Казбулат" title="Новый Казбулат" /><station direction="Димитровградское" esr="647430" importance="4" lat="54.283186" lon="52.246700" popular_title="" region="Самарская область" short_title="Маклауш" title="Маклауш" /><station direction="Димитровградское" esr="647445" importance="4" lat="54.294911" lon="52.395721" popular_title="" region="Оренбургская область" short_title="1216 км (Честаковка)" title="1216 км (Честаковка)" /><station direction="Димитровградское" esr="647515" importance="4" lat="54.338529" lon="52.566230" popular_title="" region="Республика Татарстан" short_title="Полтавка" title="Полтавка" /><station direction="Димитровградское" esr="647248" importance="4" lat="54.333930" lon="51.726656" popular_title="" region="Самарская область" short_title="Абдикеево" title="Абдикеево" /><station direction="Сызранское" esr="644112" importance="4" lat="53.229296" lon="48.630055" popular_title="" region="Самарская область" short_title="Радуга" title="Радуга" /><station city="Ульяновск" direction="Инзенское" esr="644004" importance="4" lat="54.253546" lon="48.269337" popular_title="" region="Ульяновская область" short_title="Студенческая" title="Студенческая" /><station direction="Сызранское" esr="644246" importance="4" lat="53.448497" lon="48.541365" popular_title="" region="Самарская область" short_title="Байдеряково" title="Байдеряково" /><station direction="Сызранское" esr="644220" importance="4" lat="53.382684" lon="48.589775" popular_title="" region="Самарская область" short_title="117 км" title="117 км" /><station direction="Сызранское" esr="644216" importance="4" lat="53.362237" lon="48.607885" popular_title="" region="Самарская область" short_title="Кушниково" title="Кушниково" /><station direction="Димитровградское" esr="647318" importance="4" lat="54.245913" lon="51.914134" popular_title="" region="Самарская область" short_title="Барково" title="Барково" /><station direction="Сызранское" esr="644146" importance="4" lat="53.260107" lon="48.641248" popular_title="" region="Самарская область" short_title="Губино" title="Губино" /><station city="Ульяновск" direction="Димитровградское" esr="645518" importance="4" lat="54.317353" lon="48.475590" popular_title="" region="Ульяновская область" short_title="Заволжский" title="Заволжский" /><station city="Ульяновск" direction="Инзенское" esr="644803" importance="1" lat="54.272047" lon="48.322328" popular_title="" region="Ульяновская область" short_title="Ульяновск-Центр." title="Ульяновск-Центр." /><station direction="Сызранское" esr="644610" importance="4" lat="54.081748" lon="48.336926" popular_title="" region="Ульяновская область" short_title="28 км" title="28 км" /><station direction="Инзенское" esr="643726" importance="4" lat="54.122020" lon="47.718652" popular_title="" region="Ульяновская область" short_title="844 км" title="844 км" /><station direction="Инзенское" esr="643618" importance="4" lat="54.098061" lon="47.444989" popular_title="" region="Ульяновская область" short_title="823 км" title="823 км" /><station direction="Инзенское" esr="643730" importance="4" lat="54.128315" lon="47.787382" popular_title="" region="Ульяновская область" short_title="847 км" title="847 км" /><station direction="Инзенское" esr="643834" importance="4" lat="54.190899" lon="48.009140" popular_title="" region="Ульяновская область" short_title="864 км" title="864 км" /><station direction="Инзенское" esr="643919" importance="4" lat="54.216120" lon="48.126990" popular_title="" region="Ульяновская область" short_title="875 км" title="875 км" /><station city="Майна" direction="Инзенское" esr="643707" importance="2" lat="54.116806" lon="47.621032" popular_title="" region="Ульяновская область" short_title="Майна" title="Майна" /><station city="Сызрань" direction="Сызранское" esr="644127" importance="4" lat="53.173954" lon="48.552836" popular_title="" region="Самарская область" short_title="Новосызранский" title="Новосызранский" /><station direction="Цильнинское" esr="645219" importance="4" lat="54.504701" lon="48.194977" popular_title="" region="Ульяновская область" short_title="Шумовка" title="Шумовка" /><station direction="Цильнинское" esr="645115" importance="4" lat="54.344649" lon="48.238605" popular_title="" region="Ульяновская область" short_title="188 км" title="188 км" /><station direction="Сызранское" esr="644837" importance="4" lat="54.214346" lon="48.306877" popular_title="" region="Ульяновская область" short_title="8 км" title="8 км" /><station direction="Сызранское" esr="644131" importance="4" lat="53.203662" lon="48.602702" popular_title="" region="Самарская область" short_title="141 км" title="141 км" /><station direction="Цильнинское" esr="645312" importance="4" lat="54.564219" lon="48.172341" popular_title="" region="Ульяновская область" short_title="163 км" title="163 км" /><station direction="Цильнинское" esr="645327" importance="4" lat="54.532806" lon="48.188036" popular_title="" region="Ульяновская область" short_title="167 км" title="167 км" /><station direction="Цильнинское" esr="645122" importance="4" lat="54.318666" lon="48.280665" popular_title="" region="Ульяновская область" short_title="192 км" title="192 км" /><station direction="Инзенское" esr="643232" importance="4" lat="53.907737" lon="46.495874" popular_title="" region="Ульяновская область" short_title="745 км" title="745 км" /><station direction="Инзенское" esr="643849" importance="4" lat="54.175919" lon="47.928363" popular_title="" region="Ульяновская область" short_title="858 км" title="858 км" /><station direction="Инзенское" esr="643942" importance="4" lat="54.219474" lon="48.108026" popular_title="" region="Ульяновская область" short_title="873 км" title="873 км" /><station direction="Димитровградское" esr="647534" importance="3" lat="54.443303" lon="52.653978" popular_title="" region="Республика Татарстан" short_title="1242 км" title="1242 км" /><station direction="Сызранское" esr="644644" importance="4" lat="54.099397" lon="48.322481" popular_title="" region="Ульяновская область" short_title="27 км" title="27 км" /><station direction="Сызранское" esr="644517" importance="4" lat="53.994418" lon="48.337699" popular_title="" region="Ульяновская область" short_title="37 км" title="37 км" /><station direction="Димитровградское" esr="646052" importance="4" lat="54.336245" lon="49.295375" popular_title="" region="Ульяновская область" short_title="958 км" title="958 км" /><station direction="Димитровградское" esr="646512" importance="4" lat="54.207674" lon="49.879405" popular_title="" region="Ульяновская область" short_title="1004 км" title="1004 км" /><station direction="Сызранское" esr="644428" importance="4" lat="53.861432" lon="48.388013" popular_title="" region="Ульяновская область" short_title="54 км" title="54 км" /><station direction="Инзенское" esr="643228" importance="4" lat="53.898979" lon="46.664281" popular_title="" region="Ульяновская область" short_title="754 км" title="754 км" /><station direction="Инзенское" esr="643425" importance="4" lat="54.001548" lon="47.016690" popular_title="" region="Ульяновская область" short_title="777 км" title="777 км" /><station direction="Инзенское" esr="643637" importance="4" lat="54.101076" lon="47.400980" popular_title="" region="Ульяновская область" short_title="820 км" title="820 км" /><station direction="Инзенское" esr="643938" importance="4" lat="54.218089" lon="48.157604" popular_title="" region="Ульяновская область" short_title="878 км" title="878 км" /><station direction="Димитровградское" esr="646211" importance="4" lat="54.202593" lon="49.661276" popular_title="" region="Ульяновская область" short_title="989 км" title="989 км" /><station direction="Димитровградское" esr="646033" importance="4" lat="54.341169" lon="49.129249" popular_title="" region="Ульяновская область" short_title="Уренбаш" title="Уренбаш" /><station direction="Димитровградское" esr="646620" importance="4" lat="54.224638" lon="50.231392" popular_title="" region="Самарская область" short_title="1028 км" title="1028 км" /><station direction="Димитровградское" esr="646813" importance="4" lat="54.273955" lon="50.508154" popular_title="" region="Самарская область" short_title="1049 км" title="1049 км" /><station direction="Димитровградское" esr="646828" importance="4" lat="54.315116" lon="50.552441" popular_title="" region="Самарская область" short_title="1056 км" title="1056 км" /><station direction="Димитровградское" esr="646936" importance="4" lat="54.432417" lon="50.896595" popular_title="" region="Республика Татарстан" short_title="1084 км" title="1084 км" /><station direction="Димитровградское" esr="647267" importance="4" lat="54.469719" lon="51.528515" popular_title="" region="Самарская область" short_title="1132 км" title="1132 км" /><station direction="Димитровградское" esr="647426" importance="4" lat="54.282209" lon="52.186315" popular_title="" region="Самарская область" short_title="1198 км" title="1198 км" /><station direction="Димитровградское" esr="647457" importance="4" lat="54.295610" lon="52.357911" popular_title="" region="Самарская область" short_title="1208 км" title="1208 км" /><station direction="Сызранское" esr="432" importance="4" lat="53.557246" lon="48.483064" popular_title="" region="Самарская область" short_title="99 км" title="99 км" /><station direction="Димитровградское" esr="426" importance="4" lat="54.442062" lon="50.835860" popular_title="" region="Республика Татарстан" short_title="1081 км" title="1081 км" /><station direction="Димитровградское" esr="427" importance="4" lat="54.383557" lon="51.264248" popular_title="" region="Самарская область" short_title="1113 км" title="1113 км" /><station direction="Димитровградское" esr="428" importance="4" lat="54.311334" lon="51.757387" popular_title="" region="Самарская область" short_title="1160 км" title="1160 км" /><station direction="Димитровградское" esr="429" importance="4" lat="54.315505" lon="52.542317" popular_title="" region="Оренбургская область" short_title="1221 км" title="1221 км" /><station direction="Димитровградское" esr="430" importance="4" lat="54.375471" lon="52.566967" popular_title="" region="Республика Татарстан" short_title="1232 км" title="1232 км" /></suburban_zone>