<?xml version='1.0' encoding='UTF-8'?>
<suburban_zone id="29"><station city="Вильнюс" direction="Вильнюс-Кяна" esr="120005" importance="1" lat="54.669264" lon="25.287432" popular_title="" region="Вильнюсский уезд" short_title="Вильнюс" title="Вильнюс" /><station direction="Вильнюс-Каунас" esr="120931" importance="4" lat="54.722217" lon="24.982049" popular_title="" region="Вильнюсский уезд" short_title="Рикантай" title="Рикантай" /><station direction="Вильнюс-Каунас" esr="120950" importance="4" lat="54.766932" lon="24.903078" popular_title="" region="Вильнюсский уезд" short_title="Балтамишкис" title="Балтамишкис" /><station direction="Вильнюс-Каунас" esr="122710" importance="4" lat="54.818097" lon="24.700311" popular_title="" region="Вильнюсский уезд" short_title="Каугонис" title="Каугонис" /><station direction="Вильнюс-Кяна" esr="120429" importance="4" lat="54.651110" lon="25.592850" popular_title="" region="Вильнюсский уезд" short_title="Пакяне" title="Пакяне" /><station direction="Вильнюс-Каунас" esr="122918" importance="4" lat="54.913106" lon="24.152446" popular_title="" region="Каунасский уезд" short_title="Карчюпис" title="Карчюпис" /><station direction="Вильнюс-Каунас" esr="122829" importance="4" lat="54.887440" lon="24.288730" popular_title="" region="Каунасский уезд" short_title="Памерис" title="Памерис" /><station direction="Вильнюс-Каунас" esr="122814" importance="4" lat="54.874180" lon="24.378804" popular_title="" region="Каунасский уезд" short_title="Пагиряй" title="Пагиряй" /><station direction="Вильнюс-Каунас" esr="120912" importance="4" lat="54.653584" lon="25.027603" popular_title="" region="Вильнюсский уезд" short_title="Кариетишкес" title="Кариетишкес" /><station city="Тракай" direction="Вильнюс-Марцинконис" esr="122513" importance="2" lat="54.629137" lon="24.937472" popular_title="" region="Вильнюсский уезд" short_title="Тракай" title="Тракай" /><station city="Вильнюс" direction="Вильнюс-Турмантас" esr="120467" importance="4" lat="54.704981" lon="25.467391" popular_title="" region="Вильнюсский уезд" short_title="Электродепо 1" title="Электродепо 1" /><station city="Вильнюс" direction="Вильнюс-Кяна" esr="120452" importance="4" lat="54.686874" lon="25.475629" popular_title="" region="Вильнюсский уезд" short_title="Электродепо 2" title="Электродепо 2" /><station direction="Вильнюс-Каунас" esr="122941" importance="4" lat="54.893617" lon="24.013081" popular_title="" region="Каунасский уезд" short_title="Амаляй" title="Амаляй" /><station direction="Вильнюс-Каунас" esr="122922" importance="4" lat="54.914881" lon="24.068337" popular_title="" region="Каунасский уезд" short_title="Палямонас" title="Палямонас" /><station direction="Вильнюс-Каунас" esr="122903" importance="4" lat="54.897635" lon="24.232684" popular_title="" region="Каунасский уезд" short_title="Правенишкес" title="Правенишкес" /><station direction="Вильнюс-Каунас" esr="122725" importance="4" lat="54.831758" lon="24.597588" popular_title="" region="Каунасский уезд" short_title="Жасляй" title="Жасляй" /><station direction="Вильнюс-Каунас" esr="120946" importance="4" lat="54.752022" lon="24.937466" popular_title="" region="Вильнюсский уезд" short_title="Лазденай" title="Лазденай" /><station direction="Вильнюс-Марцинконис" esr="120819" importance="3" lat="54.631728" lon="25.127504" popular_title="" region="Вильнюсский уезд" short_title="Воке" title="Воке" /><station direction="Вильнюс-Каунас" esr="122803" importance="4" lat="54.862347" lon="24.460874" popular_title="" region="Каунасский уезд" short_title="Кайшядорис" title="Кайшядорис" /><station direction="Вильнюс-Марцинконис" esr="120908" importance="3" lat="54.646104" lon="25.053205" popular_title="" region="Вильнюсский уезд" short_title="Лянтварис" title="Лянтварис" /><station direction="Вильнюс-Турмантас" esr="129103" importance="4" lat="55.695712" lon="26.468986" popular_title="" region="Утенский уезд" short_title="Турмантас" title="Турмантас" /><station direction="Вильнюс-Турмантас" esr="128906" importance="4" lat="55.514452" lon="26.325354" popular_title="" region="Утенский уезд" short_title="Дукштас" title="Дукштас" /><station direction="Вильнюс-Турмантас" esr="128609" importance="4" lat="55.335474" lon="26.163118" popular_title="" region="Утенский уезд" short_title="Игналина" title="Игналина" /><station direction="Вильнюс-Турмантас" esr="128505" importance="4" lat="55.163245" lon="25.994990" popular_title="" region="Вильнюсский уезд" short_title="Швянченеляй" title="Швянченеляй" /><station direction="Вильнюс-Турмантас" esr="128401" importance="4" lat="54.975062" lon="25.769521" popular_title="" region="Вильнюсский уезд" short_title="Пабраде" title="Пабраде" /><station direction="Вильнюс-Марцинконис" esr="121608" importance="4" lat="54.208348" lon="24.573343" popular_title="" region="Алитусский уезд" short_title="Варена" title="Варена" /><station direction="Вильнюс-Турмантас" esr="128204" importance="4" lat="54.807933" lon="25.522772" popular_title="" region="Вильнюсский уезд" short_title="Бяздонис" title="Бяздонис" /><station direction="Вильнюс-Турмантас" esr="128308" importance="4" lat="54.862891" lon="25.572970" popular_title="" region="Вильнюсский уезд" short_title="Скярсабаляй" title="Скярсабаляй" /><station direction="Вильнюс-Турмантас" esr="128444" importance="4" lat="54.894005" lon="25.642823" popular_title="" region="Вильнюсский уезд" short_title="Сантака" title="Сантака" /><station direction="Вильнюс-Турмантас" esr="128562" importance="4" lat="54.931733" lon="25.662622" popular_title="" region="Вильнюсский уезд" short_title="Паилгис" title="Паилгис" /><station direction="Вильнюс-Турмантас" esr="125564" importance="4" lat="55.023909" lon="25.868013" popular_title="" region="Вильнюсский уезд" short_title="Пажеймяне" title="Пажеймяне" /><station city="Каунас" direction="Вильнюс-Каунас" esr="123107" importance="2" lat="54.885456" lon="23.921588" popular_title="" region="Каунасский уезд" short_title="Каунас" title="Каунас" /><station direction="Вильнюс-Турмантас" esr="128914" importance="4" lat="55.414593" lon="26.217745" popular_title="" region="Вильнюсский уезд" short_title="Лобиняй" title="Лобиняй" /><station direction="Вильнюс-Турмантас" esr="129118" importance="4" lat="55.568471" lon="26.365877" popular_title="" region="Утенский уезд" short_title="Гярконис" title="Гярконис" /><station city="Висагинас" direction="Вильнюс-Турмантас" esr="129122" importance="1" lat="55.615232" lon="26.420108" popular_title="" region="Утенский уезд" short_title="Висагинас" title="Висагинас" /><station direction="Вильнюс-Каунас" esr="120927" importance="4" lat="54.695539" lon="25.000132" popular_title="" region="Вильнюсский уезд" short_title="Саусяй" title="Саусяй" /><station city="Вильнюс" direction="Вильнюс-Марцинконис" esr="120804" importance="3" lat="54.631806" lon="25.190117" popular_title="" region="Вильнюсский уезд" short_title="Паняряй" title="Паняряй" /><station direction="Вильнюс-Стасилос" esr="120518" importance="4" lat="54.327778" lon="25.346650" popular_title="" region="Вильнюсский уезд" short_title="Стасилос" title="Стасилос" /><station direction="Вильнюс-Кяна" esr="120433" importance="4" lat="54.638507" lon="25.694737" popular_title="" region="Вильнюсский уезд" short_title="Кяна" title="Кяна" /><station direction="Вильнюс-Каунас" esr="122706" importance="4" lat="54.778674" lon="24.814729" popular_title="" region="Вильнюсский уезд" short_title="Вевис" title="Вевис" /><station direction="Вильнюс-Кяна" esr="120414" importance="4" lat="54.671774" lon="25.519969" popular_title="" region="Вильнюсский уезд" short_title="Кивишкес" title="Кивишкес" /><station direction="Вильнюс-Марцинконис" esr="122509" importance="3" lat="54.619437" lon="24.988122" popular_title="" region="Вильнюсский уезд" short_title="Сянейи Тракай" title="Сянейи Тракай" /><station direction="Вильнюс-Марцинконис" esr="122424" importance="4" lat="54.599263" lon="24.950626" popular_title="" region="Вильнюсский уезд" short_title="Мишкиняй" title="Мишкиняй" /><station direction="Вильнюс-Марцинконис" esr="122418" importance="4" lat="54.558242" lon="24.877324" popular_title="" region="Вильнюсский уезд" short_title="Шклеряй" title="Шклеряй" /><station direction="Вильнюс-Марцинконис" esr="122405" importance="4" lat="54.515377" lon="24.832498" popular_title="" region="Вильнюсский уезд" short_title="Рудишкес" title="Рудишкес" /><station direction="Вильнюс-Марцинконис" esr="122320" importance="4" lat="54.445895" lon="24.777323" popular_title="" region="Вильнюсский уезд" short_title="Кляпочяй" title="Кляпочяй" /><station direction="Вильнюс-Марцинконис" esr="122316" importance="4" lat="54.394860" lon="24.748694" popular_title="" region="Вильнюсский уезд" short_title="Кальвяй" title="Кальвяй" /><station direction="Вильнюс-Марцинконис" esr="122301" importance="4" lat="54.358707" lon="24.726038" popular_title="" region="Алитусский уезд" short_title="Валькининкай" title="Валькининкай" /><station direction="Вильнюс-Марцинконис" esr="122212" importance="4" lat="54.315683" lon="24.708809" popular_title="" region="Алитусский уезд" short_title="Памяркяй" title="Памяркяй" /><station direction="Вильнюс-Марцинконис" esr="122208" importance="4" lat="54.270690" lon="24.682883" popular_title="" region="Алитусский уезд" short_title="Матуйзос" title="Матуйзос" /><station direction="Вильнюс-Марцинконис" esr="121614" importance="4" lat="54.111285" lon="24.489521" popular_title="" region="Алитусский уезд" short_title="Зярвинос" title="Зярвинос" /><station direction="Вильнюс-Марцинконис" esr="121629" importance="4" lat="54.056064" lon="24.417225" popular_title="" region="Алитусский уезд" short_title="Марцинконис" title="Марцинконис" /><station city="Вильнюс" direction="Вильнюс-Кяна" esr="128469" importance="3" lat="54.675496" lon="25.354087" popular_title="" region="Вильнюсский уезд" short_title="Павильнис" title="Павильнис" /><station city="Вильнюс" direction="Вильнюс-Кяна" esr="120402" importance="3" lat="54.693301" lon="25.411022" popular_title="" region="Вильнюсский уезд" short_title="Науйойи-Вильня" title="Науйойи-Вильня" /><station direction="Вильнюс-Турмантас" esr="128454" importance="4" lat="54.719560" lon="25.496874" popular_title="" region="Вильнюсский уезд" short_title="Мицкунай" title="Мицкунай" /><station direction="Вильнюс-Турмантас" esr="128613" importance="4" lat="55.257637" lon="26.060306" popular_title="" region="Вильнюсский уезд" short_title="Пакрятуоне" title="Пакрятуоне" /><station city="Вильнюс" direction="Вильнюс-Стасилос" esr="121101" importance="2" lat="54.634167" lon="25.285833" popular_title="" region="Вильнюсский уезд" short_title="Вильнюс" title="аэропорт Вильнюс" /></suburban_zone>