<?xml version='1.0' encoding='UTF-8'?>
<suburban_zone id="36"><station city="Кременчуг" direction="Александрийское" esr="425302" importance="2" lat="49.031517" lon="33.436409" popular_title="" region="Полтавская область" short_title="Крюков-на-Днепре" title="Крюков-на-Днепре" /><station direction="Александрийское" esr="425355" importance="3" lat="48.974347" lon="33.317411" popular_title="" region="Полтавская область" short_title="Бурты" title="Бурты" /><station city="Кременчуг" direction="Александрийское" esr="425001" importance="1" lat="49.067740" lon="33.428003" popular_title="" region="Полтавская область" short_title="Кременчуг" title="Кременчуг" /><station direction="Александрийское" esr="425340" importance="4" lat="48.984671" lon="33.352844" popular_title="" region="Полтавская область" short_title="Белецковка" title="Белецковка" /><station city="Кременчуг" direction="Александрийское" esr="425321" importance="4" lat="49.007371" lon="33.399360" popular_title="" region="Полтавская область" short_title="Малановка" title="Малановка" /><station city="Кременчуг" direction="Александрийское" esr="425317" importance="4" lat="49.014815" lon="33.425781" popular_title="" region="Полтавская область" short_title="Вагонозавод" title="Вагонозавод" /><station direction="Александрийское" esr="425336" importance="4" lat="48.993697" lon="33.384758" popular_title="" region="Полтавская область" short_title="270 км" title="270 км" /><station city="Южноукраинск" direction="Кировоградское" esr="413305" importance="2" lat="47.818870" lon="31.263562" popular_title="" region="Николаевская область" short_title="Южноукраинская" title="Южноукраинская" /><station direction="Долинское" esr="413521" importance="3" lat="48.162688" lon="31.454508" popular_title="" region="Кировоградская область" short_title="Высоцкое" title="Высоцкое" /><station direction="Александрийское" esr="410716" importance="4" lat="48.488032" lon="33.518752" popular_title="" region="Днепропетровская область" short_title="Желтая" title="Желтая" /><station direction="Шевченковское" esr="423129" importance="4" lat="48.915491" lon="32.336430" popular_title="" region="Кировоградская область" short_title="Сосновка" title="Сосновка" /><station direction="Кировоградское" esr="411306" importance="4" lat="48.587450" lon="32.383475" popular_title="" region="Кировоградская область" short_title="Канатово" title="Канатово" /><station direction="Долинское" esr="414204" importance="4" lat="48.094987" lon="32.167484" popular_title="" region="Кировоградская область" short_title="Бобринец" title="Бобринец" /><station direction="Долинское" esr="414242" importance="4" lat="48.119988" lon="31.519042" popular_title="" region="Кировоградская область" short_title="Кропивницкая" title="Кропивницкая" /><station direction="Долинское" esr="414223" importance="4" lat="48.100302" lon="31.884530" popular_title="" region="Кировоградская область" short_title="Осиковатая" title="Осиковатая" /><station direction="Долинское" esr="414149" importance="4" lat="48.125935" lon="32.529597" popular_title="" region="Кировоградская область" short_title="Седневка" title="Седневка" /><station direction="Долинское" esr="413714" importance="4" lat="48.698291" lon="32.605494" popular_title="" region="Кировоградская область" short_title="5 км" title="5 км" /><station direction="Кировоградское" esr="412815" importance="4" lat="47.427242" lon="31.257293" popular_title="" region="Николаевская область" short_title="1162 км" title="1162 км" /><station direction="Кировоградское" esr="413517" importance="4" lat="48.096986" lon="31.484491" popular_title="" region="Николаевская область" short_title="Олейниково" title="Олейниково" /><station city="Смела" direction="Шевченковское" esr="420008" importance="1" lat="49.202600" lon="31.903407" popular_title="" region="Черкасская область" short_title="Им.Тараса Шевченко" title="Им.Тараса Шевченко" /><station direction="Кировоградское" esr="411102" importance="3" lat="48.749634" lon="32.516528" popular_title="" region="Кировоградская область" short_title="Чернолесская" title="Чернолесская" /><station direction="Шевченковское" esr="423108" importance="4" lat="48.972538" lon="32.254397" popular_title="" region="Кировоградская область" short_title="Фундуклеевка" title="Фундуклеевка" /><station direction="Шевченковское" esr="422910" importance="4" lat="49.013967" lon="32.167543" popular_title="" region="Черкасская область" short_title="Косари" title="Косари" /><station direction="Шевченковское" esr="422906" importance="4" lat="49.048432" lon="32.066507" popular_title="" region="Черкасская область" short_title="Каменка" title="Каменка" /><station direction="Шевченковское" esr="420050" importance="4" lat="49.096684" lon="31.999309" popular_title="" region="Черкасская область" short_title="Райгород" title="Райгород" /><station city="Помошная" direction="Долинское" esr="411901" importance="1" lat="48.245425" lon="31.413821" popular_title="" region="Кировоградская область" short_title="Помошная" title="Помошная" /><station city="Александрия" direction="Александрийское" esr="410400" importance="2" lat="48.666068" lon="33.138680" popular_title="" region="Кировоградская область" short_title="Александрия" title="Александрия" /><station city="Павлыш" direction="Александрийское" esr="410909" importance="2" lat="48.911836" lon="33.338717" popular_title="" region="Кировоградская область" short_title="Павлыш" title="Павлыш" /><station direction="Александрийское" esr="410749" importance="4" lat="48.818622" lon="33.162728" popular_title="" region="Кировоградская область" short_title="Лекаревка" title="Лекаревка" /><station direction="Александрийское" esr="411009" importance="4" lat="48.578468" lon="33.226949" popular_title="" region="Кировоградская область" short_title="Королевка" title="Королевка" /><station city="Знаменка" direction="Долинское" esr="410010" importance="2" lat="48.720252" lon="32.647101" popular_title="" region="Кировоградская область" short_title="Знаменка-Пасс." title="Знаменка-Пасс." /><station direction="Александрийское" esr="410608" importance="4" lat="48.594959" lon="33.383669" popular_title="" region="Кировоградская область" short_title="Счастливая" title="Счастливая" /><station direction="Александрийское" esr="410701" importance="4" lat="48.509855" lon="33.499893" popular_title="" region="Днепропетровская область" short_title="Зелёная" title="Зелёная" /><station direction="Александрийское" esr="410735" importance="4" lat="48.445972" lon="33.624175" popular_title="" region="Днепропетровская область" short_title="Яковлевка" title="Яковлевка" /><station direction="Александрийское" esr="410203" importance="4" lat="48.672881" lon="32.890835" popular_title="" region="Кировоградская область" short_title="Пантаевка" title="Пантаевка" /><station city="Веселиново" direction="Кировоградское" esr="412800" importance="1" lat="47.359377" lon="31.232967" popular_title="" region="Николаевская область" short_title="Веселиново" title="Веселиново" /><station direction="Кировоградское" esr="412711" importance="4" lat="47.332641" lon="31.101523" popular_title="" region="Николаевская область" short_title="Николаево" title="Николаево" /><station city="Знаменка" direction="Долинское" esr="410006" importance="3" lat="48.719972" lon="32.628715" popular_title="" region="Кировоградская область" short_title="Знаменка-Сорт." title="Знаменка-Сорт." /><station direction="Кировоградское" esr="411704" importance="4" lat="48.459363" lon="31.726529" popular_title="" region="Кировоградская область" short_title="Плетеный Ташлык" title="Плетеный Ташлык" /><station direction="Кировоградское" esr="411808" importance="4" lat="48.331040" lon="31.520617" popular_title="" region="Кировоградская область" short_title="Новоукраинка" title="Новоукраинка" /><station direction="Кировоградское" esr="413502" importance="4" lat="48.028821" lon="31.448121" popular_title="" region="Николаевская область" short_title="Людмиловка" title="Людмиловка" /><station direction="Кировоградское" esr="413409" importance="4" lat="47.916828" lon="31.274649" popular_title="" region="Николаевская область" short_title="Кавуны" title="Кавуны" /><station direction="Кировоградское" esr="413201" importance="4" lat="47.703222" lon="31.306360" popular_title="" region="Николаевская область" short_title="Трикратное" title="Трикратное" /><station direction="Кировоградское" esr="412904" importance="4" lat="47.466411" lon="31.276158" popular_title="" region="Николаевская область" short_title="Мартыновская" title="Мартыновская" /><station city="Кировоград" direction="Кировоградское" esr="411403" importance="2" lat="48.523083" lon="32.261911" popular_title="" region="Кировоградская область" short_title="Кировоград" title="Кировоград" /><station direction="Долинское" esr="413707" importance="4" lat="48.649375" lon="32.625949" popular_title="" region="Кировоградская область" short_title="Сахарная" title="Сахарная" /><station direction="Долинское" esr="413790" importance="4" lat="48.571035" lon="32.665573" popular_title="" region="Кировоградская область" short_title="Медерово" title="Медерово" /><station direction="Долинское" esr="413930" importance="4" lat="48.503874" lon="32.787699" popular_title="" region="Кировоградская область" short_title="Шаровка" title="Шаровка" /><station direction="Долинское" esr="413911" importance="4" lat="48.441364" lon="32.847860" popular_title="" region="Кировоградская область" short_title="Чабановка" title="Чабановка" /><station direction="Долинское" esr="414007" importance="4" lat="48.312342" lon="32.787124" popular_title="" region="Кировоградская область" short_title="Куцовка" title="Куцовка" /><station direction="Долинское" esr="414011" importance="4" lat="48.214478" lon="32.755279" popular_title="" region="Кировоградская область" short_title="Маржановка" title="Маржановка" /><station city="Вознесенск" direction="Кировоградское" esr="413004" importance="2" lat="47.573214" lon="31.320706" popular_title="" region="Николаевская область" short_title="Вознесенск" title="Вознесенск" /><station direction="Долинское" esr="414100" importance="3" lat="48.115250" lon="32.760359" popular_title="" region="Кировоградская область" short_title="Долинская" title="Долинская" /><station direction="Кировоградское" esr="412707" importance="3" lat="47.305558" lon="31.019509" popular_title="" region="Николаевская область" short_title="Колосовка" title="Колосовка" /><station direction="Александрийское" esr="410307" importance="3" lat="48.731770" lon="33.075852" popular_title="" region="Кировоградская область" short_title="Користовка" title="Користовка" /><station direction="Александрийское" esr="410326" importance="4" lat="48.775800" lon="33.133341" popular_title="" region="Кировоградская область" short_title="309 км" title="309 км" /><station direction="Александрийское" esr="410815" importance="4" lat="48.873615" lon="33.241778" popular_title="" region="Кировоградская область" short_title="294 км" title="294 км" /><station direction="Долинское" esr="414115" importance="3" lat="48.053068" lon="32.830568" popular_title="" region="Кировоградская область" short_title="Тимково" title="Тимково" /><station direction="Кировоградское" esr="413108" importance="4" lat="47.635475" lon="31.302560" popular_title="" region="Николаевская область" short_title="Александровка" title="Александровка" /><station direction="Кировоградское" esr="411507" importance="4" lat="48.518605" lon="32.122205" popular_title="" region="Кировоградская область" short_title="Лелековка" title="Лелековка" /><station direction="Кировоградское" esr="411117" importance="4" lat="48.721222" lon="32.427176" popular_title="" region="Кировоградская область" short_title="Кучеровка" title="Кучеровка" /><station direction="Долинское" esr="466656" importance="4" lat="47.721862" lon="33.621307" popular_title="" region="Днепропетровская область" short_title="29 км" title="29 км" /><station direction="Долинское" esr="466431" importance="4" lat="47.630622" lon="33.759782" popular_title="" region="Днепропетровская область" short_title="47 км" title="47 км" /><station direction="Долинское" esr="467911" importance="4" lat="47.955266" lon="32.984718" popular_title="" region="Николаевская область" short_title="Утешное" title="Утешное" /><station direction="Долинское" esr="466105" importance="4" lat="47.607396" lon="34.268092" popular_title="" region="Днепропетровская область" short_title="Никопольстрой" title="Никопольстрой" /><station city="Кривой Рог" direction="Долинское" esr="466923" importance="4" lat="47.915843" lon="33.485891" popular_title="" region="Днепропетровская область" short_title="Новоблочная" title="Новоблочная" /><station direction="Долинское" esr="466622" importance="4" lat="47.750631" lon="33.588672" popular_title="" region="Днепропетровская область" short_title="Нива-Трудовая" title="Нива-Трудовая" /><station direction="Долинское" esr="466228" importance="4" lat="47.613548" lon="34.035523" popular_title="" region="Днепропетровская область" short_title="71 км" title="71 км" /><station city="Кривой Рог" direction="Долинское" esr="466919" importance="4" lat="47.895743" lon="33.484988" popular_title="" region="Днепропетровская область" short_title="Лесозащитная" title="Лесозащитная" /><station direction="Долинское" esr="466112" importance="4" lat="47.601144" lon="34.239767" popular_title="" region="Днепропетровская область" short_title="87 км" title="87 км" /><station city="Кривой Рог" direction="Долинское" esr="467201" importance="2" lat="47.881100" lon="33.384226" popular_title="" region="Днепропетровская область" short_title="Кривой Рог (город)" title="Кривой Рог (город)" /><station direction="Долинское" esr="466406" importance="4" lat="47.632005" lon="33.928065" popular_title="" region="Днепропетровская область" short_title="Ток" title="Ток" /><station city="Кривой Рог" direction="Долинское" esr="466904" importance="4" lat="47.872229" lon="33.483227" popular_title="" region="Днепропетровская область" short_title="Батуринская" title="Батуринская" /><station direction="Долинское" esr="467606" importance="4" lat="47.886325" lon="33.204650" popular_title="" region="Днепропетровская область" short_title="Моисеевка" title="Моисеевка" /><station direction="Долинское" esr="468007" importance="4" lat="47.980708" lon="32.865715" popular_title="" region="Николаевская область" short_title="Висунь" title="Висунь" /><station city="Никополь" direction="Долинское" esr="466001" importance="2" lat="47.585804" lon="34.391190" popular_title="" region="Днепропетровская область" short_title="Никополь" title="Никополь" /><station direction="Долинское" esr="466302" importance="4" lat="47.605404" lon="33.995889" popular_title="" region="Днепропетровская область" short_title="Подстепное" title="Подстепное" /><station city="Пятихатки" direction="Александрийское" esr="456809" importance="1" lat="48.414419" lon="33.703871" popular_title="" region="Днепропетровская область" short_title="Пятихатки-Пасс." title="Пятихатки-Пасс." /><station direction="Долинское" esr="466800" importance="4" lat="47.824671" lon="33.509202" popular_title="" region="Днепропетровская область" short_title="Радушная" title="Радушная" /><station direction="Долинское" esr="467907" importance="4" lat="47.929495" lon="33.067880" popular_title="" region="Днепропетровская область" short_title="Гейковка" title="Гейковка" /><station city="Апостолово" direction="Долинское" esr="466603" importance="2" lat="47.658230" lon="33.694137" popular_title="" region="Днепропетровская область" short_title="Апостолово" title="Апостолово" /><station city="Кривой Рог" direction="Долинское" esr="467305" importance="3" lat="47.879143" lon="33.309460" popular_title="" region="Днепропетровская область" short_title="Кривой Рог-западный" title="Кривой Рог-западный" /><station city="Пятихатки" direction="Александрийское" esr="456828" importance="2" lat="48.425222" lon="33.648689" popular_title="" region="Днепропетровская область" short_title="Пятихатки-Стыковая" title="Пятихатки-Стыковая" /><station direction="Долинское" esr="466209" importance="4" lat="47.618674" lon="34.131805" popular_title="" region="Днепропетровская область" short_title="Чертомлык" title="Чертомлык" /><station city="Кривой Рог" direction="Долинское" esr="467004" importance="1" lat="47.912357" lon="33.451048" popular_title="" region="Днепропетровская область" short_title="Кривой Рог-главный" title="Кривой Рог-главный" /><station direction="Кировоградское" esr="412726" importance="4" lat="47.328446" lon="31.184411" popular_title="" region="Николаевская область" short_title="Анновка" title="Анновка" /><station direction="Кировоградское" esr="412919" importance="4" lat="47.481623" lon="31.317422" popular_title="" region="Николаевская область" short_title="1154 км" title="1154 км" /><station direction="Кировоградское" esr="002018" importance="4" lat="47.497469" lon="31.390688" popular_title="" region="Николаевская область" short_title="Ястребиново" title="Ястребиново" /><station direction="Кировоградское" esr="412923" importance="4" lat="47.529885" lon="31.361056" popular_title="" region="Николаевская область" short_title="1141 км" title="1141 км" /><station direction="Кировоградское" esr="002020" importance="4" lat="47.774016" lon="31.268471" popular_title="" region="Николаевская область" short_title="1107 км" title="1107 км" /><station direction="Кировоградское" esr="002021" importance="4" lat="47.870551" lon="31.285522" popular_title="" region="Николаевская область" short_title="1097 км" title="1097 км" /><station direction="Кировоградское" esr="002022" importance="4" lat="47.944704" lon="31.290713" popular_title="" region="Николаевская область" short_title="1090 км" title="1090 км" /><station direction="Александрийское" esr="410034" importance="4" lat="48.708128" lon="32.722714" popular_title="" region="Кировоградская область" short_title="309 км" title="309 км" /><station direction="Александрийское" esr="410044" importance="4" lat="48.705382" lon="32.799584" popular_title="" region="Кировоградская область" short_title="314 км" title="314 км" /><station direction="Александрийское" esr="410222" importance="4" lat="48.677832" lon="32.942458" popular_title="" region="Кировоградская область" short_title="Морозовка" title="Морозовка" /><station direction="Александрийское" esr="410241" importance="4" lat="48.720282" lon="32.973824" popular_title="" region="Кировоградская область" short_title="Алиевка" title="Алиевка" /><station direction="Александрийское" esr="410256" importance="4" lat="48.734094" lon="33.025790" popular_title="" region="Кировоградская область" short_title="Протопоповка" title="Протопоповка" /><station direction="Александрийское" esr="410415" importance="4" lat="48.635731" lon="33.142557" popular_title="" region="Кировоградская область" short_title="Новофилипповка" title="Новофилипповка" /><station direction="Александрийское" esr="410420" importance="4" lat="48.611298" lon="33.159480" popular_title="" region="Кировоградская область" short_title="Байдаковка" title="Байдаковка" /><station direction="Александрийское" esr="410434" importance="4" lat="48.585489" lon="33.200779" popular_title="" region="Кировоградская область" short_title="Песчаный Брод" title="Песчаный Брод" /><station direction="Александрийское" esr="410519" importance="4" lat="48.590694" lon="33.319203" popular_title="" region="Кировоградская область" short_title="Соловьевка" title="Соловьевка" /><station direction="Александрийское" esr="410612" importance="4" lat="48.567069" lon="33.448936" popular_title="" region="Кировоградская область" short_title="Тарасовка" title="Тарасовка" /><station direction="Долинское" esr="410059" importance="3" lat="48.719453" lon="32.623019" popular_title="" region="Кировоградская область" short_title="Вагонное депо" title="Вагонное депо" /><station direction="Долинское" esr="413926" importance="4" lat="48.382244" lon="32.807806" popular_title="" region="Кировоградская область" short_title="50 км" title="50 км" /><station direction="Долинское" esr="002081" importance="4" lat="48.255717" lon="32.754129" popular_title="" region="Кировоградская область" short_title="65 км" title="65 км" /><station direction="Долинское" esr="414121" importance="4" lat="48.086273" lon="32.745868" popular_title="" region="Кировоградская область" short_title="124 км" title="124 км" /><station direction="Долинское" esr="413606" importance="4" lat="48.105096" lon="32.669720" popular_title="" region="Кировоградская область" short_title="Червоное Озеро" title="Червоное Озеро" /><station direction="Долинское" esr="002077" importance="4" lat="48.126997" lon="32.559818" popular_title="" region="Кировоградская область" short_title="109 км" title="109 км" /><station direction="Долинское" esr="002076" importance="4" lat="48.110401" lon="32.492382" popular_title="" region="Кировоградская область" short_title="103 км" title="103 км" /><station direction="Долинское" esr="414168" importance="4" lat="48.093276" lon="32.330942" popular_title="" region="Кировоградская область" short_title="88 км" title="88 км" /><station direction="Долинское" esr="002073" importance="4" lat="48.074596" lon="32.280110" popular_title="" region="Кировоградская область" short_title="82 км" title="82 км" /><station direction="Долинское" esr="002071" importance="4" lat="48.114448" lon="32.141372" popular_title="" region="Кировоградская область" short_title="65 км" title="65 км" /><station direction="Долинское" esr="414219" importance="4" lat="48.131374" lon="32.069941" popular_title="" region="Кировоградская область" short_title="61 км" title="61 км" /><station direction="Долинское" esr="002066" importance="4" lat="48.104358" lon="31.809323" popular_title="" region="Кировоградская область" short_title="40 км" title="40 км" /><station direction="Долинское" esr="002061" importance="4" lat="48.123627" lon="31.547594" popular_title="" region="Кировоградская область" short_title="22 км" title="22 км" /><station direction="Кировоградское" esr="410078" importance="3" lat="48.717179" lon="32.594592" popular_title="" region="Кировоградская область" short_title="Знаменка-2" title="Знаменка-2" /><station direction="Кировоградское" esr="410082" importance="3" lat="48.731030" lon="32.571220" popular_title="" region="Кировоградская область" short_title="Колхозная" title="Колхозная" /><station direction="Кировоградское" esr="411121" importance="3" lat="48.742948" lon="32.562440" popular_title="" region="Кировоградская область" short_title="Водяная" title="Водяная" /><station direction="Шевченковское" esr="423260" importance="4" lat="48.752236" lon="32.484290" popular_title="" region="Кировоградская область" short_title="Богдановка" title="Богдановка" /><station direction="Шевченковское" esr="423256" importance="4" lat="48.762674" lon="32.459262" popular_title="" region="Кировоградская область" short_title="Кохановка" title="Кохановка" /><station direction="Шевченковское" esr="423237" importance="4" lat="48.785708" lon="32.438010" popular_title="" region="Кировоградская область" short_title="Еградковка" title="Еградковка" /><station direction="Шевченковское" esr="423218" importance="4" lat="48.819618" lon="32.457270" popular_title="" region="Кировоградская область" short_title="Мамаев Яр" title="Мамаев Яр" /><station direction="Шевченковское" esr="423148" importance="4" lat="48.848980" lon="32.412408" popular_title="" region="Кировоградская область" short_title="Цыбулево" title="Цыбулево" /><station direction="Шевченковское" esr="002054" importance="4" lat="48.897469" lon="32.368668" popular_title="" region="Кировоградская область" short_title="264 км" title="264 км" /><station direction="Шевченковское" esr="002055" importance="4" lat="48.932379" lon="32.319126" popular_title="" region="Кировоградская область" short_title="260 км" title="260 км" /><station direction="Шевченковское" esr="423114" importance="4" lat="48.950961" lon="32.294956" popular_title="" region="Кировоградская область" short_title="Бирки" title="Бирки" /><station direction="Шевченковское" esr="002056" importance="4" lat="48.961563" lon="32.270591" popular_title="" region="Кировоградская область" short_title="255 км" title="255 км" /><station direction="Шевченковское" esr="002057" importance="4" lat="49.000190" lon="32.201833" popular_title="" region="Кировоградская область" short_title="247 км" title="247 км" /><station direction="Шевченковское" esr="002058" importance="4" lat="49.027637" lon="32.143706" popular_title="" region="Черкасская область" short_title="241 км" title="241 км" /><station direction="Шевченковское" esr="002059" importance="4" lat="49.040968" lon="32.102016" popular_title="" region="Черкасская область" short_title="Геологическая" title="Геологическая" /><station direction="Шевченковское" esr="420073" importance="4" lat="49.053158" lon="32.042563" popular_title="" region="Черкасская область" short_title="Пляковка" title="Пляковка" /><station direction="Шевченковское" esr="420065" importance="4" lat="49.062516" lon="32.016730" popular_title="" region="Черкасская область" short_title="Яровое" title="Яровое" /><station direction="Шевченковское" esr="420046" importance="4" lat="49.127313" lon="31.980106" popular_title="" region="Черкасская область" short_title="Березняцкая" title="Березняцкая" /><station direction="Шевченковское" esr="002060" importance="4" lat="49.137995" lon="31.971718" popular_title="" region="Черкасская область" short_title="222 км" title="222 км" /><station direction="Шевченковское" esr="420031" importance="4" lat="49.153520" lon="31.951657" popular_title="" region="Черкасская область" short_title="Березняки" title="Березняки" /><station direction="Шевченковское" esr="420027" importance="4" lat="49.170507" lon="31.938463" popular_title="" region="Черкасская область" short_title="Большая Яблоновка" title="Большая Яблоновка" /><station direction="Шевченковское" esr="420012" importance="4" lat="49.184679" lon="31.933508" popular_title="" region="Черкасская область" short_title="Веселый Кут" title="Веселый Кут" /><station direction="Кировоградское" esr="002046" importance="4" lat="48.740762" lon="32.477517" popular_title="" region="Кировоградская область" short_title="325 км" title="325 км" /><station direction="Кировоградское" esr="002047" importance="4" lat="48.707591" lon="32.395718" popular_title="" region="Кировоградская область" short_title="317 км" title="317 км" /><station direction="Кировоградское" esr="411136" importance="4" lat="48.681689" lon="32.369067" popular_title="" region="Кировоградская область" short_title="Треповка" title="Треповка" /><station direction="Кировоградское" esr="411210" importance="4" lat="48.627846" lon="32.393596" popular_title="" region="Кировоградская область" short_title="Барвинково" title="Барвинково" /><station direction="Кировоградское" esr="411314" importance="4" lat="48.552586" lon="32.339576" popular_title="" region="Кировоградская область" short_title="Можарово" title="Можарово" /><station direction="Кировоградское" esr="002048" importance="4" lat="48.526142" lon="32.294219" popular_title="" region="Кировоградская область" short_title="290 км" title="290 км" /><station direction="Кировоградское" esr="002049" importance="4" lat="48.531254" lon="32.235138" popular_title="" region="Кировоградская область" short_title="286 км" title="286 км" /><station direction="Кировоградское" esr="411511" importance="4" lat="48.517222" lon="31.966452" popular_title="" region="Кировоградская область" short_title="Шестаковка" title="Шестаковка" /><station direction="Кировоградское" esr="411615" importance="4" lat="48.533677" lon="31.921744" popular_title="" region="Кировоградская область" short_title="261 км" title="261 км" /><station direction="Кировоградское" esr="411625" importance="4" lat="48.513301" lon="31.840473" popular_title="" region="Кировоградская область" short_title="Марьяновка" title="Марьяновка" /><station direction="Кировоградское" esr="411634" importance="4" lat="48.493489" lon="31.808296" popular_title="" region="Кировоградская область" short_title="248 км" title="248 км" /><station direction="Кировоградское" esr="002052" importance="4" lat="48.487593" lon="31.796032" popular_title="" region="Кировоградская область" short_title="246 км" title="246 км" /><station direction="Кировоградское" esr="411719" importance="4" lat="48.417390" lon="31.644875" popular_title="" region="Кировоградская область" short_title="Новаковка" title="Новаковка" /><station direction="Кировоградское" esr="411723" importance="4" lat="48.388452" lon="31.593777" popular_title="" region="Кировоградская область" short_title="230 км" title="230 км" /><station direction="Кировоградское" esr="411827" importance="4" lat="48.334278" lon="31.447326" popular_title="" region="Кировоградская область" short_title="Зверево" title="Зверево" /><station direction="Кировоградское" esr="411831" importance="4" lat="48.287592" lon="31.430340" popular_title="" region="Кировоградская область" short_title="Акимовка" title="Акимовка" /><station direction="Кировоградское" esr="411846" importance="4" lat="48.274339" lon="31.419877" popular_title="" region="Кировоградская область" short_title="Федоровка" title="Федоровка" /><station direction="Кировоградское" esr="411850" importance="4" lat="48.254894" lon="31.421087" popular_title="" region="Кировоградская область" short_title="Локомотивное депо" title="Локомотивное депо" /><station direction="Александрийское" esr="002125" importance="4" lat="48.748338" lon="33.088975" popular_title="" region="Кировоградская область" short_title="Берёзовка" title="Берёзовка" /><station direction="Александрийское" esr="002126" importance="4" lat="48.794409" lon="33.158823" popular_title="" region="Кировоградская область" short_title="Конный Завод" title="Конный Завод" /><station direction="Александрийское" esr="002127" importance="4" lat="48.838764" lon="33.168135" popular_title="" region="Кировоградская область" short_title="Новоалексеевка" title="Новоалексеевка" /><station direction="Александрийское" esr="002128" importance="4" lat="48.865249" lon="33.228131" popular_title="" region="Кировоградская область" short_title="Озера" title="Озера" /><station direction="Александрийское" esr="002129" importance="4" lat="48.949656" lon="33.336481" popular_title="" region="Кировоградская область" short_title="Коцюбинский" title="Коцюбинский" /><station direction="Александрийское" esr="002130" importance="4" lat="48.964398" lon="33.328409" popular_title="" region="Кировоградская область" short_title="279 км" title="279 км" /></suburban_zone>