<?xml version='1.0' encoding='UTF-8'?>
<suburban_zone id="38"><station direction="Снигиревское" esr="416229" importance="4" lat="47.124988" lon="32.910032" popular_title="" region="Николаевская область" short_title="Новопавловка" title="Новопавловка" /><station direction="Снигиревское" esr="417062" importance="4" lat="46.908453" lon="34.256365" popular_title="" region="Херсонская область" short_title="Рубановка" title="Рубановка" /><station direction="Снигиревское" esr="416137" importance="3" lat="46.984503" lon="32.991972" popular_title="" region="Херсонская область" short_title="Совхозная" title="Совхозная" /><station direction="Снигиревское" esr="416712" importance="4" lat="47.570047" lon="33.613970" popular_title="" region="Днепропетровская область" short_title="Дубки" title="Дубки" /><station direction="Снигиревское" esr="416905" importance="4" lat="46.774389" lon="33.560249" popular_title="" region="Херсонская область" short_title="Заветная" title="Заветная" /><station direction="Джанкойское" esr="418923" importance="4" lat="46.338649" lon="33.313157" popular_title="" region="Херсонская область" short_title="Новокиевка" title="Новокиевка" /><station city="Чернобаевка" direction="Николаевское" esr="417728" importance="1" lat="46.716924" lon="32.531142" popular_title="" region="Херсонская область" short_title="Чернобаевка" title="Чернобаевка" /><station direction="Николаевское" esr="417715" importance="4" lat="46.766964" lon="32.416183" popular_title="" region="Херсонская область" short_title="Чеховичи" title="Чеховичи" /><station city="Николаев" direction="Николаевское" esr="415118" importance="3" lat="46.922965" lon="32.041710" popular_title="" region="Николаевская область" short_title="230 км" title="230 км" /><station city="Николаев" direction="Николаевское" esr="415122" importance="3" lat="46.926990" lon="32.029618" popular_title="" region="Николаевская область" short_title="Новое Садоводство" title="Новое Садоводство" /><station city="Николаев" direction="Николаевское" esr="415137" importance="3" lat="46.946250" lon="32.021681" popular_title="" region="Николаевская область" short_title="Судостроителей" title="Судостроителей" /><station direction="Снигиревское" esr="419316" importance="4" lat="46.743755" lon="32.682487" popular_title="" region="Херсонская область" short_title="Текстильная" title="Текстильная" /><station direction="Снигиревское" esr="419373" importance="4" lat="47.000593" lon="32.769505" popular_title="" region="Херсонская область" short_title="Дружба" title="Дружба" /><station direction="Николаевское" esr="417734" importance="4" lat="46.793435" lon="32.347168" popular_title="" region="Херсонская область" short_title="Петровское" title="Петровское" /><station direction="Снигиревское" esr="416144" importance="3" lat="46.943163" lon="33.089721" popular_title="" region="Херсонская область" short_title="Украина" title="Украина" /><station direction="Снигиревское" esr="416178" importance="3" lat="46.760380" lon="33.387585" popular_title="" region="Херсонская область" short_title="Электромаш" title="Электромаш" /><station city="Таврийск" direction="Снигиревское" esr="416816" importance="1" lat="46.754910" lon="33.444909" popular_title="" region="Херсонская область" short_title="Рефдепо" title="Рефдепо" /><station direction="Снигиревское" esr="416918" importance="4" lat="46.788267" lon="33.634460" popular_title="" region="Херсонская область" short_title="Зирка" title="Зирка" /><station direction="Снигиревское" esr="417039" importance="4" lat="46.841914" lon="33.935021" popular_title="" region="Херсонская область" short_title="Новые Олешки" title="Новые Олешки" /><station city="Великая Благовещенка" direction="Снигиревское" esr="417043" importance="1" lat="46.856611" lon="34.059906" popular_title="" region="Херсонская область" short_title="Великая Благовещенка" title="Великая Благовещенка" /><station direction="Снигиревское" esr="416522" importance="4" lat="47.385679" lon="33.374443" popular_title="" region="Херсонская область" short_title="Староселье" title="Староселье" /><station city="Херсон" direction="Джанкойское" esr="417819" importance="4" lat="46.682089" lon="32.648615" popular_title="" region="Херсонская область" short_title="Путейская" title="Путейская" /><station direction="Джанкойское" esr="417838" importance="4" lat="46.688482" lon="32.697395" popular_title="" region="Херсонская область" short_title="Киндийка" title="Киндийка" /><station direction="Снигиревское" esr="419335" importance="4" lat="46.804760" lon="32.701033" popular_title="" region="Херсонская область" short_title="Солнечная" title="Солнечная" /><station direction="Джанкойское" esr="417857" importance="4" lat="46.680575" lon="32.792614" popular_title="" region="Херсонская область" short_title="Днепровская" title="Днепровская" /><station direction="Джанкойское" esr="417861" importance="4" lat="46.640831" lon="32.818407" popular_title="" region="Херсонская область" short_title="Пойма" title="Пойма" /><station direction="Джанкойское" esr="418718" importance="4" lat="46.602735" lon="32.892835" popular_title="" region="Херсонская область" short_title="Экспресс" title="Экспресс" /><station direction="Джанкойское" esr="418826" importance="4" lat="46.473859" lon="33.066241" popular_title="" region="Херсонская область" short_title="Сад" title="Сад" /><station direction="Снигиревское" esr="417128" importance="4" lat="46.999681" lon="34.684612" popular_title="" region="Запорожская область" short_title="51 км" title="51 км" /><station direction="Снигиревское" esr="417113" importance="4" lat="46.968019" lon="34.520146" popular_title="" region="Херсонская область" short_title="66 км" title="66 км" /><station direction="Снигиревское" esr="417024" importance="4" lat="46.878659" lon="34.150369" popular_title="" region="Херсонская область" short_title="90 км" title="90 км" /><station direction="Снигиревское" esr="416924" importance="4" lat="46.808885" lon="33.740468" popular_title="" region="Херсонская область" short_title="128 км" title="128 км" /><station direction="Джанкойское" esr="418915" importance="4" lat="46.369722" lon="33.256796" popular_title="" region="Херсонская область" short_title="Совхоз &quot;Правда&quot;" title="Совхоз &quot;Правда&quot;" /><station direction="Джанкойское" esr="418949" importance="4" lat="46.317384" lon="33.352465" popular_title="" region="Херсонская область" short_title="Рачевка" title="Рачевка" /><station direction="Джанкойское" esr="418934" importance="4" lat="46.291361" lon="33.399326" popular_title="" region="Херсонская область" short_title="Колос" title="Колос" /><station direction="Снигиревское" esr="416708" importance="4" lat="47.481899" lon="33.525432" popular_title="" region="Днепропетровская область" short_title="Высокополье" title="Высокополье" /><station direction="Снигиревское" esr="416619" importance="4" lat="47.409418" lon="33.439598" popular_title="" region="Днепропетровская область" short_title="Блакитное" title="Блакитное" /><station direction="Снигиревское" esr="416500" importance="4" lat="47.353047" lon="33.198625" popular_title="" region="Николаевская область" short_title="Белая криница" title="Белая криница" /><station direction="Снигиревское" esr="416411" importance="4" lat="47.300991" lon="33.066554" popular_title="" region="Николаевская область" short_title="Лепетиха" title="Лепетиха" /><station direction="Снигиревское" esr="416407" importance="3" lat="47.239841" lon="32.984925" popular_title="" region="Николаевская область" short_title="Березнеговатая" title="Березнеговатая" /><station direction="Снигиревское" esr="416303" importance="4" lat="47.163600" lon="32.942066" popular_title="" region="Херсонская область" short_title="Калининдорф" title="Калининдорф" /><station direction="Снигиревское" esr="416214" importance="4" lat="47.093396" lon="32.872033" popular_title="" region="Николаевская область" short_title="Туркулы" title="Туркулы" /><station city="Снигирёвка" direction="Снигиревское" esr="416106" importance="1" lat="47.065107" lon="32.779908" popular_title="" region="Николаевская область" short_title="Снигирёвка" title="Снигирёвка" /><station direction="Снигиревское" esr="419369" importance="4" lat="46.960102" lon="32.755447" popular_title="" region="Херсонская область" short_title="Галагановка" title="Галагановка" /><station city="Серогозы" direction="Снигиревское" esr="417109" importance="1" lat="46.941570" lon="34.373870" popular_title="" region="Херсонская область" short_title="Серогозы" title="Серогозы" /><station city="Херсон" direction="Джанкойское" esr="417804" importance="1" lat="46.656435" lon="32.603781" popular_title="" region="Херсонская область" short_title="Херсон" title="Херсон" /><station direction="Снигиревское" esr="417005" importance="4" lat="46.832394" lon="33.858097" popular_title="" region="Херсонская область" short_title="Братолюбовка" title="Братолюбовка" /><station direction="Снигиревское" esr="416801" importance="1" lat="46.753172" lon="33.431507" popular_title="" region="Херсонская область" short_title="Каховка" title="Каховка" /><station direction="Снигиревское" esr="416163" importance="3" lat="46.784271" lon="33.328533" popular_title="" region="Херсонская область" short_title="Казацкая" title="Казацкая" /><station direction="Снигиревское" esr="416159" importance="3" lat="46.917824" lon="33.146714" popular_title="" region="Херсонская область" short_title="Матросовка" title="Матросовка" /><station direction="Снигиревское" esr="416125" importance="3" lat="47.036751" lon="32.859889" popular_title="" region="Николаевская область" short_title="Ивано-Кепино" title="Ивано-Кепино" /><station direction="Николаевское" esr="417306" importance="3" lat="46.915516" lon="32.068840" popular_title="" region="Николаевская область" short_title="Кульбакино" title="Кульбакино" /><station direction="Николаевское" esr="417611" importance="3" lat="46.864838" lon="32.182305" popular_title="" region="Николаевская область" short_title="Котлярово" title="Котлярово" /><station direction="Николаевское" esr="417700" importance="4" lat="46.809265" lon="32.307732" popular_title="" region="Николаевская область" short_title="Копани" title="Копани" /><station city="Николаев" direction="Николаевское" esr="415207" importance="2" lat="46.958073" lon="31.973779" popular_title="" region="Николаевская область" short_title="Николаев-Грузовой" title="Николаев-Грузовой" /><station direction="Джанкойское" esr="418703" importance="4" lat="46.630862" lon="32.834415" popular_title="" region="Херсонская область" short_title="Цюрупинск" title="Цюрупинск" /><station direction="Джанкойское" esr="418807" importance="4" lat="46.563882" lon="32.943903" popular_title="" region="Херсонская область" short_title="Раденское" title="Раденское" /><station direction="Джанкойское" esr="418811" importance="4" lat="46.506851" lon="32.994148" popular_title="" region="Херсонская область" short_title="Большие Копани" title="Большие Копани" /><station direction="Джанкойское" esr="418900" importance="4" lat="46.424325" lon="33.157894" popular_title="" region="Херсонская область" short_title="Брилевка" title="Брилевка" /><station direction="Джанкойское" esr="419000" importance="4" lat="46.254884" lon="33.465841" popular_title="" region="Херсонская область" short_title="Каланчак" title="Каланчак" /><station direction="Джанкойское" esr="419104" importance="4" lat="46.182452" lon="33.597164" popular_title="" region="Херсонская область" short_title="Вадим" title="Вадим" /><station direction="Снигиревское" esr="416515" importance="4" lat="47.374305" lon="33.326760" popular_title="" region="Херсонская область" short_title="Новодмитриевский" title="Новодмитриевский" /><station direction="Снигиревское" esr="419354" importance="4" lat="46.889205" lon="32.730128" popular_title="" region="Херсонская область" short_title="Оросительная" title="Оросительная" /><station direction="Джанкойское" esr="417842" importance="4" lat="46.676326" lon="32.759284" popular_title="" region="Херсонская область" short_title="Антоновка" title="Антоновка" /><station city="Херсон" direction="Снигиревское" esr="419320" importance="4" lat="46.694776" lon="32.663679" popular_title="" region="Херсонская область" short_title="Херсон-восточный" title="Херсон-восточный" /><station direction="Снигиревское" esr="416110" importance="4" lat="47.089421" lon="32.853483" popular_title="" region="Николаевская область" short_title="Евгеньевка" title="Евгеньевка" /><station direction="Снигиревское" esr="419388" importance="4" lat="46.784414" lon="32.694090" popular_title="" region="Херсонская область" short_title="Срочный" title="Срочный" /><station city="Апостолово" direction="Снигиревское" esr="466603" importance="2" lat="47.658230" lon="33.694137" popular_title="" region="Днепропетровская область" short_title="Апостолово" title="Апостолово" /><station city="Весёлое" direction="Снигиревское" esr="476408" importance="1" lat="47.024969" lon="34.880338" popular_title="" region="Запорожская область" short_title="Нововесёлая" title="Нововесёлая" /><station direction="Джанкойское" esr="002095" importance="4" lat="46.450350" lon="33.108808" popular_title="" region="Херсонская область" short_title="Семафор" title="Семафор" /><station direction="Снигиревское" esr="002221" importance="4" lat="46.867812" lon="34.113291" popular_title="" region="Херсонская область" short_title="Костогрызовка" title="Костогрызовка" /><station direction="Снигиревское" esr="002219" importance="4" lat="46.996536" lon="34.627098" popular_title="" region="Херсонская область" short_title="58 км" title="58 км" /></suburban_zone>