<?xml version='1.0' encoding='UTF-8'?>
<suburban_zone id="44"><station city="Иваново" direction="Костромское" esr="318632" importance="1" lat="57.017754" lon="40.979915" popular_title="" region="Ивановская область" short_title="Иваново" title="Иваново" /><station city="Кострома" direction="Костромское" esr="305100" importance="1" lat="57.758292" lon="40.979320" popular_title="" region="Костромская область" short_title="Кострома-Новая" title="Кострома-Новая" /><station direction="Рыбинское" esr="312662" importance="4" lat="57.778332" lon="39.291447" popular_title="" region="Ярославская область" short_title="Варегово" title="Варегово" /><station city="Александров" direction="Александровское" esr="237007" importance="1" lat="56.398036" lon="38.703821" popular_title="" region="Владимирская область" short_title="Александров-1" title="Александров-1" /><station city="Сонково" direction="Рыбинское" esr="051106" importance="2" lat="57.780613" lon="37.159619" popular_title="" region="Тверская область" short_title="Сонково" title="Сонково" /><station city="Ярославль" direction="Костромское" esr="310005" importance="1" lat="57.625450" lon="39.835107" popular_title="Ярославль-Главный" region="Ярославская область" short_title="Ярославль-Главный" title="Ярославль-Главный" /><station city="Ярославль" direction="Костромское" esr="310109" importance="2" lat="57.600791" lon="39.871841" popular_title="Московский вокзал" region="Ярославская область" short_title="Ярославль (бывш. Московский вокзал)" title="Ярославль (бывш. Московский вокзал)" /><station direction="Даниловское" esr="310607" importance="4" lat="57.643075" lon="39.863759" popular_title="" region="Ярославская область" short_title="Приволжье" title="Приволжье" /><station city="Ярославль" direction="Даниловское" esr="310700" importance="2" lat="57.653897" lon="39.929637" popular_title="" region="Ярославская область" short_title="Филино" title="Филино" /><station city="Буй" direction="Даниловское" esr="304606" importance="2" lat="58.466348" lon="41.544739" popular_title="" region="Костромская область" short_title="Буй" title="Буй" /><station direction="Рыбинское" esr="312636" importance="4" lat="57.739576" lon="39.585127" popular_title="" region="Ярославская область" short_title="300 км" title="300 км" /><station city="Кострома" direction="Костромское" esr="304926" importance="4" lat="57.731395" lon="40.933438" popular_title="" region="Костромская область" short_title="Малышково (371 км)" title="Малышково (371 км)" /><station city="Пищалкино" direction="Рыбинское" esr="311309" importance="2" lat="57.819538" lon="37.366871" popular_title="" region="Тверская область" short_title="Пищалкино" title="Пищалкино" /><station direction="Рыбинское" esr="311328" importance="4" lat="57.824260" lon="37.499783" popular_title="" region="Ярославская область" short_title="Пуршево" title="Пуршево" /><station direction="Рыбинское" esr="311510" importance="4" lat="57.850796" lon="37.851217" popular_title="" region="Ярославская область" short_title="Маслово" title="Маслово" /><station city="Новый Некоуз" direction="Рыбинское" esr="311600" importance="2" lat="57.906376" lon="38.063487" popular_title="" region="Ярославская область" short_title="Некоуз" title="Некоуз" /><station city="Шестихино" direction="Рыбинское" esr="311703" importance="2" lat="57.931329" lon="38.238712" popular_title="" region="Ярославская область" short_title="Шестихино" title="Шестихино" /><station direction="Рыбинское" esr="311807" importance="4" lat="57.951761" lon="38.405745" popular_title="" region="Ярославская область" short_title="Волга" title="Волга" /><station direction="Рыбинское" esr="311900" importance="4" lat="57.972157" lon="38.485192" popular_title="" region="Ярославская область" short_title="Кобостово" title="Кобостово" /><station direction="Рыбинское" esr="312000" importance="4" lat="57.998066" lon="38.614981" popular_title="" region="Ярославская область" short_title="Тихменево" title="Тихменево" /><station direction="Рыбинское" esr="312509" importance="4" lat="57.870068" lon="39.151542" popular_title="" region="Ярославская область" short_title="Лом" title="Лом" /><station direction="Рыбинское" esr="312621" importance="4" lat="57.755301" lon="39.537865" popular_title="" region="Ярославская область" short_title="Чёбаково" title="Чёбаково" /><station direction="Костромское" esr="315301" importance="4" lat="57.492052" lon="40.121096" popular_title="" region="Ярославская область" short_title="Лютово" title="Лютово" /><station direction="Костромское" esr="315314" importance="4" lat="57.473241" lon="40.211440" popular_title="" region="Ярославская область" short_title="Тощиха" title="Тощиха" /><station direction="Костромское" esr="315403" importance="4" lat="57.436819" lon="40.319130" popular_title="" region="Ярославская область" short_title="Бурмакино" title="Бурмакино" /><station city="Нерехта" direction="Костромское" esr="315507" importance="2" lat="57.462742" lon="40.551560" popular_title="" region="Костромская область" short_title="Нерехта" title="Нерехта" /><station direction="Даниловское" esr="311012" importance="4" lat="58.090724" lon="40.168070" popular_title="" region="Ярославская область" short_title="Пантелеево" title="Пантелеево" /><station direction="Даниловское" esr="310927" importance="4" lat="57.858717" lon="40.135954" popular_title="" region="Ярославская область" short_title="Пучковский" title="Пучковский" /><station direction="Александровское" esr="314701" importance="3" lat="57.490310" lon="39.690819" popular_title="" region="Ярославская область" short_title="Козьмодемьянск" title="Козьмодемьянск" /><station direction="Александровское" esr="314425" importance="4" lat="57.392193" lon="39.599109" popular_title="" region="Ярославская область" short_title="Коромыслово" title="Коромыслово" /><station direction="Александровское" esr="314400" importance="4" lat="57.305018" lon="39.535750" popular_title="" region="Ярославская область" short_title="Семибратово" title="Семибратово" /><station city="Ростов-Великий" direction="Александровское" esr="314307" importance="2" lat="57.197985" lon="39.407018" popular_title="" region="Ярославская область" short_title="Ростов-Ярославский" title="Ростов-Ярославский" /><station city="Петровское" direction="Александровское" esr="314106" importance="2" lat="57.002269" lon="39.273398" popular_title="" region="Ярославская область" short_title="Петровск" title="Петровск" /><station direction="Александровское" esr="314006" importance="4" lat="56.929748" lon="39.292659" popular_title="" region="Ярославская область" short_title="Сильницы" title="Сильницы" /><station direction="Александровское" esr="313910" importance="4" lat="56.858887" lon="39.287784" popular_title="" region="Ярославская область" short_title="Итларь" title="Итларь" /><station direction="Александровское" esr="313802" importance="4" lat="56.802312" lon="39.242307" popular_title="" region="Ярославская область" short_title="Беклемишево" title="Беклемишево" /><station direction="Александровское" esr="313709" importance="4" lat="56.707813" lon="39.211465" popular_title="" region="Ярославская область" short_title="Рязанцево" title="Рязанцево" /><station direction="Александровское" esr="313639" importance="4" lat="56.620524" lon="39.117633" popular_title="" region="Ярославская область" short_title="Шушково" title="Шушково" /><station direction="Александровское" esr="313408" importance="4" lat="56.597320" lon="39.023749" popular_title="" region="Ярославская область" short_title="Берендеево" title="Берендеево" /><station city="Балакирево" direction="Александровское" esr="313304" importance="2" lat="56.507743" lon="38.849838" popular_title="" region="Владимирская область" short_title="Балакирево" title="Балакирево" /><station city="Рыбинск" direction="Рыбинское" esr="312104" importance="2" lat="58.041476" lon="38.833532" popular_title="" region="Ярославская область" short_title="Рыбинск-Пасс." title="Рыбинск-Пасс." /><station direction="Даниловское" esr="304502" importance="4" lat="58.466765" lon="41.423644" popular_title="" region="Костромская область" short_title="Корега" title="Корега" /><station direction="Даниловское" esr="304413" importance="4" lat="58.423547" lon="41.296372" popular_title="" region="Костромская область" short_title="Бродни" title="Бродни" /><station direction="Даниловское" esr="304324" importance="4" lat="58.345587" lon="41.044568" popular_title="" region="Ярославская область" short_title="Секша" title="Секша" /><station city="Любим" direction="Даниловское" esr="304305" importance="2" lat="58.339370" lon="40.692146" popular_title="" region="Ярославская область" short_title="Любим" title="Любим" /><station direction="Даниловское" esr="304127" importance="4" lat="58.296122" lon="40.542819" popular_title="" region="Ярославская область" short_title="Жарок-Ярославский" title="Жарок-Ярославский" /><station direction="Даниловское" esr="304112" importance="4" lat="58.234803" lon="40.301676" popular_title="" region="Ярославская область" short_title="Лунка" title="Лунка" /><station direction="Костромское" esr="304911" importance="4" lat="57.706490" lon="40.856241" popular_title="" region="Костромская область" short_title="Каримово" title="Каримово" /><station direction="Костромское" esr="304907" importance="4" lat="57.589833" lon="40.763428" popular_title="" region="Костромская область" short_title="Космынино" title="Космынино" /><station direction="Костромское" esr="315704" importance="4" lat="57.347990" lon="40.838284" popular_title="" region="Костромская область" short_title="Армёнки" title="Армёнки" /><station city="Фурманов" direction="Костромское" esr="316001" importance="2" lat="57.245073" lon="41.113483" popular_title="" region="Ивановская область" short_title="Фурманов" title="Фурманов" /><station direction="Костромское" esr="316302" importance="3" lat="57.095986" lon="41.247018" popular_title="" region="Ивановская область" short_title="Ермолино" title="Ермолино" /><station city="Данилов" direction="Даниловское" esr="311101" importance="2" lat="58.187866" lon="40.185698" popular_title="" region="Ярославская область" short_title="Данилов" title="Данилов" /><station direction="Костромское" esr="315511" importance="4" lat="57.411139" lon="40.690439" popular_title="" region="Костромская область" short_title="Ежово" title="Ежово" /><station direction="Костромское" esr="315117" importance="4" lat="57.548468" lon="39.929573" popular_title="" region="Ярославская область" short_title="Липовая Гора" title="Липовая Гора" /><station direction="Александровское" esr="313624" importance="4" lat="56.638238" lon="39.166248" popular_title="" region="Ярославская область" short_title="155 км" title="155 км" /><station direction="Александровское" esr="313338" importance="4" lat="56.591427" lon="38.993859" popular_title="" region="Ярославская область" short_title="142 км" title="142 км" /><station direction="Александровское" esr="313412" importance="4" lat="56.603259" lon="39.065478" popular_title="" region="Ярославская область" short_title="147 км" title="147 км" /><station direction="Александровское" esr="313817" importance="4" lat="56.901481" lon="39.302795" popular_title="" region="Ярославская область" short_title="187 км" title="187 км" /><station direction="Александровское" esr="314311" importance="4" lat="57.245337" lon="39.476765" popular_title="" region="Ярославская область" short_title="231 км" title="231 км" /><station direction="Александровское" esr="314468" importance="4" lat="57.468179" lon="39.663904" popular_title="" region="Ярославская область" short_title="259 км" title="259 км" /><station direction="Александровское" esr="314744" importance="4" lat="57.541496" lon="39.727819" popular_title="" region="Ярославская область" short_title="268 км" title="268 км" /><station direction="Александровское" esr="314735" importance="4" lat="57.580223" lon="39.787741" popular_title="" region="Ярославская область" short_title="274 км" title="274 км" /><station city="Ярославль" direction="Костромское" esr="310024" importance="3" lat="57.634195" lon="39.812500" popular_title="" region="Ярославская область" short_title="Ярославль (депо)" title="Ярославль (депо)" /><station direction="Даниловское" esr="310819" importance="4" lat="57.791704" lon="40.060717" popular_title="" region="Ярославская область" short_title="310км" title="310км" /><station direction="Даниловское" esr="310931" importance="4" lat="57.887374" lon="40.135677" popular_title="" region="Ярославская область" short_title="322км" title="322км" /><station direction="Даниловское" esr="311027" importance="4" lat="57.962577" lon="40.161919" popular_title="" region="Ярославская область" short_title="331км" title="331км" /><station direction="Даниловское" esr="311031" importance="4" lat="58.055853" lon="40.163524" popular_title="" region="Ярославская область" short_title="343км" title="343км" /><station direction="Даниловское" esr="311116" importance="4" lat="58.217605" lon="40.260208" popular_title="" region="Ярославская область" short_title="359 км" title="359 км" /><station direction="Даниловское" esr="304131" importance="4" lat="58.248640" lon="40.357165" popular_title="" region="Ярославская область" short_title="370 км" title="370 км" /><station direction="Даниловское" esr="304146" importance="4" lat="58.293120" lon="40.524450" popular_title="" region="Ярославская область" short_title="378 км" title="378 км" /><station direction="Даниловское" esr="304150" importance="4" lat="58.323950" lon="40.657004" popular_title="" region="Ярославская область" short_title="388 км" title="388 км" /><station direction="Даниловское" esr="304339" importance="4" lat="58.344327" lon="40.787626" popular_title="" region="Ярославская область" short_title="399 км" title="399 км" /><station direction="Даниловское" esr="304343" importance="4" lat="58.328956" lon="40.953802" popular_title="" region="Ярославская область" short_title="409 км" title="409 км" /><station direction="Даниловское" esr="304358" importance="4" lat="58.362447" lon="41.100517" popular_title="" region="Ярославская область" short_title="419 км" title="419 км" /><station direction="Даниловское" esr="304362" importance="4" lat="58.406078" lon="41.238570" popular_title="" region="Костромская область" short_title="428 км" title="428 км" /><station direction="Даниловское" esr="304428" importance="4" lat="58.450904" lon="41.364657" popular_title="" region="Костромская область" short_title="435 км" title="435 км" /><station direction="Даниловское" esr="304432" importance="4" lat="58.457233" lon="41.394497" popular_title="" region="Костромская область" short_title="438 км" title="438 км" /><station direction="Даниловское" esr="310768" importance="4" lat="57.729009" lon="40.001523" popular_title="" region="Ярославская область" short_title="Коченятино" title="Коченятино" /><station direction="Александровское" esr="313323" importance="4" lat="56.567793" lon="38.938473" popular_title="" region="Ярославская область" short_title="Багримово" title="Багримово" /><station direction="Александровское" esr="314716" importance="4" lat="57.505371" lon="39.700082" popular_title="" region="Ярославская область" short_title="Река" title="Река" /><station direction="Даниловское" esr="310753" importance="4" lat="57.700939" lon="39.979052" popular_title="" region="Ярославская область" short_title="Сосновцы" title="Сосновцы" /><station direction="Даниловское" esr="310912" importance="4" lat="57.913474" lon="40.151880" popular_title="" region="Ярославская область" short_title="Догадцево" title="Догадцево" /><station direction="Костромское" esr="304930" importance="4" lat="57.542599" lon="40.700201" popular_title="" region="Костромская область" short_title="Неверово" title="Неверово" /><station direction="Александровское" esr="314434" importance="4" lat="57.437818" lon="39.615561" popular_title="" region="Ярославская область" short_title="Кудрявцево" title="Кудрявцево" /><station direction="Рыбинское" esr="312015" importance="4" lat="58.014274" lon="38.681116" popular_title="" region="Ярославская область" short_title="Просвет" title="Просвет" /><station direction="Даниловское" esr="310772" importance="4" lat="57.769197" lon="40.034980" popular_title="" region="Ярославская область" short_title="Левцово" title="Левцово" /><station direction="Александровское" esr="314415" importance="4" lat="57.369673" lon="39.567499" popular_title="" region="Ярославская область" short_title="Цибирино" title="Цибирино" /><station direction="Александровское" esr="313615" importance="4" lat="56.666758" lon="39.209335" popular_title="" region="Ярославская область" short_title="Рокша" title="Рокша" /><station direction="Александровское" esr="313319" importance="4" lat="56.454334" lon="38.851172" popular_title="" region="Владимирская область" short_title="Мошнино" title="Мошнино" /><station city="Иваново" direction="Костромское" esr="318609" importance="3" lat="57.008398" lon="41.036371" popular_title="" region="Ивановская область" short_title="Иваново-Сорт." title="Иваново-Сорт." /><station direction="Костромское" esr="304979" importance="4" lat="57.627950" lon="40.798738" popular_title="" region="Костромская область" short_title="356км" title="356км" /><station direction="Костромское" esr="304964" importance="4" lat="57.646282" lon="40.814116" popular_title="" region="Костромская область" short_title="358км" title="358км" /><station direction="Костромское" esr="304958" importance="4" lat="57.667322" lon="40.830706" popular_title="" region="Костромская область" short_title="360км" title="360км" /><station direction="Костромское" esr="304945" importance="4" lat="57.687120" lon="40.847801" popular_title="" region="Костромская область" short_title="362км" title="362км" /><station direction="Костромское" esr="305562" importance="4" lat="57.487742" lon="40.612791" popular_title="" region="Костромская область" short_title="334км" title="334км" /><station direction="Костромское" esr="305558" importance="4" lat="57.513560" lon="40.673614" popular_title="" region="Костромская область" short_title="341км" title="341км" /><station direction="Рыбинское" esr="311525" importance="4" lat="57.825217" lon="37.723465" popular_title="" region="Ярославская область" short_title="69 км" title="69 км" /><station direction="Рыбинское" esr="311614" importance="4" lat="57.876042" lon="37.967997" popular_title="" region="Ярославская область" short_title="56 км" title="56 км" /><station direction="Рыбинское" esr="312674" importance="3" lat="57.814390" lon="39.275463" popular_title="" region="Ярославская область" short_title="323 км" title="323 км" /><station direction="Костромское" esr="315210" importance="4" lat="57.515776" lon="40.020882" popular_title="" region="Ярославская область" short_title="296км" title="296км" /><station direction="Костромское" esr="315329" importance="4" lat="57.482975" lon="40.165336" popular_title="" region="Ярославская область" short_title="305км" title="305км" /><station direction="Костромское" esr="315333" importance="4" lat="57.456904" lon="40.258299" popular_title="" region="Ярославская область" short_title="310км" title="310км" /><station direction="Костромское" esr="315422" importance="4" lat="57.435449" lon="40.363731" popular_title="" region="Ярославская область" short_title="318км" title="318км" /><station direction="Александровское" esr="314754" importance="4" lat="57.524714" lon="39.702646" popular_title="" region="Ярославская область" short_title="265 км" title="265 км" /><station direction="Рыбинское" esr="312024" importance="4" lat="58.023554" lon="38.720815" popular_title="" region="Ярославская область" short_title="Юринский" title="Юринский" /><station direction="Рыбинское" esr="312316" importance="4" lat="57.957340" lon="38.986903" popular_title="" region="Ярославская область" short_title="Торопово" title="Торопово" /><station direction="Рыбинское" esr="312320" importance="4" lat="57.912660" lon="39.057480" popular_title="" region="Ярославская область" short_title="Пиняги" title="Пиняги" /><station direction="Рыбинское" esr="312513" importance="4" lat="57.827031" lon="39.249148" popular_title="" region="Ярославская область" short_title="Чижово" title="Чижово" /><station direction="Рыбинское" esr="312617" importance="4" lat="57.780820" lon="39.435413" popular_title="" region="Ярославская область" short_title="Клинцево" title="Клинцево" /><station direction="Рыбинское" esr="312706" importance="4" lat="57.707938" lon="39.687464" popular_title="" region="Ярославская область" short_title="Тенино" title="Тенино" /><station direction="Рыбинское" esr="313107" importance="4" lat="57.673973" lon="39.758538" popular_title="" region="Ярославская область" short_title="Молот" title="Молот" /><station direction="Костромское" esr="315206" importance="4" lat="57.527843" lon="39.961528" popular_title="" region="Ярославская область" short_title="Телищево" title="Телищево" /><station direction="Костромское" esr="315418" importance="4" lat="57.444262" lon="40.424812" popular_title="" region="Ярославская область" short_title="Сахареж" title="Сахареж" /><station city="Ярославль" direction="Александровское" esr="314805" importance="4" lat="57.591725" lon="39.833980" popular_title="" region="Ярославская область" short_title="Полянки" title="Полянки" /><station direction="Александровское" esr="314203" importance="4" lat="57.093469" lon="39.297474" popular_title="" region="Ярославская область" short_title="Деболовская" title="Деболовская" /><station direction="Даниловское" esr="304310" importance="4" lat="58.335798" lon="40.869559" popular_title="" region="Ярославская область" short_title="Руша" title="Руша" /><station direction="Костромское" esr="316016" importance="4" lat="57.160678" lon="41.198832" popular_title="" region="Ивановская область" short_title="Домовицы" title="Домовицы" /><station city="Ярославль" direction="Костромское" esr="310019" importance="3" lat="57.606094" lon="39.847965" popular_title="" region="Ярославская область" short_title="Которосль" title="Которосль" /><station direction="Костромское" esr="316321" importance="4" lat="57.069337" lon="41.133283" popular_title="" region="Ивановская область" short_title="Красносельская" title="Красносельская" /><station direction="Костромское" esr="316336" importance="4" lat="57.055561" lon="41.089485" popular_title="" region="Ивановская область" short_title="Строкино" title="Строкино" /><station direction="Рыбинское" esr="109" importance="4" lat="57.794861" lon="39.309950" popular_title="" region="Ярославская область" short_title="2 км" title="2 км" /><station direction="Александровское" esr="102" importance="4" lat="56.431631" lon="38.794569" popular_title="" region="Владимирская область" short_title="117 км" title="117 км" /><station direction="Даниловское" esr="100" importance="4" lat="57.678565" lon="39.964738" popular_title="" region="Ярославская область" short_title="296км" title="296км" /><station direction="Даниловское" esr="101" importance="4" lat="57.752225" lon="40.020311" popular_title="" region="Ярославская область" short_title="306км" title="306км" /><station direction="Костромское" esr="106" importance="4" lat="57.453212" lon="40.451874" popular_title="" region="Костромская область" short_title="324км" title="324км" /><station direction="Рыбинское" esr="105" importance="4" lat="58.033974" lon="38.761459" popular_title="" region="Ярославская область" short_title="Веретье" title="Веретье" /><station direction="Рыбинское" esr="312689" importance="3" lat="57.803771" lon="39.341543" popular_title="" region="Ярославская область" short_title="Ваулово" title="Ваулово" /><station direction="Рыбинское" esr="311390" importance="4" lat="57.818221" lon="37.626583" popular_title="" region="Ярославская область" short_title="Родионово" title="Родионово" /><station direction="Даниловское" esr="310823" importance="4" lat="57.812679" lon="40.083271" popular_title="" region="Ярославская область" short_title="Уткино" title="Уткино" /><station direction="Даниловское" esr="311050" importance="4" lat="57.998901" lon="40.164765" popular_title="" region="Ярославская область" short_title="Путятино" title="Путятино" /><station direction="Даниловское" esr="304165" importance="4" lat="58.254164" lon="40.410917" popular_title="" region="Ярославская область" short_title="Соть" title="Соть" /><station direction="Даниловское" esr="304377" importance="4" lat="58.393538" lon="41.181248" popular_title="" region="Костромская область" short_title="Казариново" title="Казариново" /><station city="Ярославль" direction="Костромское" esr="315121" importance="4" lat="57.559151" lon="39.917715" popular_title="" region="Ярославская область" short_title="Дунайка" title="Дунайка" /><station city="Малаховский" direction="Костромское" esr="315808" importance="1" lat="57.281597" lon="40.914551" popular_title="" region="Ивановская область" short_title="Малаховская" title="Малаховская" /><station direction="Даниловское" esr="001679" importance="4" lat="56.307728" lon="90.633691" popular_title="" region="Красноярский край" short_title="3922 км" title="3922 км" /></suburban_zone>