<?xml version='1.0' encoding='UTF-8'?>
<suburban_zone id="5"><station city="Екатеринбург" direction="Западное" esr="780506" importance="1" lat="56.858761" lon="60.606052" popular_title="" region="Свердловская область" short_title="Екатеринбург-П" title="Екатеринбург-Пасс." /><station city="Екатеринбург" direction="Западное" esr="780603" importance="2" lat="56.830166" lon="60.645929" popular_title="" region="Свердловская область" short_title="Шарташ" title="Шарташ" /><station direction="Западное" esr="794112" importance="4" lat="56.787957" lon="60.787854" popular_title="" region="Свердловская область" short_title="Исток" title="Исток" /><station direction="Западное" esr="794004" importance="4" lat="56.747897" lon="61.039058" popular_title="" region="Свердловская область" short_title="Косулино" title="Косулино" /><station direction="Западное" esr="793904" importance="4" lat="56.747199" lon="61.197539" popular_title="" region="Свердловская область" short_title="Гагарский" title="Гагарский" /><station city="Тюмень" direction="Западное" esr="790003" importance="1" lat="57.145448" lon="65.522650" popular_title="" region="Тюменская область" short_title="Тюмень" title="Тюмень" /><station city="Лангепас" direction="Северное" esr="797604" importance="2" lat="61.274665" lon="75.221102" popular_title="" region="Ханты-Мансийский автономный округ" short_title="Лангепасовский" title="Лангепасовский" /><station city="Екатеринбург" direction="Западное" esr="780514" importance="2" lat="56.858480" lon="60.554126" popular_title="" region="Свердловская область" short_title="ВИЗ" title="ВИЗ" /><station city="Богданович" direction="Западное" esr="793209" importance="2" lat="56.777725" lon="62.051428" popular_title="" region="Свердловская область" short_title="Богданович" title="Богданович" /><station direction="Западное" esr="793247" importance="4" lat="56.765515" lon="61.730981" popular_title="" region="Свердловская область" short_title="Грязновская" title="Грязновская" /><station direction="Западное" esr="793503" importance="3" lat="56.730295" lon="61.372201" popular_title="" region="Свердловская область" short_title="Баженово" title="Баженово" /><station direction="Западное" esr="793118" importance="4" lat="56.808383" lon="62.385709" popular_title="" region="Свердловская область" short_title="Пышминская" title="Пышминская" /><station direction="Западное" esr="793001" importance="4" lat="56.851357" lon="62.614944" popular_title="" region="Свердловская область" short_title="Кокшаровский" title="Кокшаровский" /><station direction="Западное" esr="792831" importance="4" lat="56.905601" lon="62.972764" popular_title="" region="Свердловская область" short_title="Аксариха" title="Аксариха" /><station city="Пышма" direction="Западное" esr="792704" importance="1" lat="56.976399" lon="63.267679" popular_title="" region="Свердловская область" short_title="Ощепково" title="Ощепково" /><station direction="Западное" esr="792649" importance="4" lat="57.020337" lon="63.399376" popular_title="" region="Свердловская область" short_title="Проселок" title="Проселок" /><station direction="Западное" esr="792530" importance="4" lat="57.077523" lon="63.944368" popular_title="" region="Свердловская область" short_title="Чупино" title="Чупино" /><station direction="Западное" esr="792507" importance="4" lat="57.074389" lon="64.265149" popular_title="" region="Свердловская область" short_title="Юшала" title="Юшала" /><station city="Талица" direction="Западное" esr="792600" importance="2" lat="57.062836" lon="63.745394" popular_title="" region="Свердловская область" short_title="Талица" title="Талица" /><station direction="Западное" esr="792403" importance="4" lat="57.069523" lon="64.408499" popular_title="" region="Свердловская область" short_title="Бахметское" title="Бахметское" /><station city="Тугулым" direction="Западное" esr="792308" importance="2" lat="57.069514" lon="64.554163" popular_title="" region="Свердловская область" short_title="Тугулым" title="Тугулым" /><station direction="Западное" esr="792244" importance="4" lat="57.095772" lon="64.856086" popular_title="" region="Свердловская область" short_title="Кармак" title="Кармак" /><station direction="Западное" esr="792121" importance="4" lat="57.125140" lon="65.187262" popular_title="" region="Тюменская область" short_title="Подъем" title="Подъем" /><station direction="Западное" esr="792102" importance="4" lat="57.141013" lon="65.353997" popular_title="" region="Тюменская область" short_title="Утяшево" title="Утяшево" /><station city="Тюмень" direction="Восточное" esr="790408" importance="2" lat="57.101627" lon="65.639979" popular_title="" region="Тюменская область" short_title="Войновка" title="Войновка" /><station direction="Восточное" esr="790501" importance="4" lat="57.040563" lon="65.729460" popular_title="" region="Тюменская область" short_title="Озеро-Андреевское" title="Озеро-Андреевское" /><station direction="Восточное" esr="791203" importance="4" lat="56.462356" lon="67.666556" popular_title="" region="Тюменская область" short_title="Омутинская" title="Омутинская" /><station direction="Восточное" esr="790605" importance="4" lat="56.968851" lon="65.778560" popular_title="" region="Тюменская область" short_title="Винзили" title="Винзили" /><station direction="Восточное" esr="790709" importance="4" lat="56.891298" lon="65.894160" popular_title="" region="Тюменская область" short_title="Богандинская" title="Богандинская" /><station city="Ялуторовск" direction="Восточное" esr="790802" importance="2" lat="56.660463" lon="66.311748" popular_title="" region="Тюменская область" short_title="Ялуторовск" title="Ялуторовск" /><station city="Заводоуковск" direction="Восточное" esr="790906" importance="2" lat="56.513087" lon="66.544222" popular_title="" region="Тюменская область" short_title="Заводоуковская" title="Заводоуковская" /><station direction="Восточное" esr="791006" importance="4" lat="56.479891" lon="66.887730" popular_title="" region="Тюменская область" short_title="Новая Заимка" title="Новая Заимка" /><station direction="Восточное" esr="791025" importance="4" lat="56.478923" lon="67.092512" popular_title="" region="Тюменская область" short_title="Ольховский" title="Ольховский" /><station city="Вагай" direction="Восточное" esr="791102" importance="2" lat="56.474227" lon="67.307895" popular_title="" region="Тюменская область" short_title="Вагай" title="Вагай" /><station city="Голышманово" direction="Восточное" esr="791400" importance="2" lat="56.389757" lon="68.375716" popular_title="" region="Тюменская область" short_title="Голышманово" title="Голышманово" /><station direction="Восточное" esr="791330" importance="4" lat="56.430765" lon="67.988249" popular_title="" region="Тюменская область" short_title="Ламенская" title="Ламенская" /><station direction="Восточное" esr="791434" importance="4" lat="56.339149" lon="68.696336" popular_title="" region="Тюменская область" short_title="Скакуново" title="Скакуново" /><station direction="Восточное" esr="791504" importance="4" lat="56.282610" lon="68.928340" popular_title="" region="Тюменская область" short_title="Карасульская" title="Карасульская" /><station direction="Восточное" esr="791538" importance="4" lat="56.193469" lon="69.272523" popular_title="" region="Тюменская область" short_title="Безруково" title="Безруково" /><station direction="Восточное" esr="791627" importance="4" lat="56.075016" lon="69.683287" popular_title="" region="Тюменская область" short_title="Малый Остров" title="Малый Остров" /><station direction="Восточное" esr="791740" importance="4" lat="56.026694" lon="69.802718" popular_title="" region="Тюменская область" short_title="Шаблыкино" title="Шаблыкино" /><station direction="Восточное" esr="791805" importance="4" lat="55.927745" lon="70.143566" popular_title="" region="Тюменская область" short_title="Маслянская" title="Маслянская" /><station city="Ишим" direction="Восточное" esr="791608" importance="2" lat="56.111630" lon="69.512840" popular_title="" region="Тюменская область" short_title="Ишим" title="Ишим" /><station direction="Восточное" esr="791909" importance="4" lat="55.857942" lon="70.446540" popular_title="" region="Тюменская область" short_title="Новоандреевский" title="Новоандреевский" /><station direction="Восточное" esr="792070" importance="4" lat="55.772912" lon="70.766907" popular_title="" region="Омская область" short_title="Мангут" title="Мангут" /><station city="Камышлов" direction="Западное" esr="792901" importance="2" lat="56.848811" lon="62.714582" popular_title="" region="Свердловская область" short_title="Камышлов" title="Камышлов" /><station direction="Северное" esr="796940" importance="4" lat="60.627569" lon="72.629449" popular_title="" region="Ханты-Мансийский автономный округ" short_title="Игль" title="Игль" /><station direction="Северное" esr="797021" importance="4" lat="60.923517" lon="73.087628" popular_title="" region="Ханты-Мансийский автономный округ" short_title="Усть-Юган" title="Усть-Юган" /><station direction="Северное" esr="797708" importance="4" lat="61.497169" lon="74.202320" popular_title="" region="Ханты-Мансийский автономный округ" short_title="Ульт-Ягун" title="Ульт-Ягун" /><station direction="Северное" esr="796921" importance="4" lat="60.474259" lon="72.369098" popular_title="" region="Ханты-Мансийский автономный округ" short_title="Юнг-Ях" title="Юнг-Ях" /><station city="Нижневартовск" direction="Северное" esr="798005" importance="1" lat="60.954225" lon="76.606051" popular_title="" region="Ханты-Мансийский автономный округ" short_title="Нижневартовск-1" title="Нижневартовск-1" /><station direction="Северное" esr="797017" importance="4" lat="60.831392" lon="72.962283" popular_title="" region="Ханты-Мансийский автономный округ" short_title="Пучип" title="Пучип" /><station direction="Восточное" esr="791523" importance="4" lat="56.235777" lon="69.112883" popular_title="" region="Тюменская область" short_title="Опеновка" title="Опеновка" /><station direction="Восточное" esr="791218" importance="4" lat="56.457283" lon="67.810038" popular_title="" region="Тюменская область" short_title="Кошелевский" title="Кошелевский" /><station direction="Северное" esr="797356" importance="4" lat="61.476691" lon="74.132238" popular_title="" region="Ханты-Мансийский автономный округ" short_title="724 км" title="724 км" /><station direction="Северное" esr="797816" importance="4" lat="61.063982" lon="76.325035" popular_title="" region="Ханты-Мансийский автономный округ" short_title="893 км" title="893 км" /><station direction="Западное" esr="792634" importance="4" lat="57.032021" lon="63.458459" popular_title="" region="Свердловская область" short_title="2010 км" title="2010 км" /><station direction="Восточное" esr="791114" importance="4" lat="56.467189" lon="67.430397" popular_title="" region="Тюменская область" short_title="2291 км" title="2291 км" /><station city="Екатеринбург" direction="Западное" esr="780001" importance="3" lat="56.882103" lon="60.473447" popular_title="" region="Свердловская область" short_title="Екатеринбург-С" title="Екатеринбург-Сорт." /><station city="Екатеринбург" direction="Западное" esr="780622" importance="3" lat="56.817452" lon="60.697235" popular_title="" region="Свердловская область" short_title="Путевка" title="Путевка" /><station direction="Восточное" esr="791612" importance="4" popular_title="" region="Тюменская область" short_title="2433 км" title="2433 км" /><station direction="Восточное" esr="792013" importance="4" lat="55.676874" lon="71.037955" popular_title="" region="Омская область" short_title="2522 км" title="2522 км" /><station direction="Восточное" esr="792047" importance="4" lat="55.615904" lon="71.178021" popular_title="" region="Омская область" short_title="2546 км" title="2546 км" /><station direction="Северное" esr="797110" importance="4" lat="61.030869" lon="73.140372" popular_title="" region="Ханты-Мансийский автономный округ" short_title="Тангинский" title="Тангинский" /><station direction="Западное" esr="793425" importance="4" lat="56.734705" lon="61.505853" popular_title="" region="Свердловская область" short_title="Шипелово" title="Шипелово" /><station direction="Северное" esr="797322" importance="4" lat="61.324172" lon="73.481027" popular_title="" region="Ханты-Мансийский автономный округ" short_title="Силинский" title="Силинский" /><station direction="Северное" esr="797318" importance="4" lat="61.346629" lon="73.674442" popular_title="" region="Ханты-Мансийский автономный округ" short_title="Почекуйка" title="Почекуйка" /><station direction="Западное" esr="793105" importance="4" lat="56.812123" lon="62.489877" popular_title="" region="Свердловская область" short_title="Еланский" title="Еланский" /><station direction="Восточное" esr="790732" importance="4" lat="56.781092" lon="66.060466" popular_title="" region="Тюменская область" short_title="Беркутский" title="Беркутский" /><station direction="Восточное" esr="790821" importance="4" lat="56.569276" lon="66.423834" popular_title="" region="Тюменская область" short_title="Криволукский" title="Криволукский" /><station direction="Северное" esr="796902" importance="4" lat="60.329542" lon="72.030365" popular_title="" region="Ханты-Мансийский автономный округ" short_title="Куть-Ях" title="Куть-Ях" /><station city="Сургут" direction="Северное" esr="797303" importance="2" lat="61.290430" lon="73.323095" popular_title="" region="Ханты-Мансийский автономный округ" short_title="Сургут" title="Сургут" /><station direction="Северное" esr="797205" importance="4" lat="61.157782" lon="73.167593" popular_title="" region="Ханты-Мансийский автономный округ" short_title="Островной" title="Островной" /><station city="Пыть-Ях" direction="Северное" esr="797002" importance="1" lat="60.754629" lon="72.842284" popular_title="" region="Ханты-Мансийский автономный округ" short_title="Пыть-Ях" title="Пыть-Ях" /><station direction="Восточное" esr="791129" importance="4" lat="56.466576" lon="67.514851" popular_title="" region="Тюменская область" short_title="2296 км" title="2296 км" /><station direction="Восточное" esr="791326" importance="4" lat="56.406268" lon="68.192399" popular_title="" region="Тюменская область" short_title="2339 км" title="2339 км" /><station direction="Восточное" esr="791542" importance="4" lat="56.152981" lon="69.406927" popular_title="" region="Тюменская область" short_title="2420 км" title="2420 км" /><station direction="Восточное" esr="791720" importance="4" lat="55.904170" lon="70.216230" popular_title="" region="Тюменская область" short_title="2462 км" title="2462 км" /><station direction="Восточное" esr="791824" importance="4" lat="55.892476" lon="70.266168" popular_title="" region="Тюменская область" short_title="2485 км" title="2485 км" /><station direction="Восточное" esr="791913" importance="4" lat="55.806709" lon="70.674633" popular_title="" region="Тюменская область" short_title="2506 км" title="2506 км" /><station direction="Восточное" esr="792028" importance="4" lat="55.633048" lon="71.139582" popular_title="" region="Омская область" short_title="2529 км" title="2529 км" /><station direction="Восточное" esr="792051" importance="4" popular_title="" region="Омская область" short_title="2552 км" title="2552 км" /><station direction="Западное" esr="793514" importance="4" lat="56.735373" lon="61.282287" popular_title="" region="Свердловская область" short_title="Мезенский" title="Мезенский" /><station city="Мегион" direction="Северное" esr="797801" importance="2" lat="61.141167" lon="76.000306" popular_title="" region="Ханты-Мансийский автономный округ" short_title="Мегион" title="Мегион" /><station direction="Северное" esr="797712" importance="4" lat="61.401106" lon="74.857673" popular_title="" region="Ханты-Мансийский автономный округ" short_title="Чумпас" title="Чумпас" /><station direction="Северное" esr="797727" importance="4" lat="61.243624" lon="75.458684" popular_title="" region="Ханты-Мансийский автономный округ" short_title="Урьевский" title="Урьевский" /><station city="Нижневартовск" direction="Северное" esr="797905" importance="2" lat="61.001705" lon="76.460499" popular_title="" region="Ханты-Мансийский автономный округ" short_title="Нижневартовск-2" title="Нижневартовск-2" /><station city="Екатеринбург" direction="Западное" esr="780529" importance="3" lat="56.864259" lon="60.510856" popular_title="" region="Свердловская область" short_title="Электродепо" title="Электродепо" /><station direction="Северное" esr="797214" importance="4" lat="61.252403" lon="73.177454" popular_title="" region="Ханты-Мансийский автономный округ" short_title="Обский" title="Обский" /><station direction="Западное" esr="793410" importance="4" lat="56.805634" lon="60.758668" popular_title="" region="Свердловская область" short_title="1826 км" title="1826 км" /><station direction="Западное" esr="793923" importance="4" lat="56.750088" lon="61.068072" popular_title="" region="Свердловская область" short_title="1850 км" title="1850 км" /><station direction="Западное" esr="792738" importance="4" lat="56.910019" lon="63.026727" popular_title="" region="Свердловская область" short_title="1979 км" title="1979 км" /><station direction="Западное" esr="792615" importance="4" lat="57.063903" lon="63.670186" popular_title="" region="Свердловская область" short_title="2023 км" title="2023 км" /><station direction="Восточное" esr="791010" importance="4" lat="56.475186" lon="66.949593" popular_title="" region="Тюменская область" short_title="2261 км" title="2261 км" /><station direction="Западное" esr="792140" importance="4" lat="57.112362" lon="65.007165" popular_title="" region="Тюменская область" short_title="Гужевое" title="Гужевое" /><station direction="Западное" esr="794019" importance="4" lat="56.754487" lon="60.971105" popular_title="" region="Свердловская область" short_title="Бобровка" title="Бобровка" /><station city="Екатеринбург" direction="Западное" esr="780618" importance="2" lat="56.843264" lon="60.632161" popular_title="" region="Свердловская область" short_title="Первомайская" title="Первомайская" /><station direction="Западное" esr="794038" importance="4" lat="56.771445" lon="60.820721" popular_title="" region="Свердловская область" short_title="Хуторята" title="Хуторята" /><station direction="Восточное" esr="791421" importance="4" lat="56.369802" lon="68.545645" popular_title="" region="Тюменская область" short_title="Гладилово" title="Гладилово" /><station direction="Восточное" esr="792032" importance="4" lat="55.674042" lon="71.047145" popular_title="" region="Омская область" short_title="Обгонный пункт №46" title="Обгонный пункт №46" /><station direction="Восточное" esr="790713" importance="4" lat="56.850639" lon="65.954906" popular_title="" region="Тюменская область" short_title="2181 км" title="2181 км" /><station direction="Восточное" esr="790728" importance="4" lat="56.835543" lon="65.977311" popular_title="" region="Тюменская область" short_title="Тугарский" title="Тугарский" /><station direction="Восточное" esr="790611" importance="4" lat="56.936899" lon="65.818337" popular_title="" region="Тюменская область" short_title="2169 км" title="2169 км" /><station direction="Восточное" esr="790817" importance="4" lat="56.635355" lon="66.374351" popular_title="" region="Тюменская область" short_title="2218 км" title="2218 км" /><station direction="Восточное" esr="790910" importance="4" lat="56.498296" lon="66.651577" popular_title="" region="Тюменская область" short_title="2243 км" title="2243 км" /><station direction="Восточное" esr="791631" importance="4" lat="56.088684" lon="69.562544" popular_title="" region="Тюменская область" short_title="2431 км" title="2431 км" /><station direction="Западное" esr="790022" importance="4" lat="57.149531" lon="65.443195" popular_title="" region="Тюменская область" short_title="2134 км" title="2134 км" /><station direction="Западное" esr="792117" importance="4" lat="57.132402" lon="65.270070" popular_title="" region="Тюменская область" short_title="2123 км" title="2123 км" /><station direction="Западное" esr="792136" importance="4" lat="57.118876" lon="65.099396" popular_title="" region="Тюменская область" short_title="2112 км" title="2112 км" /><station direction="Западное" esr="792210" importance="4" lat="57.077358" lon="64.730841" popular_title="" region="Свердловская область" short_title="2089 км" title="2089 км" /><station direction="Западное" esr="792231" importance="4" lat="57.065300" lon="64.620869" popular_title="" region="Свердловская область" short_title="2083 км" title="2083 км" /><station direction="Западное" esr="792526" importance="4" lat="57.074482" lon="64.070282" popular_title="" region="Свердловская область" short_title="2048 км" title="2048 км" /><station direction="Западное" esr="792545" importance="4" lat="57.075486" lon="63.868492" popular_title="" region="Свердловская область" short_title="2035 км" title="2035 км" /><station direction="Восточное" esr="790018" importance="3" lat="57.124289" lon="65.581546" popular_title="" region="Тюменская область" short_title="2143 км" title="2143 км" /><station direction="Западное" esr="792155" importance="4" lat="57.105238" lon="64.921424" popular_title="" region="Свердловская область" short_title="2102 км" title="2102 км" /><station direction="Западное" esr="793251" importance="4" lat="56.740469" lon="61.612592" popular_title="" region="Свердловская область" short_title="Измоденово" title="Измоденово" /><station direction="Западное" esr="793228" importance="4" lat="56.766430" lon="61.876234" popular_title="" region="Свердловская область" short_title="Кортогуз" title="Кортогуз" /><station direction="Западное" esr="794023" importance="4" lat="56.762868" lon="60.911929" popular_title="" region="Свердловская область" short_title="Глубокое" title="Глубокое" /><station direction="Западное" esr="794042" importance="4" lat="56.773055" lon="60.940323" popular_title="" region="Свердловская область" short_title="1841 км" title="1841 км" /><station direction="Западное" esr="793919" importance="4" lat="56.750035" lon="61.126316" popular_title="" region="Свердловская область" short_title="Брусяны" title="Брусяны" /><station direction="Западное" esr="793529" importance="4" lat="56.740561" lon="61.261085" popular_title="" region="Свердловская область" short_title="Курманка" title="Курманка" /><station direction="Западное" esr="793143" importance="4" lat="56.781371" lon="62.116507" popular_title="" region="Свердловская область" short_title="1918 км" title="1918 км" /><station direction="Западное" esr="793139" importance="4" lat="56.788857" lon="62.201385" popular_title="" region="Свердловская область" short_title="Дубровный" title="Дубровный" /><station direction="Западное" esr="793124" importance="4" lat="56.798336" lon="62.286766" popular_title="" region="Свердловская область" short_title="1928 км" title="1928 км" /><station direction="Западное" esr="792812" importance="4" lat="56.900347" lon="62.931333" popular_title="" region="Свердловская область" short_title="1973 км" title="1973 км" /><station direction="Западное" esr="792511" importance="4" lat="57.079889" lon="64.163000" popular_title="" region="Свердловская область" short_title="Балаир" title="Балаир" /><station direction="Восточное" esr="791735" importance="4" popular_title="" region="Тюменская область" short_title="2473 км" title="2473 км" /><station direction="Восточное" esr="790751" importance="4" lat="56.701604" lon="66.192182" popular_title="" region="Тюменская область" short_title="Кавдык" title="Кавдык" /><station direction="Восточное" esr="790925" importance="4" lat="56.494394" lon="66.700390" popular_title="" region="Тюменская область" short_title="Уково" title="Уково" /><station direction="Северное" esr="796955" importance="4" lat="60.550449" lon="72.470814" popular_title="" region="Ханты-Мансийский автономный округ" short_title="Ай-Ягун" title="Ай-Ягун" /><station direction="Северное" esr="796974" importance="4" lat="60.695171" lon="72.720301" popular_title="" region="Ханты-Мансийский автономный округ" short_title="Южный Балык" title="Южный Балык" /><station direction="Северное" esr="797139" importance="4" lat="61.049998" lon="73.142439" popular_title="" region="Ханты-Мансийский автономный округ" short_title="666 км" title="666 км" /><station direction="Северное" esr="797125" importance="4" lat="61.088785" lon="73.157741" popular_title="" region="Ханты-Мансийский автономный округ" short_title="674 км" title="674 км" /><station direction="Северное" esr="797144" importance="4" lat="60.933082" lon="73.114902" popular_title="" region="Ханты-Мансийский автономный округ" short_title="651 км" title="651 км" /><station city="Называевск" direction="Восточное" esr="831608" importance="2" lat="55.567750" lon="71.354211" popular_title="" region="Омская область" short_title="Называевская" title="Называевская" /><station direction="Западное" esr="700" importance="4" lat="56.772293" lon="61.924242" popular_title="" region="Свердловская область" short_title="Тыгиш" title="Тыгиш" /><station direction="Западное" esr="792174" importance="4" lat="57.114618" lon="65.039522" popular_title="" region="Тюменская область" short_title="2108 км" title="2108 км" /><station city="Екатеринбург" direction="Западное" esr="794220" importance="3" lat="56.809328" lon="60.718055" popular_title="" region="Свердловская область" short_title="Чапаевская" title="Чапаевская" /><station direction="Восточное" esr="736" importance="4" lat="56.673208" lon="66.250388" popular_title="" region="Тюменская область" short_title="2209 км" title="2209 км" /><station direction="Восточное" esr="752" importance="4" lat="56.808718" lon="66.017058" popular_title="" region="Тюменская область" short_title="2186 км" title="2186 км" /><station direction="Восточное" esr="735" importance="4" lat="57.060283" lon="65.714072" popular_title="" region="Тюменская область" short_title="2148 км" title="2148 км" /><station direction="Восточное" esr="705" importance="3" lat="57.114073" lon="65.607924" popular_title="" region="Тюменская область" short_title="2145 км" title="2145 км" /><station direction="Восточное" esr="706" importance="3" lat="57.106489" lon="65.628031" popular_title="" region="Тюменская область" short_title="2146 км" title="2146 км" /><station direction="Восточное" esr="743" importance="4" lat="56.125117" lon="69.468550" popular_title="" region="Тюменская область" short_title="2425 км" title="2425 км" /><station direction="Восточное" esr="742" importance="4" lat="56.172701" lon="69.350459" popular_title="" region="Тюменская область" short_title="2416 км" title="2416 км" /><station direction="Восточное" esr="741" importance="4" lat="56.221412" lon="69.166443" popular_title="" region="Тюменская область" short_title="2403 км" title="2403 км" /><station direction="Восточное" esr="739" importance="4" lat="56.358714" lon="68.605290" popular_title="" region="Тюменская область" short_title="2365 км" title="2365 км" /><station direction="Восточное" esr="737" importance="4" lat="56.468687" lon="67.398112" popular_title="" region="Тюменская область" short_title="2289 км" title="2289 км" /><station direction="Западное" esr="704" importance="4" lat="57.152041" lon="65.475650" popular_title="" region="Тюменская область" short_title="2136 км" title="2136 км" /><station direction="Западное" esr="703" importance="4" lat="57.127925" lon="65.225182" popular_title="" region="Тюменская область" short_title="2120 км" title="2120 км" /><station direction="Западное" esr="702" importance="4" lat="57.123608" lon="65.165620" popular_title="" region="Тюменская область" short_title="2116 км" title="2116 км" /><station direction="Западное" esr="766" importance="4" lat="56.958562" lon="63.236140" popular_title="" region="Свердловская область" short_title="1992 км" title="1992 км" /><station direction="Северное" esr="797337" importance="4" lat="61.414366" lon="73.807287" popular_title="" region="Ханты-Мансийский автономный округ" short_title="Сурмятин" title="Сурмятин" /><station direction="Северное" esr="797341" importance="4" lat="61.451185" lon="74.024896" popular_title="" region="Ханты-Мансийский автономный округ" short_title="Вач-Ягун" title="Вач-Ягун" /></suburban_zone>