<?xml version='1.0' encoding='UTF-8'?>
<suburban_zone id="57"><station city="Киев" direction="Винницкое" esr="320308" importance="1" lat="50.440046" lon="30.488236" popular_title="" region="Киев и Киевская область" short_title="Киев-Пасс." title="Киев-Пасс." /><station city="Киев" direction="Винницкое" esr="320505" importance="3" lat="50.413415" lon="30.432892" popular_title="" region="Киев и Киевская область" short_title="Киев-Волынский" title="Киев-Волынский" /><station city="Вишнёвое" direction="Винницкое" esr="321404" importance="1" lat="50.384027" lon="30.368101" popular_title="" region="Киев и Киевская область" short_title="Вишнёвое" title="Вишнёвое" /><station city="Калиновка" direction="Винницкое" esr="321207" importance="1" lat="50.226031" lon="30.226068" popular_title="" region="Киев и Киевская область" short_title="Васильков-1" title="Васильков-1" /><station city="Боярка" direction="Винницкое" esr="321230" importance="2" lat="50.314651" lon="30.298500" popular_title="" region="Киев и Киевская область" short_title="Боярка" title="Боярка" /><station direction="Винницкое" esr="321103" importance="4" lat="50.182431" lon="30.107633" popular_title="" region="Киев и Киевская область" short_title="Мотовиловка" title="Мотовиловка" /><station city="Кожанка" direction="Винницкое" esr="343303" importance="1" lat="49.981074" lon="29.732706" popular_title="" region="Киев и Киевская область" short_title="Кожанка" title="Кожанка" /><station city="Фастов" direction="Винницкое" esr="343507" importance="1" lat="50.076679" lon="29.927376" popular_title="" region="Киев и Киевская область" short_title="Фастов-1" title="Фастов-1" /><station city="Попельня" direction="Винницкое" esr="343102" importance="1" lat="49.944452" lon="29.462237" popular_title="" region="Житомирская область" short_title="Попельня" title="Попельня" /><station direction="Винницкое" esr="342909" importance="4" lat="49.921940" lon="29.205687" popular_title="" region="Житомирская область" short_title="Бровки" title="Бровки" /><station direction="Винницкое" esr="342824" importance="4" lat="49.847553" lon="29.031706" popular_title="" region="Житомирская область" short_title="Чернорудка" title="Чернорудка" /><station direction="Винницкое" esr="342720" importance="4" lat="49.749892" lon="28.894439" popular_title="" region="Винницкая область" short_title="Сестреновка" title="Сестреновка" /><station direction="Винницкое" esr="335869" importance="4" lat="49.313505" lon="28.558899" popular_title="" region="Винницкая область" short_title="Десенка" title="Десенка" /><station direction="Винницкое" esr="336409" importance="4" lat="48.872897" lon="29.080592" popular_title="" region="Винницкая область" short_title="Самчинцы" title="Самчинцы" /><station direction="Винницкое" esr="337101" importance="4" lat="49.564871" lon="28.715686" popular_title="" region="Винницкая область" short_title="Голендры" title="Голендры" /><station direction="Винницкое" esr="337008" importance="4" lat="49.485272" lon="28.590540" popular_title="" region="Винницкая область" short_title="Гулевцы" title="Гулевцы" /><station city="Калиновка" direction="Винницкое" esr="336880" importance="2" lat="49.461435" lon="28.553333" popular_title="" region="Винницкая область" short_title="Воршица" title="Воршица" /><station city="Калиновка" direction="Винницкое" esr="336804" importance="1" lat="49.433064" lon="28.529543" popular_title="" region="Винницкая область" short_title="Калиновка-1" title="Калиновка-1" /><station city="Винница" direction="Винницкое" esr="335801" importance="2" lat="49.239068" lon="28.510994" popular_title="" region="Винницкая область" short_title="Винница" title="Винница" /><station direction="Винницкое" esr="335820" importance="4" lat="49.281476" lon="28.542488" popular_title="" region="Винницкая область" short_title="Стадница" title="Стадница" /><station direction="Винницкое" esr="335854" importance="4" lat="49.177562" lon="28.687832" popular_title="" region="Винницкая область" short_title="Гуменное" title="Гуменное" /><station direction="Винницкое" esr="335905" importance="4" lat="49.123081" lon="28.712100" popular_title="" region="Винницкая область" short_title="Вороновицы" title="Вороновицы" /><station direction="Винницкое" esr="336005" importance="4" lat="49.070961" lon="28.853955" popular_title="" region="Винницкая область" short_title="Фердинандовка" title="Фердинандовка" /><station direction="Винницкое" esr="336202" importance="4" lat="48.981216" lon="28.873303" popular_title="" region="Винницкая область" short_title="Немиров" title="Немиров" /><station direction="Винницкое" esr="336306" importance="4" lat="48.914992" lon="28.971312" popular_title="" region="Винницкая область" short_title="Каролина" title="Каролина" /><station direction="Винницкое" esr="336503" importance="4" lat="48.903446" lon="29.182901" popular_title="" region="Винницкая область" short_title="Ситковцы" title="Ситковцы" /><station direction="Винницкое" esr="336611" importance="4" lat="48.908566" lon="29.287334" popular_title="" region="Винницкая область" short_title="Крыштоповка" title="Крыштоповка" /><station direction="Винницкое" esr="336700" importance="4" lat="48.795098" lon="29.391596" popular_title="" region="Винницкая область" short_title="Гайсин" title="Гайсин" /><station city="Хмельницкий" direction="Хмельницкое" esr="330600" importance="2" lat="49.441446" lon="26.931749" popular_title="" region="Хмельницкая область" short_title="Гречаны" title="Гречаны" /><station direction="Хмельницкое" esr="331158" importance="4" lat="49.099250" lon="27.897337" popular_title="" region="Винницкая область" short_title="Сербиновцы" title="Сербиновцы" /><station direction="Винницкое" esr="335708" importance="4" lat="49.150901" lon="28.489565" popular_title="" region="Винницкая область" short_title="Тюшки" title="Тюшки" /><station city="Гнивань" direction="Винницкое" esr="335604" importance="2" lat="49.105356" lon="28.335622" popular_title="" region="Винницкая область" short_title="Гнивань" title="Гнивань" /><station city="Браилов" direction="Винницкое" esr="335500" importance="1" lat="49.086378" lon="28.141932" popular_title="" region="Винницкая область" short_title="Браилов" title="Браилов" /><station city="Жмеринка" direction="Могилёв-Подольское" esr="330013" importance="3" lat="49.040108" lon="28.060733" popular_title="" region="Винницкая область" short_title="Жмеринка-Подольская" title="Жмеринка-Подольская" /><station direction="Могилёв-Подольское" esr="332707" importance="4" lat="49.040125" lon="27.948058" popular_title="" region="Винницкая область" short_title="Матейково" title="Матейково" /><station city="Бар" direction="Могилёв-Подольское" esr="332606" importance="1" lat="49.035826" lon="27.723875" popular_title="" region="Винницкая область" short_title="Бар" title="Бар" /><station direction="Могилёв-Подольское" esr="332521" importance="4" lat="48.977924" lon="27.767229" popular_title="" region="Винницкая область" short_title="Мытки" title="Мытки" /><station direction="Могилёв-Подольское" esr="332502" importance="4" lat="48.884711" lon="27.752740" popular_title="" region="Винницкая область" short_title="Копай" title="Копай" /><station direction="Могилёв-Подольское" esr="332409" importance="4" lat="48.788276" lon="27.753512" popular_title="" region="Винницкая область" short_title="Котюжаны" title="Котюжаны" /><station direction="Могилёв-Подольское" esr="332216" importance="4" lat="48.682167" lon="27.759459" popular_title="" region="Винницкая область" short_title="Немерчи" title="Немерчи" /><station city="Вендичаны" direction="Могилёв-Подольское" esr="332201" importance="1" lat="48.606483" lon="27.780800" popular_title="" region="Винницкая область" short_title="Вендичаны" title="Вендичаны" /><station direction="Могилёв-Подольское" esr="332108" importance="4" lat="48.547324" lon="27.741648" popular_title="" region="Винницкая область" short_title="Израиловка" title="Израиловка" /><station direction="Могилёв-Подольское" esr="332004" importance="4" lat="48.489957" lon="27.703674" popular_title="" region="Винницкая область" short_title="Сулятицкая" title="Сулятицкая" /><station direction="Котовское" esr="331406" importance="4" lat="48.601003" lon="28.721035" popular_title="" region="Винницкая область" short_title="Журавлевка" title="Журавлевка" /><station direction="Котовское" esr="331425" importance="4" lat="48.699726" lon="28.583379" popular_title="" region="Винницкая область" short_title="Юрковка" title="Юрковка" /><station city="Рахни-Лесные" direction="Котовское" esr="331603" importance="1" lat="48.788026" lon="28.472380" popular_title="" region="Винницкая область" short_title="Рахны" title="Рахны" /><station direction="Котовское" esr="331707" importance="4" lat="48.902277" lon="28.267391" popular_title="" region="Винницкая область" short_title="Ярошенка" title="Ярошенка" /><station city="Лозовое" direction="Хмельницкое" esr="330901" importance="1" lat="49.290953" lon="27.294854" popular_title="" region="Хмельницкая область" short_title="Коржевцы" title="Коржевцы" /><station direction="Хмельницкое" esr="330808" importance="4" lat="49.373132" lon="27.142514" popular_title="" region="Хмельницкая область" short_title="Богдановцы" title="Богдановцы" /><station city="Жмеринка" direction="Котовское" esr="330009" importance="2" lat="49.033462" lon="28.112720" popular_title="" region="Винницкая область" short_title="Жмеринка" title="Жмеринка" /><station city="Могилёв-Подольский" direction="Могилёв-Подольское" esr="331904" importance="2" lat="48.457762" lon="27.774287" popular_title="" region="Винницкая область" short_title="Могилёв-Подольский" title="Могилёв-Подольский" /><station direction="Винницкое" esr="337205" importance="4" lat="49.640547" lon="28.785655" popular_title="" region="Винницкая область" short_title="Кордышевка" title="Кордышевка" /><station direction="Винницкое" esr="337219" importance="4" lat="49.667974" lon="28.815490" popular_title="" region="Винницкая область" short_title="Сигнал" title="Сигнал" /><station direction="Могилёв-Подольское" esr="332610" importance="4" lat="49.034959" lon="27.817084" popular_title="" region="Винницкая область" short_title="Степанки" title="Степанки" /><station direction="Винницкое" esr="337012" importance="4" lat="49.515519" lon="28.637063" popular_title="" region="Винницкая область" short_title="Черепашинцы" title="Черепашинцы" /><station city="Хмельницкий" direction="Хмельницкое" esr="330704" importance="1" lat="49.416105" lon="27.009579" popular_title="" region="Хмельницкая область" short_title="Хмельницкий" title="Хмельницкий" /><station city="Казатин" direction="Винницкое" esr="342716" importance="1" lat="49.705985" lon="28.831593" popular_title="" region="Винницкая область" short_title="Казатин-1" title="Казатин-1" /><station city="Киев" direction="Винницкое" esr="320312" importance="3" lat="50.436995" lon="30.448361" popular_title="" region="Киев и Киевская область" short_title="Караваевы Дачи" title="Караваевы Дачи" /><station direction="Винницкое" esr="321226" importance="4" lat="50.288329" lon="30.305498" popular_title="" region="Киев и Киевская область" short_title="Малютинка" title="Малютинка" /><station direction="Винницкое" esr="342735" importance="4" lat="49.765982" lon="28.919419" popular_title="" region="Винницкая область" short_title="Вернигородок" title="Вернигородок" /><station direction="Винницкое" esr="337116" importance="4" lat="49.599751" lon="28.748282" popular_title="" region="Винницкая область" short_title="Николаевка" title="Николаевка" /><station city="Винница" direction="Винницкое" esr="335816" importance="4" lat="49.268083" lon="28.531913" popular_title="" region="Винницкая область" short_title="Винница-Грузовая" title="Винница-Грузовая" /><station direction="Винницкое" esr="335549" importance="4" lat="49.067063" lon="28.109821" popular_title="" region="Винницкая область" short_title="Тартак" title="Тартак" /><station direction="Винницкое" esr="321279" importance="4" lat="50.277431" lon="30.310541" popular_title="" region="Киев и Киевская область" short_title="Шляхова" title="Шляхова" /><station direction="Могилёв-Подольское" esr="332413" importance="4" lat="48.833145" lon="27.756353" popular_title="" region="Винницкая область" short_title="Лесовое" title="Лесовое" /><station direction="Могилёв-Подольское" esr="332428" importance="4" lat="48.857796" lon="27.751028" popular_title="" region="Винницкая область" short_title="Володиевцы" title="Володиевцы" /><station direction="Винницкое" esr="342746" importance="4" lat="49.790978" lon="28.954696" popular_title="" region="Житомирская область" short_title="Белоселье" title="Белоселье" /><station direction="Котовское" esr="330051" importance="4" lat="48.979262" lon="28.186221" popular_title="" region="Винницкая область" short_title="Будки" title="Будки" /><station direction="Хмельницкое" esr="331139" importance="4" lat="49.136317" lon="27.776644" popular_title="" region="Винницкая область" short_title="Васютинцы" title="Васютинцы" /><station direction="Винницкое" esr="335515" importance="4" lat="49.088097" lon="28.233111" popular_title="" region="Винницкая область" short_title="Демидовка" title="Демидовка" /><station direction="Котовское" esr="330047" importance="4" lat="49.006247" lon="28.163332" popular_title="" region="Винницкая область" short_title="Жуковцы" title="Жуковцы" /><station direction="Котовское" esr="331622" importance="4" lat="48.869981" lon="28.370177" popular_title="" region="Винницкая область" short_title="Красновка" title="Красновка" /><station direction="Хмельницкое" esr="330827" importance="4" lat="49.319990" lon="27.239086" popular_title="" region="Хмельницкая область" short_title="Масивцы" title="Масивцы" /><station direction="Хмельницкое" esr="330028" importance="4" lat="49.065189" lon="27.979874" popular_title="" region="Винницкая область" short_title="Межиров" title="Межиров" /><station direction="Котовское" esr="330070" importance="4" lat="48.926337" lon="28.243156" popular_title="" region="Винницкая область" short_title="Мытлановка" title="Мытлановка" /><station direction="Винницкое" esr="335712" importance="4" lat="49.173493" lon="28.517532" popular_title="" region="Винницкая область" short_title="Порпуровский" title="Порпуровский" /><station direction="Винницкое" esr="335841" importance="4" lat="49.402731" lon="28.532744" popular_title="" region="Винницкая область" short_title="Сальницкий" title="Сальницкий" /><station direction="Винницкое" esr="335835" importance="4" lat="49.355596" lon="28.544490" popular_title="" region="Винницкая область" short_title="Сосонка" title="Сосонка" /><station direction="Хмельницкое" esr="331143" importance="4" lat="49.110622" lon="27.823775" popular_title="" region="Винницкая область" short_title="Стодульцы" title="Стодульцы" /><station direction="Винницкое" esr="342913" importance="4" lat="49.951277" lon="29.342217" popular_title="" region="Житомирская область" short_title="Харлеевка" title="Харлеевка" /><station city="Хмельницкий" direction="Хмельницкое" esr="330719" importance="4" lat="49.398016" lon="27.069428" popular_title="" region="Хмельницкая область" short_title="Раково" title="Раково" /><station direction="Винницкое" esr="336310" importance="4" lat="48.964021" lon="28.913016" popular_title="" region="Винницкая область" short_title="Сажки" title="Сажки" /><station direction="Винницкое" esr="335619" importance="4" lat="49.123939" lon="28.444402" popular_title="" region="Винницкая область" short_title="Ярышевка" title="Ярышевка" /><station city="Боярка" direction="Винницкое" esr="321245" importance="4" lat="50.342640" lon="30.301640" popular_title="" region="Киев и Киевская область" short_title="Тарасовка" title="Тарасовка" /><station city="Глеваха" direction="Винницкое" esr="321211" importance="1" lat="50.255863" lon="30.304760" popular_title="" region="Киев и Киевская область" short_title="Глеваха" title="Глеваха" /><station direction="Винницкое" esr="335522" importance="4" lat="49.091765" lon="28.275771" popular_title="" region="Винницкая область" short_title="Могилевка" title="Могилевка" /><station direction="Хмельницкое" esr="331116" importance="4" lat="49.182161" lon="27.711874" popular_title="" region="Хмельницкая область" short_title="Радовцы" title="Радовцы" /><station direction="Винницкое" esr="343314" importance="4" lat="50.009727" lon="29.833271" popular_title="" region="Киев и Киевская область" short_title="Трилесы" title="Трилесы" /><station direction="Хмельницкое" esr="331162" importance="4" lat="49.098488" lon="27.942806" popular_title="" region="Винницкая область" short_title="Дубки" title="Дубки" /><station direction="Хмельницкое" esr="330812" importance="4" lat="49.347329" lon="27.204782" popular_title="" region="Хмельницкая область" short_title="Верхний Участок" title="Верхний Участок" /><station direction="Винницкое" esr="343121" importance="4" lat="49.966941" lon="29.621629" popular_title="" region="Житомирская область" short_title="Чернявка" title="Чернявка" /><station direction="Котовское" esr="331618" importance="4" lat="48.831051" lon="28.416730" popular_title="" region="Винницкая область" short_title="Бушинка" title="Бушинка" /><station direction="Винницкое" esr="336024" importance="4" lat="49.041130" lon="28.918142" popular_title="" region="Винницкая область" short_title="Витовцы" title="Витовцы" /><station direction="Винницкое" esr="321118" importance="4" lat="50.192679" lon="30.132349" popular_title="" region="Киев и Киевская область" short_title="Корчи" title="Корчи" /><station direction="Котовское" esr="331435" importance="4" lat="48.738133" lon="28.508037" popular_title="" region="Винницкая область" short_title="Шпиков" title="Шпиков" /><station direction="Винницкое" esr="342812" importance="4" lat="49.892278" lon="29.116509" popular_title="" region="Житомирская область" short_title="Вчерайше" title="Вчерайше" /><station direction="Котовское" esr="331410" importance="4" lat="48.664216" lon="28.644897" popular_title="" region="Винницкая область" short_title="Шура" title="Шура" /><station direction="Винницкое" esr="321156" importance="4" lat="50.130192" lon="30.007552" popular_title="" region="Киев и Киевская область" short_title="Сорочий Брод" title="Сорочий Брод" /><station city="Хмельницкий" direction="Хмельницкое" esr="330625" importance="3" lat="49.416734" lon="26.974039" popular_title="" region="Хмельницкая область" short_title="Каменецкий переезд" title="Каменецкий переезд" /><station direction="Винницкое" esr="321137" importance="4" lat="50.165989" lon="30.058228" popular_title="" region="Киев и Киевская область" short_title="Пивни" title="Пивни" /><station city="Волковинцы" direction="Хмельницкое" esr="331105" importance="1" lat="49.194675" lon="27.665642" popular_title="" region="Хмельницкая область" short_title="Комаровцы" title="Комаровцы" /><station direction="Хмельницкое" esr="331020" importance="4" lat="49.209485" lon="27.525489" popular_title="" region="Хмельницкая область" short_title="Новая Гута" title="Новая Гута" /><station city="Деражня" direction="Хмельницкое" esr="331001" importance="1" lat="49.266745" lon="27.434182" popular_title="" region="Хмельницкая область" short_title="Деражня" title="Деражня" /><station direction="Винницкое" esr="321122" importance="4" lat="50.176634" lon="30.092672" popular_title="" region="Киев и Киевская область" short_title="Белки" title="Белки" /><station direction="Хмельницкое" esr="331124" importance="4" lat="49.171681" lon="27.720123" popular_title="" region="Хмельницкая область" short_title="Гришки" title="Гришки" /><station direction="Винницкое" esr="321141" importance="4" lat="50.147293" lon="30.027817" popular_title="" region="Киев и Киевская область" short_title="Вишняки" title="Вишняки" /><station direction="Винницкое" esr="343117" importance="4" lat="49.956309" lon="29.547591" popular_title="" region="Житомирская область" short_title="Саверцы" title="Саверцы" /><station direction="Хмельницкое" esr="330032" importance="4" lat="49.090918" lon="27.963152" popular_title="" region="Винницкая область" short_title="Лопатиницы" title="Лопатиницы" /><station direction="Винницкое" esr="343579" importance="4" lat="50.105962" lon="29.975839" popular_title="" region="Киев и Киевская область" short_title="Снетинка" title="Снетинка" /><station direction="Могилёв-Подольское" esr="332540" importance="4" lat="48.997739" lon="27.725742" popular_title="" region="Винницкая область" short_title="Кияновка" title="Кияновка" /><station city="Гайворон" direction="Винницкое" esr="409704" importance="1" lat="48.339932" lon="29.853427" popular_title="" region="Кировоградская область" short_title="Гайворон" title="Гайворон" /><station direction="Винницкое" esr="409507" importance="4" lat="48.497584" lon="29.637871" popular_title="" region="Винницкая область" short_title="Генриховка" title="Генриховка" /><station direction="Винницкое" esr="409600" importance="4" lat="48.457635" lon="29.737864" popular_title="" region="Винницкая область" short_title="Джулинка" title="Джулинка" /><station direction="Винницкое" esr="409403" importance="4" lat="48.601772" lon="29.507633" popular_title="" region="Винницкая область" short_title="Дукля" title="Дукля" /><station city="Христиновка" direction="Винницкое" esr="421104" importance="1" lat="48.815515" lon="29.971222" popular_title="" region="Черкасская область" short_title="Христиновка" title="Христиновка" /><station direction="Винницкое" esr="420216" importance="4" lat="48.758172" lon="29.793794" popular_title="" region="Винницкая область" short_title="Роскошевка" title="Роскошевка" /><station direction="Винницкое" esr="420205" importance="4" lat="48.677397" lon="29.643389" popular_title="" region="Винницкая область" short_title="Кублич" title="Кублич" /><station direction="Винницкое" esr="409206" importance="3" lat="48.709851" lon="29.446940" popular_title="" region="Винницкая область" short_title="Зятковцы" title="Зятковцы" /><station city="Вапнярка" direction="Котовское" esr="408504" importance="2" lat="48.533634" lon="28.746598" popular_title="" region="Винницкая область" short_title="Вапнярка" title="Вапнярка" /><station direction="Винницкое" esr="420328" importance="4" lat="48.817772" lon="29.906123" popular_title="" region="Черкасская область" short_title="Казачий Хутор" title="Казачий Хутор" /><station direction="Винницкое" esr="420313" importance="4" lat="48.802116" lon="29.864198" popular_title="" region="Черкасская область" short_title="Ивангород" title="Ивангород" /><station direction="Винницкое" esr="002113" importance="4" lat="48.688580" lon="29.567505" popular_title="" region="Винницкая область" short_title="80 км" title="80 км" /><station direction="Винницкое" esr="002115" importance="4" lat="48.850220" lon="29.120977" popular_title="" region="Винницкая область" short_title="Семенки (72 км)" title="Семенки (72 км)" /><station direction="Винницкое" esr="002116" importance="4" lat="48.877451" lon="29.036770" popular_title="" region="Винницкая область" short_title="68 км" title="68 км" /><station direction="Винницкое" esr="002320" importance="4" lat="50.245418" lon="30.276834" popular_title="" region="Киев и Киевская область" short_title="888 км" title="888 км" /><station direction="Винницкое" esr="002352" importance="4" lat="49.134546" lon="28.477197" popular_title="" region="Винницкая область" short_title="Веселка" title="Веселка" /><station direction="Винницкое" esr="335623" importance="4" lat="49.118181" lon="28.391675" popular_title="" region="Винницкая область" short_title="Селищанский" title="Селищанский" /><station direction="Винницкое" esr="335534" importance="4" lat="49.087024" lon="28.196458" popular_title="" region="Винницкая область" short_title="Козачевка" title="Козачевка" /><station direction="Хмельницкое" esr="331035" importance="4" lat="49.209022" lon="27.597218" popular_title="" region="Хмельницкая область" short_title="Кориченцы" title="Кориченцы" /><station direction="Хмельницкое" esr="002349" importance="4" lat="49.217977" lon="27.491494" popular_title="" region="Хмельницкая область" short_title="Волоское" title="Волоское" /><station direction="Хмельницкое" esr="002348" importance="4" lat="49.274183" lon="27.356140" popular_title="" region="Хмельницкая область" short_title="Летки" title="Летки" /><station direction="Хмельницкое" esr="002347" importance="4" lat="49.382081" lon="27.108767" popular_title="" region="Хмельницкая область" short_title="Грузовой Двор" title="Грузовой Двор" /><station direction="Могилёв-Подольское" esr="002344" importance="4" lat="49.034604" lon="28.008731" popular_title="" region="Винницкая область" short_title="Чапаевка" title="Чапаевка" /><station direction="Могилёв-Подольское" esr="002345" importance="4" lat="49.038047" lon="27.905144" popular_title="" region="Винницкая область" short_title="Чернятин" title="Чернятин" /><station direction="Могилёв-Подольское" esr="002346" importance="4" lat="48.942166" lon="27.737092" popular_title="" region="Винницкая область" short_title="Мартыновка" title="Мартыновка" /><station direction="Котовское" esr="002351" importance="4" lat="49.016930" lon="28.132616" popular_title="" region="Винницкая область" short_title="Садовая" title="Садовая" /><station direction="Котовское" esr="002350" importance="4" lat="48.989846" lon="28.166366" popular_title="" region="Винницкая область" short_title="1132 км" title="1132 км" /><station city="Хмельницкий" direction="Хмельницкое" esr="002384" importance="3" lat="49.421636" lon="26.959475" popular_title="" region="Хмельницкая область" short_title="Вещевой рынок" title="Вещевой рынок" /><station direction="Винницкое" esr="002131" importance="4" lat="48.602616" lon="29.507159" popular_title="" region="Винницкая область" short_title="Антоновка" title="Антоновка" /><station direction="Винницкое" esr="002132" importance="4" lat="48.549678" lon="29.572752" popular_title="" region="Винницкая область" short_title="Орлик" title="Орлик" /><station direction="Винницкое" esr="002133" importance="4" lat="48.398268" lon="29.800108" popular_title="" region="Винницкая область" short_title="Ставки" title="Ставки" /></suburban_zone>