<?xml version='1.0' encoding='UTF-8'?>
<suburban_zone id="58"><station city="Киев" direction="Киевское" esr="320308" importance="1" lat="50.440046" lon="30.488236" popular_title="" region="Киев и Киевская область" short_title="Киев-Пасс." title="Киев-Пасс." /><station city="Киев" direction="Киевское" esr="320505" importance="3" lat="50.413415" lon="30.432892" popular_title="" region="Киев и Киевская область" short_title="Киев-Волынский" title="Киев-Волынский" /><station city="Вишнёвое" direction="Киевское" esr="321404" importance="1" lat="50.384027" lon="30.368101" popular_title="" region="Киев и Киевская область" short_title="Вишнёвое" title="Вишнёвое" /><station direction="Бердичевское" esr="345502" importance="4" lat="50.175363" lon="28.705405" popular_title="" region="Житомирская область" short_title="Пряжево" title="Пряжево" /><station direction="Бердичевское" esr="345409" importance="4" lat="50.107019" lon="28.664244" popular_title="" region="Житомирская область" short_title="Кодня" title="Кодня" /><station direction="Бердичевское" esr="345305" importance="4" lat="50.011646" lon="28.635558" popular_title="" region="Житомирская область" short_title="Рея" title="Рея" /><station city="Бердичев" direction="Бердичевское" esr="345319" importance="4" lat="49.914010" lon="28.602097" popular_title="" region="Житомирская область" short_title="Бердичев-Житомирcкий" title="Бердичев-Житомирcкий" /><station city="Бердичев" direction="Бердичевское" esr="342400" importance="1" lat="49.888511" lon="28.614762" popular_title="" region="Житомирская область" short_title="Бердичев" title="Бердичев" /><station city="Калиновка" direction="Киевское" esr="321207" importance="1" lat="50.226031" lon="30.226068" popular_title="" region="Киев и Киевская область" short_title="Васильков-1" title="Васильков-1" /><station city="Боярка" direction="Киевское" esr="321230" importance="2" lat="50.314651" lon="30.298500" popular_title="" region="Киев и Киевская область" short_title="Боярка" title="Боярка" /><station direction="Киевское" esr="321103" importance="4" lat="50.182431" lon="30.107633" popular_title="" region="Киев и Киевская область" short_title="Мотовиловка" title="Мотовиловка" /><station city="Кожанка" direction="Киевское" esr="343303" importance="1" lat="49.981074" lon="29.732706" popular_title="" region="Киев и Киевская область" short_title="Кожанка" title="Кожанка" /><station direction="Бердичевское" esr="340015" importance="4" lat="50.179865" lon="27.133821" popular_title="" region="Хмельницкая область" short_title="Судилково" title="Судилково" /><station city="Фастов" direction="Киевское" esr="343507" importance="1" lat="50.076679" lon="29.927376" popular_title="" region="Киев и Киевская область" short_title="Фастов-1" title="Фастов-1" /><station city="Попельня" direction="Киевское" esr="343102" importance="1" lat="49.944452" lon="29.462237" popular_title="" region="Житомирская область" short_title="Попельня" title="Попельня" /><station direction="Киевское" esr="342909" importance="4" lat="49.921940" lon="29.205687" popular_title="" region="Житомирская область" short_title="Бровки" title="Бровки" /><station direction="Киевское" esr="342824" importance="4" lat="49.847553" lon="29.031706" popular_title="" region="Житомирская область" short_title="Чернорудка" title="Чернорудка" /><station direction="Киевское" esr="342720" importance="4" lat="49.749892" lon="28.894439" popular_title="" region="Винницкая область" short_title="Сестреновка" title="Сестреновка" /><station direction="Христиновское" esr="339501" importance="4" lat="49.727935" lon="28.914107" popular_title="" region="Винницкая область" short_title="Махаринцы" title="Махаринцы" /><station direction="Христиновское" esr="339412" importance="4" lat="49.702384" lon="29.010419" popular_title="" region="Житомирская область" short_title="Раставицы" title="Раставицы" /><station direction="Христиновское" esr="339304" importance="4" lat="49.644105" lon="29.205682" popular_title="" region="Житомирская область" short_title="Зарудинцы" title="Зарудинцы" /><station direction="Христиновское" esr="339224" importance="4" lat="49.525622" lon="29.304482" popular_title="" region="Винницкая область" short_title="Рось" title="Рось" /><station city="Погребище" direction="Христиновское" esr="339107" importance="4" lat="49.492895" lon="29.302580" popular_title="" region="Винницкая область" short_title="Ржевусская" title="Ржевусская" /><station city="Погребище" direction="Христиновское" esr="339003" importance="2" lat="49.438566" lon="29.294842" popular_title="" region="Винницкая область" short_title="Погребище-1" title="Погребище-1" /><station direction="Христиновское" esr="338119" importance="4" lat="49.364539" lon="29.142010" popular_title="" region="Винницкая область" short_title="Андрусово" title="Андрусово" /><station direction="Христиновское" esr="338733" importance="4" lat="49.407800" lon="29.428201" popular_title="" region="Винницкая область" short_title="Наказной Пост" title="Наказной Пост" /><station direction="Жмеринское" esr="335869" importance="4" lat="49.313505" lon="28.558899" popular_title="" region="Винницкая область" short_title="Десенка" title="Десенка" /><station city="Тетиев" direction="Христиновское" esr="338710" importance="3" lat="49.374807" lon="29.648421" popular_title="" region="Киев и Киевская область" short_title="Слободский Пост" title="Слободский Пост" /><station city="Тетиев" direction="Христиновское" esr="338706" importance="2" lat="49.365972" lon="29.709006" popular_title="" region="Киев и Киевская область" short_title="Тетиев" title="Тетиев" /><station direction="Христиновское" esr="338602" importance="4" lat="49.307070" lon="29.806558" popular_title="" region="Киев и Киевская область" short_title="Денгофовка" title="Денгофовка" /><station city="Жашков" direction="Христиновское" esr="338509" importance="1" lat="49.242858" lon="30.096353" popular_title="" region="Черкасская область" short_title="Жашков" title="Жашков" /><station city="Казатин" direction="Бердичевское" esr="342608" importance="3" lat="49.762223" lon="28.777306" popular_title="" region="Винницкая область" short_title="Казатин-2" title="Казатин-2" /><station direction="Бердичевское" esr="342415" importance="4" lat="49.859109" lon="28.671446" popular_title="" region="Житомирская область" short_title="Иванковцы" title="Иванковцы" /><station direction="Бердичевское" esr="342222" importance="4" lat="49.945831" lon="28.411816" popular_title="" region="Житомирская область" short_title="Демчин" title="Демчин" /><station city="Чуднов" direction="Бердичевское" esr="342108" importance="1" lat="50.018638" lon="28.145177" popular_title="" region="Житомирская область" short_title="Чуднов-Волынский" title="Чуднов-Волынский" /><station direction="Бердичевское" esr="342006" importance="4" lat="50.053037" lon="27.955397" popular_title="" region="Житомирская область" short_title="Разино" title="Разино" /><station direction="Бердичевское" esr="341906" importance="4" lat="50.075877" lon="27.799561" popular_title="" region="Житомирская область" short_title="Печановка" title="Печановка" /><station city="Мирополь" direction="Бердичевское" esr="341802" importance="1" lat="50.100171" lon="27.667944" popular_title="" region="Житомирская область" short_title="Мирополь" title="Мирополь" /><station direction="Бердичевское" esr="341643" importance="4" lat="50.153948" lon="27.232395" popular_title="" region="Хмельницкая область" short_title="Хролин" title="Хролин" /><station direction="Жмеринское" esr="337101" importance="4" lat="49.564871" lon="28.715686" popular_title="" region="Винницкая область" short_title="Голендры" title="Голендры" /><station direction="Жмеринское" esr="337008" importance="4" lat="49.485272" lon="28.590540" popular_title="" region="Винницкая область" short_title="Гулевцы" title="Гулевцы" /><station city="Калиновка" direction="Жмеринское" esr="336880" importance="2" lat="49.461435" lon="28.553333" popular_title="" region="Винницкая область" short_title="Воршица" title="Воршица" /><station city="Калиновка" direction="Жмеринское" esr="336804" importance="1" lat="49.433064" lon="28.529543" popular_title="" region="Винницкая область" short_title="Калиновка-1" title="Калиновка-1" /><station city="Винница" direction="Жмеринское" esr="335801" importance="2" lat="49.239068" lon="28.510994" popular_title="" region="Винницкая область" short_title="Винница" title="Винница" /><station direction="Жмеринское" esr="335820" importance="4" lat="49.281476" lon="28.542488" popular_title="" region="Винницкая область" short_title="Стадница" title="Стадница" /><station city="Полонное" direction="Бердичевское" esr="341709" importance="1" lat="50.139677" lon="27.488877" popular_title="" region="Хмельницкая область" short_title="Полонное" title="Полонное" /><station city="Шепетовка" direction="Бердичевское" esr="340000" importance="1" lat="50.196116" lon="27.068002" popular_title="" region="Хмельницкая область" short_title="Шепетовка" title="Шепетовка" /><station direction="Жмеринское" esr="335708" importance="4" lat="49.150901" lon="28.489565" popular_title="" region="Винницкая область" short_title="Тюшки" title="Тюшки" /><station city="Гнивань" direction="Жмеринское" esr="335604" importance="2" lat="49.105356" lon="28.335622" popular_title="" region="Винницкая область" short_title="Гнивань" title="Гнивань" /><station city="Браилов" direction="Жмеринское" esr="335500" importance="1" lat="49.086378" lon="28.141932" popular_title="" region="Винницкая область" short_title="Браилов" title="Браилов" /><station city="Жмеринка" direction="Жмеринское" esr="330009" importance="2" lat="49.033462" lon="28.112720" popular_title="" region="Винницкая область" short_title="Жмеринка" title="Жмеринка" /><station city="Глуховцы" direction="Бердичевское" esr="342427" importance="1" lat="49.787840" lon="28.733426" popular_title="" region="Винницкая область" short_title="Глуховцы" title="Глуховцы" /><station direction="Жмеринское" esr="337205" importance="4" lat="49.640547" lon="28.785655" popular_title="" region="Винницкая область" short_title="Кордышевка" title="Кордышевка" /><station direction="Жмеринское" esr="337219" importance="4" lat="49.667974" lon="28.815490" popular_title="" region="Винницкая область" short_title="Сигнал" title="Сигнал" /><station direction="Жмеринское" esr="337012" importance="4" lat="49.515519" lon="28.637063" popular_title="" region="Винницкая область" short_title="Черепашинцы" title="Черепашинцы" /><station city="Казатин" direction="Бердичевское" esr="342716" importance="1" lat="49.705985" lon="28.831593" popular_title="" region="Винницкая область" short_title="Казатин-1" title="Казатин-1" /><station city="Киев" direction="Киевское" esr="320312" importance="3" lat="50.436995" lon="30.448361" popular_title="" region="Киев и Киевская область" short_title="Караваевы Дачи" title="Караваевы Дачи" /><station direction="Киевское" esr="321226" importance="4" lat="50.288329" lon="30.305498" popular_title="" region="Киев и Киевская область" short_title="Малютинка" title="Малютинка" /><station direction="Киевское" esr="342735" importance="4" lat="49.765982" lon="28.919419" popular_title="" region="Винницкая область" short_title="Вернигородок" title="Вернигородок" /><station direction="Жмеринское" esr="337116" importance="4" lat="49.599751" lon="28.748282" popular_title="" region="Винницкая область" short_title="Николаевка" title="Николаевка" /><station city="Винница" direction="Жмеринское" esr="335816" importance="4" lat="49.268083" lon="28.531913" popular_title="" region="Винницкая область" short_title="Винница-Грузовая" title="Винница-Грузовая" /><station direction="Жмеринское" esr="335549" importance="4" lat="49.067063" lon="28.109821" popular_title="" region="Винницкая область" short_title="Тартак" title="Тартак" /><station direction="Бердичевское" esr="342434" importance="4" lat="49.773920" lon="28.757640" popular_title="" region="Винницкая область" short_title="Каолиновая" title="Каолиновая" /><station direction="Киевское" esr="321279" importance="4" lat="50.277431" lon="30.310541" popular_title="" region="Киев и Киевская область" short_title="Шляхова" title="Шляхова" /><station city="Житомир" direction="Бердичевское" esr="345606" importance="2" lat="50.268040" lon="28.699170" popular_title="" region="Житомирская область" short_title="Житомир" title="Житомир" /><station direction="Киевское" esr="342746" importance="4" lat="49.790978" lon="28.954696" popular_title="" region="Житомирская область" short_title="Белоселье" title="Белоселье" /><station direction="Бердичевское" esr="340026" importance="4" lat="50.159244" lon="27.200617" popular_title="" region="Хмельницкая область" short_title="Ватутино" title="Ватутино" /><station direction="Жмеринское" esr="335515" importance="4" lat="49.088097" lon="28.233111" popular_title="" region="Винницкая область" short_title="Демидовка" title="Демидовка" /><station direction="Бердичевское" esr="342612" importance="3" lat="49.749075" lon="28.790116" popular_title="" region="Винницкая область" short_title="Зализничное" title="Зализничное" /><station direction="Бердичевское" esr="341817" importance="4" lat="50.084394" lon="27.725294" popular_title="" region="Житомирская область" short_title="Колодяжный" title="Колодяжный" /><station city="Великие Коровинцы" direction="Бердичевское" esr="342203" importance="1" lat="49.982332" lon="28.246266" popular_title="" region="Житомирская область" short_title="Михайленки" title="Михайленки" /><station direction="Жмеринское" esr="335712" importance="4" lat="49.173493" lon="28.517532" popular_title="" region="Винницкая область" short_title="Порпуровский" title="Порпуровский" /><station direction="Жмеринское" esr="335841" importance="4" lat="49.402731" lon="28.532744" popular_title="" region="Винницкая область" short_title="Сальницкий" title="Сальницкий" /><station direction="Жмеринское" esr="335835" importance="4" lat="49.355596" lon="28.544490" popular_title="" region="Винницкая область" short_title="Сосонка" title="Сосонка" /><station direction="Христиновское" esr="339215" importance="4" lat="49.585921" lon="29.255058" popular_title="" region="Винницкая область" short_title="Староустенцы" title="Староустенцы" /><station direction="Киевское" esr="342913" importance="4" lat="49.951277" lon="29.342217" popular_title="" region="Житомирская область" short_title="Харлеевка" title="Харлеевка" /><station direction="Бердичевское" esr="342114" importance="4" lat="50.006445" lon="28.190586" popular_title="" region="Житомирская область" short_title="Вакуленчук" title="Вакуленчук" /><station direction="Бердичевское" esr="341639" importance="4" lat="50.127315" lon="27.410197" popular_title="" region="Хмельницкая область" short_title="Ганусино" title="Ганусино" /><station direction="Христиновское" esr="339319" importance="4" lat="49.674338" lon="29.100025" popular_title="" region="Житомирская область" short_title="Чернячий Хутор" title="Чернячий Хутор" /><station direction="Христиновское" esr="338725" importance="4" lat="49.390869" lon="29.526210" popular_title="" region="Киев и Киевская область" short_title="Друцкая" title="Друцкая" /><station direction="Христиновское" esr="338528" importance="4" lat="49.235231" lon="29.893465" popular_title="" region="Киев и Киевская область" short_title="Горошков" title="Горошков" /><station direction="Христиновское" esr="338513" importance="4" lat="49.223826" lon="29.950051" popular_title="" region="Черкасская область" short_title="Кривчунка" title="Кривчунка" /><station direction="Христиновское" esr="339018" importance="4" lat="49.385399" lon="29.228198" popular_title="" region="Винницкая область" short_title="Плисков" title="Плисков" /><station direction="Жмеринское" esr="335619" importance="4" lat="49.123939" lon="28.444402" popular_title="" region="Винницкая область" short_title="Ярышевка" title="Ярышевка" /><station city="Боярка" direction="Киевское" esr="321245" importance="4" lat="50.342640" lon="30.301640" popular_title="" region="Киев и Киевская область" short_title="Тарасовка" title="Тарасовка" /><station direction="Бердичевское" esr="342218" importance="4" lat="49.959463" lon="28.358091" popular_title="" region="Житомирская область" short_title="Рачки" title="Рачки" /><station direction="Бердичевское" esr="341713" importance="4" lat="50.186572" lon="27.536391" popular_title="" region="Хмельницкая область" short_title="Понинка" title="Понинка" /><station city="Глеваха" direction="Киевское" esr="321211" importance="1" lat="50.255863" lon="30.304760" popular_title="" region="Киев и Киевская область" short_title="Глеваха" title="Глеваха" /><station direction="Жмеринское" esr="335522" importance="4" lat="49.091765" lon="28.275771" popular_title="" region="Винницкая область" short_title="Могилевка" title="Могилевка" /><station direction="Бердичевское" esr="342237" importance="4" lat="49.954863" lon="28.479292" popular_title="" region="Житомирская область" short_title="Мирославка" title="Мирославка" /><station direction="Киевское" esr="343314" importance="4" lat="50.009727" lon="29.833271" popular_title="" region="Киев и Киевская область" short_title="Трилесы" title="Трилесы" /><station direction="Бердичевское" esr="341910" importance="4" lat="50.060008" lon="27.881529" popular_title="" region="Житомирская область" short_title="Гордиевка" title="Гордиевка" /><station direction="Бердичевское" esr="341624" importance="4" lat="50.138234" lon="27.342333" popular_title="" region="Хмельницкая область" short_title="Поляны" title="Поляны" /><station direction="Киевское" esr="343121" importance="4" lat="49.966941" lon="29.621629" popular_title="" region="Житомирская область" short_title="Чернявка" title="Чернявка" /><station direction="Бердичевское" esr="341617" importance="4" lat="50.144737" lon="27.289917" popular_title="" region="Хмельницкая область" short_title="Новичи" title="Новичи" /><station direction="Киевское" esr="321118" importance="4" lat="50.192679" lon="30.132349" popular_title="" region="Киев и Киевская область" short_title="Корчи" title="Корчи" /><station direction="Бердичевское" esr="342010" importance="4" lat="50.028421" lon="28.059462" popular_title="" region="Житомирская область" short_title="Довбище" title="Довбище" /><station direction="Киевское" esr="342812" importance="4" lat="49.892278" lon="29.116509" popular_title="" region="Житомирская область" short_title="Вчерайше" title="Вчерайше" /><station direction="Бердичевское" esr="342241" importance="4" lat="49.940088" lon="28.516386" popular_title="" region="Житомирская область" short_title="Райки" title="Райки" /><station direction="Киевское" esr="321156" importance="4" lat="50.130192" lon="30.007552" popular_title="" region="Киев и Киевская область" short_title="Сорочий Брод" title="Сорочий Брод" /><station direction="Христиновское" esr="339516" importance="4" lat="49.733911" lon="28.891020" popular_title="" region="Винницкая область" short_title="Плановый" title="Плановый" /><station direction="Киевское" esr="321137" importance="4" lat="50.165989" lon="30.058228" popular_title="" region="Киев и Киевская область" short_title="Пивни" title="Пивни" /><station direction="Киевское" esr="321122" importance="4" lat="50.176634" lon="30.092672" popular_title="" region="Киев и Киевская область" short_title="Белки" title="Белки" /><station direction="Бердичевское" esr="341728" importance="4" lat="50.106990" lon="27.590210" popular_title="" region="Хмельницкая область" short_title="Блыдни" title="Блыдни" /><station direction="Киевское" esr="321141" importance="4" lat="50.147293" lon="30.027817" popular_title="" region="Киев и Киевская область" short_title="Вишняки" title="Вишняки" /><station direction="Киевское" esr="343117" importance="4" lat="49.956309" lon="29.547591" popular_title="" region="Житомирская область" short_title="Саверцы" title="Саверцы" /><station direction="Бердичевское" esr="345517" importance="4" lat="50.229129" lon="28.742271" popular_title="" region="Житомирская область" short_title="Быстра" title="Быстра" /><station direction="Христиновское" esr="338744" importance="4" lat="49.423472" lon="29.357147" popular_title="" region="Винницкая область" short_title="Роскопане" title="Роскопане" /><station direction="Киевское" esr="343579" importance="4" lat="50.105962" lon="29.975839" popular_title="" region="Киев и Киевская область" short_title="Снетинка" title="Снетинка" /><station direction="Христиновское" esr="339323" importance="4" lat="49.692535" lon="29.076937" popular_title="" region="Житомирская область" short_title="Дергановка" title="Дергановка" /><station direction="Христиновское" esr="420811" importance="4" lat="49.067369" lon="29.601620" popular_title="" region="Винницкая область" short_title="132 км" title="132 км" /><station city="Христиновка" direction="Христиновское" esr="421104" importance="1" lat="48.815515" lon="29.971222" popular_title="" region="Черкасская область" short_title="Христиновка" title="Христиновка" /><station direction="Христиновское" esr="420900" importance="4" lat="49.005372" lon="29.715111" popular_title="" region="Черкасская область" short_title="Монастырище" title="Монастырище" /><station direction="Христиновское" esr="420826" importance="4" lat="49.091489" lon="29.553705" popular_title="" region="Винницкая область" short_title="Фронтовка" title="Фронтовка" /><station direction="Христиновское" esr="420506" importance="4" lat="49.175125" lon="29.391634" popular_title="" region="Винницкая область" short_title="Оратов" title="Оратов" /><station direction="Христиновское" esr="420402" importance="4" lat="49.244708" lon="29.228731" popular_title="" region="Винницкая область" short_title="Липовец" title="Липовец" /><station direction="Христиновское" esr="420915" importance="4" lat="48.899473" lon="29.828601" popular_title="" region="Черкасская область" short_title="Севастьяновка" title="Севастьяновка" /><station direction="Христиновское" esr="420920" importance="4" lat="48.832955" lon="29.894933" popular_title="" region="Черкасская область" short_title="Шукаево" title="Шукаево" /><station direction="Христиновское" esr="002112" importance="4" lat="49.302114" lon="29.206712" popular_title="" region="Винницкая область" short_title="Богдановка" title="Богдановка" /><station direction="Христиновское" esr="002111" importance="4" lat="49.334915" lon="29.172332" popular_title="" region="Винницкая область" short_title="84 км" title="84 км" /><station direction="Христиновское" esr="002110" importance="4" lat="49.715355" lon="28.966390" popular_title="" region="Винницкая область" short_title="Садовый" title="Садовый" /><station direction="Киевское" esr="002320" importance="4" lat="50.245418" lon="30.276834" popular_title="" region="Киев и Киевская область" short_title="888 км" title="888 км" /><station direction="Жмеринское" esr="002352" importance="4" lat="49.134546" lon="28.477197" popular_title="" region="Винницкая область" short_title="Веселка" title="Веселка" /><station direction="Жмеринское" esr="335623" importance="4" lat="49.118181" lon="28.391675" popular_title="" region="Винницкая область" short_title="Селищанский" title="Селищанский" /><station direction="Жмеринское" esr="335534" importance="4" lat="49.087024" lon="28.196458" popular_title="" region="Винницкая область" short_title="Козачевка" title="Козачевка" /><station direction="Христиновское" esr="338759" importance="4" lat="49.428603" lon="29.402633" popular_title="" region="Винницкая область" short_title="Дзюньков" title="Дзюньков" /><station direction="Христиновское" esr="002322" importance="4" lat="49.256057" lon="29.831901" popular_title="" region="Киев и Киевская область" short_title="Высокое" title="Высокое" /></suburban_zone>