<?xml version='1.0' encoding='UTF-8'?>
<suburban_zone id="6"><station direction="Балтийское" esr="103103" importance="4" lat="54.740329" lon="20.189402" popular_title="" region="Калининградская область" short_title="Шиповка" title="Шиповка" /><station direction="Мамоновское" esr="100054" importance="4" lat="54.615679" lon="20.409714" popular_title="" region="Калининградская область" short_title="Голубево" title="Голубево" /><station direction="Мамоновское" esr="100069" importance="4" lat="54.579000" lon="20.356597" popular_title="" region="Калининградская область" short_title="Светлое" title="Светлое" /><station direction="Мамоновское" esr="100020" importance="3" lat="54.681092" lon="20.467925" popular_title="" region="Калининградская область" short_title="Киевская" title="Киевская" /><station direction="Багратионовское" esr="102401" importance="4" lat="54.586102" lon="20.562194" popular_title="" region="Калининградская область" short_title="Владимиров" title="Владимиров" /><station city="Зеленоградск" direction="Зеленоградское" esr="104002" importance="2" lat="54.959475" lon="20.471294" popular_title="" region="Калининградская область" short_title="Зеленоградск-новый" title="Зеленоградск-новый" /><station city="Пионерский" direction="Зеленоградское" esr="103809" importance="2" lat="54.948799" lon="20.224410" popular_title="" region="Калининградская область" short_title="Пионерский Курорт" title="Пионерский Курорт" /><station direction="Зеленоградское" esr="104252" importance="4" lat="54.799957" lon="20.518294" popular_title="" region="Калининградская область" short_title="7 км" title="7 км" /><station direction="Светлогорское" esr="103654" importance="4" lat="54.779042" lon="20.353408" popular_title="" region="Калининградская область" short_title="Дружное" title="Дружное" /><station direction="Мамоновское" esr="100073" importance="4" lat="54.566224" lon="20.328569" popular_title="" region="Калининградская область" short_title="1305 км" title="1305 км" /><station direction="Мамоновское" esr="102647" importance="4" lat="54.570040" lon="20.225515" popular_title="" region="Калининградская область" short_title="1312 км" title="1312 км" /><station direction="Зеленоградское" esr="104040" importance="4" lat="54.930010" lon="20.323593" popular_title="" region="Калининградская область" short_title="Куликово" title="Куликово" /><station city="Сокольники" direction="Зеленоградское" esr="104021" importance="2" lat="54.939284" lon="20.398566" popular_title="" region="Калининградская область" short_title="Сокольники-2" title="Сокольники-2" /><station direction="Светлогорское" esr="103705" importance="4" lat="54.841314" lon="20.250389" popular_title="" region="Калининградская область" short_title="Переславское" title="Переславское" /><station city="Светлогорск" direction="Зеленоградское" esr="103813" importance="2" lat="54.932529" lon="20.157809" popular_title="" region="Калининградская область" short_title="Светлогорск-1" title="Светлогорск-1" /><station direction="Советское" esr="104356" importance="4" lat="54.813853" lon="20.866939" popular_title="" region="Калининградская область" short_title="Добрино" title="Добрино" /><station city="Калининград" direction="Советское" esr="104303" importance="3" lat="54.748400" lon="20.534975" popular_title="" region="Калининградская область" short_title="Кутузово-Новое" title="Кутузово-Новое" /><station direction="Багратионовское" esr="102223" importance="4" lat="54.506177" lon="20.582640" popular_title="" region="Калининградская область" short_title="Стрельня" title="Стрельня" /><station direction="Черняховское" esr="100815" importance="4" lat="54.614735" lon="21.650530" popular_title="" region="Калининградская область" short_title="Пастухово" title="Пастухово" /><station direction="Черняховское" esr="102100" importance="4" lat="54.653219" lon="20.619633" popular_title="" region="Калининградская область" short_title="Луговое-новое" title="Луговое-новое" /><station direction="Черняховское" esr="100730" importance="4" lat="54.587777" lon="22.011374" popular_title="" region="Калининградская область" short_title="Веселовка" title="Веселовка" /><station city="Калининград" direction="Черняховское" esr="102120" importance="4" lat="54.672971" lon="20.570171" popular_title="" region="Калининградская область" short_title="Айвазовская" title="Айвазовская" /><station direction="Черняховское" esr="100514" importance="3" lat="54.606382" lon="22.399833" popular_title="" region="Калининградская область" short_title="Дивное-новое" title="Дивное-новое" /><station direction="Черняховское" esr="100820" importance="4" lat="54.619375" lon="21.544260" popular_title="" region="Калининградская область" short_title="Междуречье" title="Междуречье" /><station direction="Черняховское" esr="100834" importance="4" lat="54.622065" lon="21.377523" popular_title="" region="Калининградская область" short_title="Пушкарево" title="Пушкарево" /><station city="Знаменск" direction="Черняховское" esr="101706" importance="2" lat="54.615157" lon="21.214093" popular_title="" region="Калининградская область" short_title="Знаменск" title="Знаменск" /><station city="Гвардейск" direction="Черняховское" esr="101803" importance="2" lat="54.635735" lon="21.069230" popular_title="" region="Калининградская область" short_title="Гвардейск" title="Гвардейск" /><station direction="Черняховское" esr="101907" importance="4" lat="54.629575" lon="20.895424" popular_title="" region="Калининградская область" short_title="Озерки-Новые" title="Озерки-Новые" /><station direction="Черняховское" esr="101911" importance="4" lat="54.624113" lon="20.756338" popular_title="" region="Калининградская область" short_title="Комсомольск-западный" title="Комсомольск-западный" /><station city="Славск" direction="Советское" esr="104840" importance="2" lat="55.042937" lon="21.659846" popular_title="" region="Калининградская область" short_title="Славск" title="Славск" /><station direction="Советское" esr="104854" importance="4" lat="54.883271" lon="21.642715" popular_title="" region="Калининградская область" short_title="Большаково" title="Большаково" /><station direction="Советское" esr="104873" importance="4" lat="54.845358" lon="21.347160" popular_title="" region="Калининградская область" short_title="Богатово" title="Богатово" /><station city="Черняховск" direction="Черняховское" esr="100800" importance="2" lat="54.628653" lon="21.818138" popular_title="" region="Калининградская область" short_title="Черняховск" title="Черняховск" /><station city="Полесск" direction="Советское" esr="104892" importance="2" lat="54.855253" lon="21.100438" popular_title="" region="Калининградская область" short_title="Полесск" title="Полесск" /><station city="Гурьевск" direction="Советское" esr="104407" importance="2" lat="54.793049" lon="20.629029" popular_title="" region="Калининградская область" short_title="Гурьевск-новый" title="Гурьевск-новый" /><station city="Советск" direction="Советское" esr="104801" importance="2" lat="55.082369" lon="21.879178" popular_title="" region="Калининградская область" short_title="Советск" title="Советск" /><station direction="Багратионовское" esr="102420" importance="4" lat="54.644478" lon="20.539485" popular_title="" region="Калининградская область" short_title="6 км" title="6 км" /><station direction="Багратионовское" esr="102516" importance="4" lat="54.680504" lon="20.523477" popular_title="" region="Калининградская область" short_title="4 км" title="4 км" /><station city="Сокольники" direction="Зеленоградское" esr="104017" importance="2" lat="54.944409" lon="20.417691" popular_title="" region="Калининградская область" short_title="Сокольники-1" title="Сокольники-1" /><station direction="Зеленоградское" esr="104214" importance="4" lat="54.870223" lon="20.492189" popular_title="" region="Калининградская область" short_title="Каштановка" title="Каштановка" /><station direction="Багратионовское" esr="102505" importance="4" lat="54.663453" lon="20.533206" popular_title="" region="Калининградская область" short_title="Дзержинская-новая" title="Дзержинская-новая" /><station direction="Мамоновское" esr="102628" importance="4" lat="54.544404" lon="20.059785" popular_title="" region="Калининградская область" short_title="Приморское-новое" title="Приморское-новое" /><station direction="Багратионовское" esr="102416" importance="4" lat="54.615882" lon="20.550328" popular_title="" region="Калининградская область" short_title="Отважное" title="Отважное" /><station direction="Мамоновское" esr="102613" importance="4" lat="54.556185" lon="20.110971" popular_title="" region="Калининградская область" short_title="Сосновый  Бор" title="Сосновый  Бор" /><station direction="Балтийское" esr="103326" importance="4" lat="54.685792" lon="19.933167" popular_title="" region="Калининградская область" short_title="Мечниково" title="Мечниково" /><station city="Светлогорск" direction="Зеленоградское" esr="103828" importance="1" lat="54.943902" lon="20.144774" popular_title="" region="Калининградская область" short_title="Светлогорск-2" title="Светлогорск-2" /><station direction="Багратионовское" esr="102238" importance="4" lat="54.556227" lon="20.561574" popular_title="" region="Калининградская область" short_title="18 км" title="18 км" /><station direction="Мамоновское" esr="100088" importance="4" lat="54.562330" lon="20.299329" popular_title="" region="Калининградская область" short_title="1307 км" title="1307 км" /><station city="Балтийск" direction="Балтийское" esr="103404" importance="2" lat="54.654745" lon="19.912416" popular_title="" region="Калининградская область" short_title="Балтийск" title="Балтийск" /><station direction="Мамоновское" esr="102632" importance="4" lat="54.510819" lon="20.002544" popular_title="" region="Калининградская область" short_title="Знаменка-новая" title="Знаменка-новая" /><station city="Калининград" direction="Балтийское" esr="102901" importance="4" lat="54.710604" lon="20.457163" popular_title="" region="Калининградская область" short_title="Западный-Новый" title="Западный-Новый" /><station direction="Советское" esr="104869" importance="4" lat="54.845830" lon="21.519277" popular_title="" region="Калининградская область" short_title="Залесье" title="Залесье" /><station direction="Светлогорское" esr="103620" importance="3" lat="54.764843" lon="20.445279" popular_title="" region="Калининградская область" short_title="Чкаловск-Западный" title="Чкаловск-Западный" /><station direction="Балтийское" esr="103014" importance="4" lat="54.735755" lon="20.292206" popular_title="" region="Калининградская область" short_title="Люблино" title="Люблино" /><station direction="Светлогорское" esr="103635" importance="3" lat="54.801883" lon="20.303551" popular_title="" region="Калининградская область" short_title="Колосовка" title="Колосовка" /><station city="Мамоново" direction="Мамоновское" esr="102702" importance="2" lat="54.463592" lon="19.934847" popular_title="" region="Калининградская область" short_title="Мамоново" title="Мамоново" /><station direction="Балтийское" esr="103007" importance="4" lat="54.728243" lon="20.364206" popular_title="" region="Калининградская область" short_title="Лесное-новое" title="Лесное-новое" /><station direction="Зеленоградское" esr="104229" importance="3" lat="54.895362" lon="20.485487" popular_title="" region="Калининградская область" short_title="Муромское" title="Муромское" /><station city="Багратионовск" direction="Багратионовское" esr="102204" importance="2" lat="54.393219" lon="20.647723" popular_title="" region="Калининградская область" short_title="Багратионовск" title="Багратионовск" /><station city="Ладушкин" direction="Мамоновское" esr="102609" importance="2" lat="54.570463" lon="20.175730" popular_title="" region="Калининградская область" short_title="Ладушкин" title="Ладушкин" /><station city="Приморск" direction="Балтийское" esr="103334" importance="2" lat="54.731867" lon="20.003909" popular_title="" region="Калининградская область" short_title="Приморск-новый" title="Приморск-новый" /><station direction="Зеленоградское" esr="104202" importance="4" lat="54.828901" lon="20.505942" popular_title="" region="Калининградская область" short_title="Рябиновка" title="Рябиновка" /><station direction="Светлогорское" esr="103645" importance="4" lat="54.817988" lon="20.279737" popular_title="" region="Калининградская область" short_title="20 км" title="20 км" /><station direction="Советское" esr="104341" importance="4" lat="54.809858" lon="20.761980" popular_title="" region="Калининградская область" short_title="Баевка-1" title="Баевка-1" /><station city="Калининград" direction="Черняховское" esr="100016" importance="1" lat="54.693816" lon="20.500085" popular_title="" region="Калининградская область" short_title="Калининград-Южный" title="Калининград-Южный" /><station city="Калининград" direction="Советское" esr="103616" importance="2" lat="54.721333" lon="20.500561" popular_title="" region="Калининградская область" short_title="Калининград-Северный" title="Калининград-Северный" /><station direction="Зеленоградское" esr="800" importance="3" lat="54.932928" lon="20.488577" popular_title="" region="Калининградская область" short_title="Сосновка" title="Сосновка" /><station direction="Зеленоградское" esr="801" importance="4" lat="54.948799" lon="20.437930" popular_title="" region="Калининградская область" short_title="Малиновка" title="Малиновка" /><station direction="Зеленоградское" esr="802" importance="4" lat="54.928272" lon="20.364260" popular_title="" region="Калининградская область" short_title="Рощино" title="Рощино" /><station direction="Светлогорское" esr="803" importance="4" lat="54.882887" lon="20.239924" popular_title="" region="Калининградская область" short_title="Романово" title="Романово" /><station direction="Советское" esr="104322" importance="4" lat="54.813319" lon="20.794337" popular_title="" region="Калининградская область" short_title="Баевка-2" title="Баевка-2" /><station direction="Советское" esr="104375" importance="4" lat="54.840002" lon="20.976165" popular_title="" region="Калининградская область" short_title="Славянское" title="Славянское" /><station direction="Советское" esr="104888" importance="4" lat="54.843383" lon="21.205873" popular_title="" region="Калининградская область" short_title="Шолохово" title="Шолохово" /><station direction="Советское" esr="814" importance="4" lat="54.840013" lon="21.274037" popular_title="" region="Калининградская область" short_title="Петино" title="Петино" /><station direction="Советское" esr="104820" importance="4" lat="55.077520" lon="21.648365" popular_title="" region="Калининградская область" short_title="Щегловка" title="Щегловка" /><station direction="Советское" esr="104816" importance="4" lat="55.073587" lon="21.730849" popular_title="" region="Калининградская область" short_title="Ржевское" title="Ржевское" /><station direction="Советское" esr="815" importance="4" lat="55.070175" lon="21.816494" popular_title="" region="Калининградская область" short_title="119 км" title="119 км" /><station direction="Мамоновское" esr="804" importance="4" lat="54.595210" lon="20.388712" popular_title="" region="Калининградская область" short_title="1298 км" title="1298 км" /><station direction="Мамоновское" esr="805" importance="4" lat="54.484796" lon="19.956972" popular_title="" region="Калининградская область" short_title="1333 км" title="1333 км" /><station direction="Багратионовское" esr="806" importance="4" lat="54.541783" lon="20.565222" popular_title="" region="Калининградская область" short_title="20 км" title="20 км" /><station direction="Багратионовское" esr="807" importance="4" lat="54.531999" lon="20.568509" popular_title="" region="Калининградская область" short_title="21 км" title="21 км" /><station direction="Балтийское" esr="808" importance="4" lat="54.735043" lon="20.337705" popular_title="" region="Калининградская область" short_title="13 км" title="13 км" /><station direction="Балтийское" esr="809" importance="4" lat="54.734435" lon="20.263253" popular_title="" region="Калининградская область" short_title="18 км" title="18 км" /><station direction="Балтийское" esr="103122" importance="4" lat="54.740142" lon="20.071876" popular_title="" region="Калининградская область" short_title="29 км" title="29 км" /><station direction="Балтийское" esr="810" importance="4" lat="54.737408" lon="20.033976" popular_title="" region="Калининградская область" short_title="33 км" title="33 км" /><station direction="Балтийское" esr="811" importance="4" lat="54.670139" lon="19.922100" popular_title="" region="Калининградская область" short_title="45 км" title="45 км" /><station direction="Черняховское" esr="812" importance="4" lat="54.641284" lon="20.682748" popular_title="" region="Калининградская область" short_title="1271  км" title="1271  км" /><station direction="Черняховское" esr="813" importance="4" lat="54.630232" lon="20.997581" popular_title="" region="Калининградская область" short_title="1252 км" title="1252 км" /><station direction="Светлогорское" esr="816" importance="4" lat="54.739219" lon="20.483802" popular_title="" region="Калининградская область" short_title="Сельма" title="Сельма" /><station city="Гурьевск" direction="Советское" esr="817" importance="4" lat="54.779429" lon="20.584382" popular_title="" region="Калининградская область" short_title="Гурьевск-центральный" title="Гурьевск-центральный" /></suburban_zone>