<?xml version='1.0' encoding='UTF-8'?>
<suburban_zone id="65"><station city="Санкт-Петербург" direction="Лужское" esr="036002" importance="1" lat="59.905977" lon="30.299066" popular_title="Балтийский вокзал" region="Санкт-Петербург и Ленинградская область" short_title="СПб-Балт." title="Санкт-Петербург (Балтийский вокзал)" /><station direction="Дновское" esr="057757" importance="4" lat="57.811142" lon="29.822894" popular_title="" region="Псковская область" short_title="Шиленка" title="Шиленка" /><station direction="Дновское" esr="057738" importance="4" lat="57.803972" lon="29.737882" popular_title="" region="Псковская область" short_title="Роща" title="Роща" /><station direction="Дновское" esr="057626" importance="4" lat="57.741614" lon="29.361679" popular_title="" region="Псковская область" short_title="Сосынье" title="Сосынье" /><station direction="Дновское" esr="057615" importance="4" lat="57.728776" lon="29.258957" popular_title="" region="Псковская область" short_title="Лунёво" title="Лунёво" /><station direction="Дновское" esr="057600" importance="4" lat="57.728240" lon="29.161376" popular_title="" region="Псковская область" short_title="Подсевы" title="Подсевы" /><station direction="Дновское" esr="070087" importance="4" lat="57.746524" lon="28.956697" popular_title="" region="Псковская область" short_title="Вешки" title="Вешки" /><station direction="Дновское" esr="070037" importance="4" lat="57.773375" lon="28.546249" popular_title="" region="Псковская область" short_title="Кеб" title="Кеб" /><station direction="Дновское" esr="070003" importance="4" lat="57.804085" lon="28.417287" popular_title="" region="Псковская область" short_title="Бёрезки" title="Бёрезки" /><station city="Псков" direction="Печорское" esr="071006" importance="4" lat="57.788237" lon="28.300444" popular_title="" region="Псковская область" short_title="Полковая" title="Полковая" /><station direction="Печорское" esr="070910" importance="4" lat="57.782972" lon="28.165157" popular_title="" region="Псковская область" short_title="Моглино" title="Моглино" /><station direction="Печорское" esr="070802" importance="4" lat="57.774687" lon="27.966956" popular_title="" region="Псковская область" short_title="Новоизборск" title="Новоизборск" /><station direction="Пыталовское" esr="070287" importance="4" lat="57.487209" lon="28.333785" popular_title="" region="Псковская область" short_title="Дуловская" title="Дуловская" /><station direction="Пыталовское" esr="070319" importance="4" lat="57.652961" lon="28.311979" popular_title="" region="Псковская область" short_title="Стремутка" title="Стремутка" /><station direction="Пыталовское" esr="070408" importance="4" lat="57.748420" lon="28.371070" popular_title="" region="Псковская область" short_title="Черёха" title="Черёха" /><station city="Псков" direction="Лужское" esr="070615" importance="4" lat="57.816911" lon="28.403255" popular_title="" region="Псковская область" short_title="Любятово" title="Любятово" /><station direction="Лужское" esr="070624" importance="4" lat="57.867079" lon="28.481312" popular_title="" region="Псковская область" short_title="Черняковицы" title="Черняковицы" /><station direction="Лужское" esr="071307" importance="4" lat="58.181148" lon="28.988486" popular_title="" region="Псковская область" short_title="Лапино" title="Лапино" /><station direction="Пыталовское" esr="077924" importance="4" lat="56.900583" lon="27.734094" popular_title="" region="Псковская область" short_title="Скангали" title="Скангали" /><station direction="Печорское" esr="070728" importance="4" lat="57.798109" lon="27.783081" popular_title="" region="Псковская область" short_title="Ливамяэ" title="Ливамяэ" /><station city="Псков" direction="Пыталовское" esr="070605" importance="1" lat="57.804254" lon="28.362297" popular_title="" region="Псковская область" short_title="Псков-1" title="Псков-1" /><station city="Порхов" direction="Дновское" esr="057704" importance="2" lat="57.766102" lon="29.530214" popular_title="" region="Псковская область" short_title="Порхов" title="Порхов" /><station direction="Дновское" esr="070056" importance="4" lat="57.760159" lon="28.760686" popular_title="" region="Псковская область" short_title="Карамышево" title="Карамышево" /><station city="Печоры" direction="Печорское" esr="070709" importance="2" lat="57.838120" lon="27.631906" popular_title="" region="Псковская область" short_title="Печоры-Псковские" title="Печоры-Псковские" /><station direction="Пыталовское" esr="070249" importance="4" lat="57.154287" lon="28.071855" popular_title="" region="Псковская область" short_title="Ритупе" title="Ритупе" /><station direction="Пыталовское" esr="070215" importance="4" lat="57.261130" lon="28.214304" popular_title="" region="Псковская область" short_title="Брянчаниново" title="Брянчаниново" /><station direction="Пыталовское" esr="070304" importance="4" lat="57.584095" lon="28.312842" popular_title="" region="Псковская область" short_title="Черская" title="Черская" /><station direction="Лужское" esr="071106" importance="4" lat="57.934387" lon="28.594684" popular_title="" region="Псковская область" short_title="Торошино" title="Торошино" /><station direction="Лужское" esr="071129" importance="4" lat="58.028033" lon="28.735238" popular_title="" region="Псковская область" short_title="Молоди" title="Молоди" /><station direction="Лужское" esr="071203" importance="4" lat="58.111805" lon="28.875379" popular_title="" region="Псковская область" short_title="Новоселье" title="Новоселье" /><station direction="Лужское" esr="071400" importance="4" lat="58.227001" lon="29.054691" popular_title="" region="Псковская область" short_title="Владимирский Лагерь" title="Владимирский Лагерь" /><station city="Струги-Красные" direction="Лужское" esr="071504" importance="1" lat="58.266478" lon="29.111646" popular_title="" region="Псковская область" short_title="Струги Красные" title="Струги Красные" /><station city="Плюсса" direction="Лужское" esr="071608" importance="2" lat="58.422788" lon="29.362222" popular_title="" region="Псковская область" short_title="Плюсса" title="Плюсса" /><station direction="Лужское" esr="071701" importance="4" lat="58.507619" lon="29.478253" popular_title="" region="Псковская область" short_title="Лямцево" title="Лямцево" /><station direction="Лужское" esr="071805" importance="4" lat="58.583381" lon="29.611361" popular_title="" region="Санкт-Петербург и Ленинградская область" short_title="Серебрянка" title="Серебрянка" /><station city="Дно" direction="Дновское" esr="056701" importance="1" lat="57.824161" lon="29.961269" popular_title="" region="Псковская область" short_title="Дно" title="Дно" /><station city="Луга" direction="Лужское" esr="072009" importance="1" lat="58.740562" lon="29.845119" popular_title="" region="Санкт-Петербург и Ленинградская область" short_title="Луга-1" title="Луга-1" /><station city="Гатчина" direction="Лужское" esr="034026" importance="1" lat="59.552423" lon="30.133075" popular_title="" region="Санкт-Петербург и Ленинградская область" short_title="Гатчина-Варш" title="Гатчина-Варшавская" /><station direction="Пыталовское" esr="070272" importance="4" lat="57.242751" lon="28.197263" popular_title="" region="Псковская область" short_title="345 км" title="345 км" /><station direction="Печорское" esr="070821" importance="4" lat="57.779155" lon="28.079185" popular_title="" region="Псковская область" short_title="18 км" title="18 км" /><station direction="Дновское" esr="057742" importance="4" lat="57.813041" lon="29.846359" popular_title="" region="Псковская область" short_title="562 км" title="562 км" /><station direction="Дновское" esr="057723" importance="4" lat="57.792654" lon="29.632272" popular_title="" region="Псковская область" short_title="Льносовхоз" title="Льносовхоз" /><station direction="Дновское" esr="057719" importance="4" lat="57.774369" lon="29.564248" popular_title="" region="Псковская область" short_title="580 км" title="580 км" /><station direction="Печорское" esr="070732" importance="4" lat="57.790030" lon="27.865274" popular_title="" region="Псковская область" short_title="Вилье" title="Вилье" /><station direction="Печорское" esr="070713" importance="4" lat="57.826678" lon="27.690958" popular_title="" region="Псковская область" short_title="Пуравица" title="Пуравица" /><station direction="Лужское" esr="071114" importance="4" lat="57.989786" lon="28.671342" popular_title="" region="Псковская область" short_title="246 км" title="246 км" /><station direction="Лужское" esr="071824" importance="4" lat="58.689678" lon="29.782069" popular_title="" region="Санкт-Петербург и Ленинградская область" short_title="144 км" title="144 км" /><station direction="Лужское" esr="071133" importance="4" lat="58.063037" lon="28.794770" popular_title="" region="Псковская область" short_title="233 км" title="233 км" /><station direction="Пыталовское" esr="070234" importance="4" lat="57.218609" lon="28.133013" popular_title="" region="Псковская область" short_title="Гольцево (349 км)" title="Гольцево (349 км)" /><station direction="Пыталовское" esr="070253" importance="4" lat="57.104481" lon="28.024961" popular_title="" region="Псковская область" short_title="Пираги (358 км)" title="Пираги (358 км)" /><station direction="Лужское" esr="070643" importance="4" lat="57.896568" lon="28.533016" popular_title="" region="Псковская область" short_title="259 км" title="259 км" /><station direction="Дновское" esr="057649" importance="4" lat="57.744814" lon="29.047819" popular_title="" region="Псковская область" short_title="612 км" title="612 км" /><station direction="Лужское" esr="071810" importance="4" lat="58.641581" lon="29.693133" popular_title="" region="Санкт-Петербург и Ленинградская область" short_title="Калгановка" title="Калгановка" /><station direction="Дновское" esr="070075" importance="4" lat="57.751059" lon="28.872387" popular_title="" region="Псковская область" short_title="623 км" title="623 км" /><station direction="Лужское" esr="071519" importance="4" lat="58.332556" lon="29.209138" popular_title="" region="Псковская область" short_title="197 км" title="197 км" /><station direction="Дновское" esr="057634" importance="4" lat="57.748467" lon="29.413459" popular_title="" region="Псковская область" short_title="Симанцево (590 км)" title="Симанцево (590 км)" /><station direction="Дновское" esr="057761" importance="4" lat="57.817493" lon="29.900565" popular_title="" region="Псковская область" short_title="559 км" title="559 км" /><station direction="Дновское" esr="070041" importance="4" lat="57.766110" lon="28.635035" popular_title="" region="Псковская область" short_title="637 км" title="637 км" /><station direction="Дновское" esr="070022" importance="4" lat="57.783990" lon="28.525553" popular_title="" region="Псковская область" short_title="644 км" title="644 км" /><station direction="Лужское" esr="070639" importance="4" lat="57.873529" lon="28.492495" popular_title="" region="Псковская область" short_title="262 км" title="262 км" /><station direction="Дновское" esr="070094" importance="4" lat="57.766018" lon="28.609279" popular_title="" region="Псковская область" short_title="Гудок (639 км)" title="Гудок (639 км)" /><station direction="Лужское" esr="617" importance="4" lat="58.665767" lon="29.746596" popular_title="" region="Санкт-Петербург и Ленинградская область" short_title="147 км" title="147 км" /><station direction="Лужское" esr="071627" importance="4" lat="58.534403" lon="29.526548" popular_title="" region="Псковская область" short_title="167 км" title="167 км" /><station direction="Лужское" esr="071612" importance="4" lat="58.463707" lon="29.414896" popular_title="" region="Псковская область" short_title="177 км" title="177 км" /><station city="Псков" direction="Пыталовское" esr="070412" importance="4" lat="57.782301" lon="28.362531" popular_title="" region="Псковская область" short_title="Псков-Туристский" title="Псков-Туристский" /><station direction="Пыталовское" esr="070342" importance="4" lat="57.684778" lon="28.320110" popular_title="" region="Псковская область" short_title="287 км" title="287 км" /><station direction="Пыталовское" esr="003100" importance="4" lat="57.624846" lon="28.316299" popular_title="" region="Псковская область" short_title="294 км" title="294 км" /><station direction="Пыталовское" esr="003101" importance="4" lat="57.555354" lon="28.313782" popular_title="" region="Псковская область" short_title="303 км" title="303 км" /><station direction="Пыталовское" esr="003102" importance="4" lat="57.505115" lon="28.328969" popular_title="" region="Псковская область" short_title="308 км" title="308 км" /><station direction="Пыталовское" esr="003103" importance="4" lat="57.309475" lon="28.281959" popular_title="" region="Псковская область" short_title="332 км" title="332 км" /><station direction="Пыталовское" esr="003104" importance="4" lat="57.023343" lon="27.803517" popular_title="" region="Псковская область" short_title="Белкино" title="Белкино" /><station direction="Дновское" esr="003106" importance="4" lat="57.820244" lon="29.929070" popular_title="" region="Псковская область" short_title="558 км" title="558 км" /><station direction="Дновское" esr="070060" importance="4" lat="57.754185" lon="28.814502" popular_title="" region="Псковская область" short_title="626 км" title="626 км" /><station direction="Дновское" esr="003107" importance="4" lat="57.797115" lon="28.458303" popular_title="" region="Псковская область" short_title="648 км" title="648 км" /></suburban_zone>