<?xml version='1.0' encoding='UTF-8'?>
<suburban_zone id="69"><station direction="Кемское" esr="013829" importance="4" lat="66.197814" lon="32.900831" popular_title="" region="Республика Карелия" short_title="Кереть" title="Кереть" /><station direction="Кемское" esr="014319" importance="4" lat="66.308352" lon="32.924519" popular_title="" region="Республика Карелия" short_title="Катозеро" title="Катозеро" /><station direction="Кемское" esr="014431" importance="4" lat="66.921530" lon="32.208715" popular_title="" region="Мурманская область" short_title="Жемчужная" title="Жемчужная" /><station direction="Кемское" esr="014450" importance="4" lat="67.005597" lon="32.191335" popular_title="" region="Мурманская область" short_title="Ручьи-Карельские" title="Ручьи-Карельские" /><station direction="Кемское" esr="014802" importance="4" lat="67.079754" lon="32.263794" popular_title="" region="Мурманская область" short_title="Белое Море" title="Белое Море" /><station direction="Мурманское" esr="015102" importance="3" lat="67.316868" lon="32.499646" popular_title="" region="Мурманская область" short_title="Пинозеро" title="Пинозеро" /><station direction="Мурманское" esr="015133" importance="4" lat="67.492886" lon="31.900132" popular_title="" region="Мурманская область" short_title="Уполокша" title="Уполокша" /><station direction="Мурманское" esr="015203" importance="4" lat="67.580928" lon="31.142195" popular_title="" region="Мурманская область" short_title="Ёна" title="Ёна" /><station direction="Мурманское" esr="015326" importance="4" lat="67.488310" lon="30.837911" popular_title="" region="Мурманская область" short_title="Куропта" title="Куропта" /><station city="Ковдор" direction="Мурманское" esr="015400" importance="2" lat="67.549642" lon="30.470176" popular_title="" region="Мурманская область" short_title="Ковдор" title="Ковдор" /><station city="Полярные Зори" direction="Мурманское" esr="015504" importance="2" lat="67.374047" lon="32.487860" popular_title="" region="Мурманская область" short_title="Полярные Зори" title="Полярные Зори" /><station direction="Мурманское" esr="015612" importance="4" lat="67.430879" lon="32.998799" popular_title="" region="Мурманская область" short_title="Хабозеро" title="Хабозеро" /><station direction="Мурманское" esr="015627" importance="4" lat="67.457847" lon="33.185231" popular_title="" region="Мурманская область" short_title="Питкуль" title="Питкуль" /><station direction="Кемское" esr="014821" importance="4" lat="67.146939" lon="32.273957" popular_title="" region="Мурманская область" short_title="Проливы" title="Проливы" /><station city="Лоухи" direction="Кемское" esr="013801" importance="1" lat="66.075391" lon="33.060868" popular_title="" region="Республика Карелия" short_title="Лоухи" title="Лоухи" /><station direction="Кемское" esr="014304" importance="4" lat="66.266083" lon="32.965242" popular_title="" region="Республика Карелия" short_title="Чупа" title="Чупа" /><station direction="Кемское" esr="014338" importance="4" lat="66.436064" lon="32.850707" popular_title="" region="Республика Карелия" short_title="Полярный Круг" title="Полярный Круг" /><station direction="Кемское" esr="014357" importance="4" lat="66.588145" lon="32.811478" popular_title="" region="Мурманская область" short_title="Пояконда" title="Пояконда" /><station direction="Кемское" esr="014376" importance="4" lat="66.713515" lon="32.635013" popular_title="" region="Мурманская область" short_title="Ковда" title="Ковда" /><station direction="Кемское" esr="014408" importance="4" lat="66.820158" lon="32.354505" popular_title="" region="Мурманская область" short_title="Княжая" title="Княжая" /><station city="Кандалакша" direction="Кемское" esr="014906" importance="2" lat="67.159907" lon="32.418025" popular_title="" region="Мурманская область" short_title="Кандалакша" title="Кандалакша" /><station direction="Мурманское" esr="015608" importance="4" lat="67.442338" lon="32.779156" popular_title="" region="Мурманская область" short_title="Африканда" title="Африканда" /><station city="Апатиты" direction="Мурманское" esr="015631" importance="2" lat="67.564017" lon="33.370801" popular_title="" region="Мурманская область" short_title="Апатиты-1" title="Апатиты-1" /><station direction="Мурманское" esr="015114" importance="4" lat="67.348300" lon="32.291021" popular_title="" region="Мурманская область" short_title="Червас" title="Червас" /><station direction="Мурманское" esr="015129" importance="4" lat="67.413262" lon="32.084457" popular_title="" region="Мурманская область" short_title="19 км (Пасма)" title="19 км (Пасма)" /><station direction="Мурманское" esr="014925" importance="4" lat="67.219468" lon="32.433827" popular_title="" region="Мурманская область" short_title="1180 км" title="1180 км" /><station direction="Мурманское" esr="014910" importance="4" lat="67.187622" lon="32.460602" popular_title="" region="Мурманская область" short_title="1176 км" title="1176 км" /><station direction="Мурманское" esr="015152" importance="4" lat="67.534126" lon="31.557396" popular_title="" region="Мурманская область" short_title="Колюжный" title="Колюжный" /><station direction="Мурманское" esr="014959" importance="4" lat="67.295888" lon="32.466796" popular_title="" region="Мурманская область" short_title="1189 км" title="1189 км" /><station direction="Кемское" esr="014361" importance="4" lat="66.638974" lon="32.748050" popular_title="" region="Мурманская область" short_title="Лесной" title="Лесной" /><station direction="Мурманское" esr="014930" importance="4" lat="67.243204" lon="32.428339" popular_title="" region="Мурманская область" short_title="1182 км (Плесозеро)" title="1182 км (Плесозеро)" /><station direction="Мурманское" esr="003177" importance="4" lat="67.396107" lon="32.606558" popular_title="" region="Мурманская область" short_title="Нива" title="Нива" /><station direction="Кемское" esr="003156" importance="4" lat="66.115787" lon="32.976334" popular_title="" region="Республика Карелия" short_title="1008 км" title="1008 км" /><station direction="Кемское" esr="003157" importance="4" lat="66.225519" lon="32.909539" popular_title="" region="Республика Карелия" short_title="1024 км" title="1024 км" /><station direction="Кемское" esr="003158" importance="4" lat="66.344164" lon="32.873511" popular_title="" region="Республика Карелия" short_title="1044 км" title="1044 км" /><station direction="Кемское" esr="003159" importance="4" lat="66.378890" lon="32.865681" popular_title="" region="Республика Карелия" short_title="Карельский" title="Карельский" /><station direction="Кемское" esr="003160" importance="4" lat="66.464235" lon="32.835038" popular_title="" region="Республика Карелия" short_title="1056 км" title="1056 км" /><station direction="Кемское" esr="003161" importance="4" lat="66.502316" lon="32.856043" popular_title="" region="Республика Карелия" short_title="1064 км" title="1064 км" /><station direction="Кемское" esr="003162" importance="4" lat="66.522767" lon="32.822156" popular_title="" region="Республика Карелия" short_title="1068 км" title="1068 км" /><station direction="Кемское" esr="003163" importance="4" lat="66.528637" lon="32.813291" popular_title="" region="Республика Карелия" short_title="Узкий" title="Узкий" /><station direction="Кемское" esr="003164" importance="4" lat="66.539350" lon="32.798954" popular_title="" region="Республика Карелия" short_title="1071 км" title="1071 км" /><station direction="Кемское" esr="003165" importance="4" lat="66.561700" lon="32.784273" popular_title="" region="Республика Карелия" short_title="1075 км" title="1075 км" /><station direction="Кемское" esr="003166" importance="4" lat="66.672239" lon="32.686339" popular_title="" region="Мурманская область" short_title="1093 км" title="1093 км" /><station direction="Кемское" esr="003167" importance="4" lat="66.725747" lon="32.552475" popular_title="" region="Мурманская область" short_title="1099 км" title="1099 км" /><station direction="Кемское" esr="003168" importance="4" lat="66.749932" lon="32.462729" popular_title="" region="Мурманская область" short_title="Гангос" title="Гангос" /><station direction="Кемское" esr="003169" importance="4" lat="66.772893" lon="32.393580" popular_title="" region="Мурманская область" short_title="1108 км" title="1108 км" /><station direction="Кемское" esr="003170" importance="4" lat="66.797273" lon="32.368487" popular_title="" region="Мурманская область" short_title="1113 км" title="1113 км" /><station direction="Кемское" esr="003171" importance="4" lat="66.843346" lon="32.345575" popular_title="" region="Мурманская область" short_title="1118 км" title="1118 км" /><station direction="Кемское" esr="003172" importance="4" lat="66.874462" lon="32.242298" popular_title="" region="Мурманская область" short_title="1126 км" title="1126 км" /><station direction="Кемское" esr="003173" importance="4" lat="66.896596" lon="32.215859" popular_title="" region="Мурманская область" short_title="1130 км" title="1130 км" /><station direction="Кемское" esr="003174" importance="4" lat="66.951030" lon="32.176852" popular_title="" region="Мурманская область" short_title="1136 км" title="1136 км" /><station direction="Кемское" esr="003175" importance="4" lat="66.972852" lon="32.171425" popular_title="" region="Мурманская область" short_title="1139 км" title="1139 км" /><station direction="Кемское" esr="014817" importance="4" lat="67.109180" lon="32.241188" popular_title="" region="Мурманская область" short_title="1157 км" title="1157 км" /><station direction="Кемское" esr="003176" importance="4" lat="67.165886" lon="32.333736" popular_title="" region="Мурманская область" short_title="1168 км" title="1168 км" /><station direction="Мурманское" esr="003178" importance="4" lat="67.422727" lon="32.650623" popular_title="" region="Мурманская область" short_title="1208 км" title="1208 км" /><station direction="Мурманское" esr="003179" importance="4" lat="67.443112" lon="32.879616" popular_title="" region="Мурманская область" short_title="1222 км" title="1222 км" /><station direction="Мурманское" esr="003180" importance="4" lat="67.487589" lon="33.340991" popular_title="" region="Мурманская область" short_title="1253 км" title="1253 км" /><station direction="Мурманское" esr="003181" importance="4" lat="67.514975" lon="33.372903" popular_title="" region="Мурманская область" short_title="1256 км" title="1256 км" /><station direction="Мурманское" esr="003182" importance="4" lat="67.512220" lon="30.719274" popular_title="" region="Мурманская область" short_title="105 км" title="105 км" /></suburban_zone>