<?xml version='1.0' encoding='UTF-8'?>
<suburban_zone id="73"><station city="Черусти" direction="Московское" esr="233106" importance="1" lat="55.542868" lon="40.002700" popular_title="" region="Москва и Московская область" short_title="Черусти" title="Черусти" /><station city="Нижний Новгород" direction="Арзамасское" esr="260200" importance="1" lat="56.321864" lon="43.944632" popular_title="" region="Нижегородская область" short_title="Н.Новгород-мск." title="Нижний Новгород (Московский вокзал)" /><station city="Нижний Новгород" direction="Арзамасское" esr="260003" importance="3" lat="56.286279" lon="43.853378" popular_title="" region="Нижегородская область" short_title="Н.Новгород-сорт." title="Нижний Новгород-сортировочный" /><station direction="Арзамасское" esr="268927" importance="3" lat="56.117454" lon="43.835458" popular_title="" region="Нижегородская область" short_title="321 км" title="321 км" /><station direction="Арзамасское" esr="269084" importance="4" lat="55.959835" lon="43.820091" popular_title="" region="Нижегородская область" short_title="302 км" title="302 км" /><station direction="Арзамасское" esr="269073" importance="4" lat="55.824581" lon="43.847890" popular_title="" region="Нижегородская область" short_title="284 км" title="284 км" /><station direction="Московское" esr="242819" importance="4" lat="55.483323" lon="40.474616" popular_title="" region="Владимирская область" short_title="Мильцево" title="Мильцево" /><station direction="Арзамасское" esr="264926" importance="3" lat="56.153309" lon="43.815246" popular_title="" region="Нижегородская область" short_title="Окская" title="Окская" /><station direction="Московское" esr="242720" importance="4" lat="55.524899" lon="40.108288" popular_title="" region="Москва и Московская область" short_title="Струя" title="Струя" /><station direction="Арзамасское" esr="268715" importance="4" lat="55.670757" lon="43.821671" popular_title="" region="Нижегородская область" short_title="Черемас" title="Черемас" /><station city="Ковров" direction="Ковровское" esr="263105" importance="1" lat="56.368735" lon="41.304341" popular_title="" region="Владимирская область" short_title="Ковров-1" title="Ковров-1" /><station city="Ковров" direction="Ковровское" esr="240902" importance="2" lat="56.304968" lon="41.384551" popular_title="" region="Владимирская область" short_title="Ковров-грузовой" title="Ковров-грузовой" /><station direction="Ковровское" esr="240809" importance="4" lat="56.180478" lon="41.474389" popular_title="" region="Владимирская область" short_title="Эсино" title="Эсино" /><station direction="Ковровское" esr="240705" importance="4" lat="56.089021" lon="41.539782" popular_title="" region="Владимирская область" short_title="Восход" title="Восход" /><station direction="Ковровское" esr="240404" importance="4" lat="55.974151" lon="41.620998" popular_title="" region="Владимирская область" short_title="Волосатая" title="Волосатая" /><station city="Красная Горбатка" direction="Ковровское" esr="240300" importance="2" lat="55.890057" lon="41.737040" popular_title="" region="Владимирская область" short_title="Селиваново" title="Селиваново" /><station city="Муром" direction="Московское" esr="240000" importance="1" lat="55.563709" lon="42.016920" popular_title="" region="Владимирская область" short_title="Муром-1" title="Муром-1" /><station direction="Московское" esr="242908" importance="4" lat="55.501719" lon="40.596562" popular_title="" region="Владимирская область" short_title="Нечаевская" title="Нечаевская" /><station direction="Московское" esr="242823" importance="4" lat="55.500467" lon="40.301163" popular_title="" region="Владимирская область" short_title="Ильичёв" title="Ильичёв" /><station direction="Московское" esr="242804" importance="4" lat="55.474642" lon="40.402532" popular_title="" region="Владимирская область" short_title="Торфопродукт" title="Торфопродукт" /><station city="Навашино" direction="Арзамасское" esr="243607" importance="2" lat="55.539428" lon="42.191575" popular_title="" region="Нижегородская область" short_title="Навашино" title="Навашино" /><station direction="Московское" esr="243008" importance="4" lat="55.504174" lon="40.962255" popular_title="" region="Владимирская область" short_title="Заколпье" title="Заколпье" /><station direction="Московское" esr="243012" importance="4" lat="55.507259" lon="41.071228" popular_title="" region="Владимирская область" short_title="Золотковский" title="Золотковский" /><station direction="Московское" esr="243205" importance="4" lat="55.505738" lon="41.216082" popular_title="" region="Владимирская область" short_title="Алфёрово" title="Алфёрово" /><station direction="Московское" esr="243309" importance="4" lat="55.504990" lon="41.323199" popular_title="" region="Владимирская область" short_title="Добрятино" title="Добрятино" /><station direction="Московское" esr="243506" importance="4" lat="55.506348" lon="41.506780" popular_title="" region="Владимирская область" short_title="Бутылицы" title="Бутылицы" /><station direction="Ковровское" esr="240156" importance="4" lat="55.748522" lon="41.766323" popular_title="" region="Владимирская область" short_title="Безлесная" title="Безлесная" /><station direction="Ковровское" esr="240052" importance="4" lat="55.600000" lon="41.995524" popular_title="" region="Владимирская область" short_title="Стройдеталь" title="Стройдеталь" /><station direction="Арзамасское" esr="243629" importance="4" lat="55.536791" lon="42.353187" popular_title="" region="Нижегородская область" short_title="Велетьма" title="Велетьма" /><station city="Арзамас" direction="Арзамасское" esr="244208" importance="1" lat="55.417382" lon="43.851220" popular_title="" region="Нижегородская область" short_title="Арзамас-2" title="Арзамас-2" /><station direction="Арзамасское" esr="243807" importance="4" lat="55.512878" lon="42.815117" popular_title="" region="Нижегородская область" short_title="Тёша" title="Тёша" /><station direction="Арзамасское" esr="243826" importance="4" lat="55.499867" lon="42.981130" popular_title="" region="Нижегородская область" short_title="Венец" title="Венец" /><station city="Мухтолово" direction="Арзамасское" esr="244000" importance="1" lat="55.464056" lon="43.200895" popular_title="" region="Нижегородская область" short_title="Мухтолово" title="Мухтолово" /><station direction="Арзамасское" esr="244021" importance="4" lat="55.478956" lon="43.365705" popular_title="" region="Нижегородская область" short_title="Балахониха" title="Балахониха" /><station direction="Арзамасское" esr="244157" importance="4" lat="55.476104" lon="43.555129" popular_title="" region="Нижегородская область" short_title="Костылиха" title="Костылиха" /><station city="Арзамас" direction="Арзамасское" esr="245605" importance="2" lat="55.409229" lon="43.790169" popular_title="" region="Нижегородская область" short_title="Арзамас-1" title="Арзамас-1" /><station direction="Арзамасское" esr="268611" importance="3" lat="55.446690" lon="43.806047" popular_title="" region="Нижегородская область" short_title="Соловейко" title="Соловейко" /><station direction="Арзамасское" esr="268607" importance="4" lat="55.498775" lon="43.816641" popular_title="" region="Нижегородская область" short_title="Пологовка" title="Пологовка" /><station direction="Арзамасское" esr="268700" importance="4" lat="55.600619" lon="43.791140" popular_title="" region="Нижегородская область" short_title="Серёжа" title="Серёжа" /><station direction="Арзамасское" esr="268804" importance="4" lat="55.728237" lon="43.871487" popular_title="" region="Нижегородская область" short_title="Сечуга" title="Сечуга" /><station direction="Арзамасское" esr="268908" importance="4" lat="55.764462" lon="43.900081" popular_title="" region="Нижегородская область" short_title="Суроватиха" title="Суроватиха" /><station direction="Арзамасское" esr="269065" importance="4" lat="55.862350" lon="43.818434" popular_title="" region="Нижегородская область" short_title="Шониха" title="Шониха" /><station direction="Арзамасское" esr="269027" importance="4" lat="55.973711" lon="43.845171" popular_title="" region="Нижегородская область" short_title="Зимёнки" title="Зимёнки" /><station direction="Арзамасское" esr="269046" importance="4" lat="56.073195" lon="43.837463" popular_title="" region="Нижегородская область" short_title="Чаглово" title="Чаглово" /><station direction="Московское" esr="243563" importance="4" lat="55.549922" lon="41.813720" popular_title="" region="Владимирская область" short_title="Просинское (275 км)" title="Просинское (275 км)" /><station direction="Арзамасское" esr="243722" importance="4" lat="55.518205" lon="42.576946" popular_title="" region="Нижегородская область" short_title="Валтово" title="Валтово" /><station city="Нижний Новгород" direction="Арзамасское" esr="264911" importance="4" lat="56.171580" lon="43.805176" popular_title="" region="Нижегородская область" short_title="Сартаково" title="Сартаково" /><station direction="Арзамасское" esr="244123" importance="4" lat="55.463449" lon="43.725773" popular_title="" region="Нижегородская область" short_title="Слезавка" title="Слезавка" /><station direction="Арзамасское" esr="243648" importance="4" lat="55.535392" lon="42.522219" popular_title="" region="Нижегородская область" short_title="Родяково" title="Родяково" /><station direction="Московское" esr="243578" importance="4" lat="55.552137" lon="41.887377" popular_title="" region="Владимирская область" short_title="Стригино" title="Стригино" /><station city="Вековка" direction="Московское" esr="241604" importance="2" lat="55.499844" lon="40.803357" popular_title="" region="Владимирская область" short_title="Вековка" title="Вековка" /><station direction="Ковровское" esr="240122" importance="4" lat="55.650122" lon="41.878567" popular_title="" region="Владимирская область" short_title="15 км" title="15 км" /><station direction="Арзамасское" esr="244034" importance="4" lat="55.475099" lon="43.447753" popular_title="" region="Нижегородская область" short_title="Маяк" title="Маяк" /><station direction="Московское" esr="242715" importance="4" lat="55.516278" lon="40.191320" popular_title="" region="Владимирская область" short_title="Тасин" title="Тасин" /><station direction="Московское" esr="243525" importance="4" lat="55.533758" lon="41.632309" popular_title="" region="Владимирская область" short_title="Левино" title="Левино" /><station direction="Арзамасское" esr="240033" importance="4" lat="55.561144" lon="42.130675" popular_title="" region="Нижегородская область" short_title="Приокский" title="Приокский" /><station direction="Ковровское" esr="240828" importance="4" lat="56.242100" lon="41.430026" popular_title="" region="Владимирская область" short_title="92 км" title="92 км" /><station direction="Арзамасское" esr="269031" importance="4" lat="56.020628" lon="43.836510" popular_title="" region="Нижегородская область" short_title="310 км" title="310 км" /><station direction="Арзамасское" esr="269012" importance="4" lat="55.916818" lon="43.777155" popular_title="" region="Нижегородская область" short_title="296 км" title="296 км" /><station direction="Арзамасское" esr="268912" importance="4" lat="55.801839" lon="43.860066" popular_title="" region="Нижегородская область" short_title="281 км" title="281 км" /><station direction="Московское" esr="243559" importance="4" lat="55.549562" lon="41.782918" popular_title="" region="Владимирская область" short_title="Амосово" title="Амосово" /><station direction="Арзамасское" esr="243737" importance="4" lat="55.512830" lon="42.669442" popular_title="" region="Нижегородская область" short_title="Степурино" title="Степурино" /><station direction="Московское" esr="243510" importance="4" lat="55.524507" lon="41.590008" popular_title="" region="Владимирская область" short_title="Зимницы" title="Зимницы" /><station direction="Московское" esr="243582" importance="4" lat="55.562585" lon="41.926274" popular_title="" region="Владимирская область" short_title="Кольдино" title="Кольдино" /><station direction="Ковровское" esr="240160" importance="4" lat="55.771824" lon="41.736557" popular_title="" region="Владимирская область" short_title="Шульгино (32 км)" title="Шульгино (32 км)" /><station city="Нижний Новгород" direction="Арзамасское" esr="264907" importance="3" lat="56.252517" lon="43.798942" popular_title="" region="Нижегородская область" short_title="Петряевка" title="Петряевка" /><station direction="Московское" esr="243313" importance="4" lat="55.503080" lon="41.412910" popular_title="" region="Владимирская область" short_title="Максимовский" title="Максимовский" /><station direction="Ковровское" esr="240118" importance="4" lat="55.631473" lon="41.945750" popular_title="" region="Владимирская область" short_title="10 км" title="10 км" /><station direction="Ковровское" esr="240419" importance="4" lat="56.024317" lon="41.585811" popular_title="" region="Владимирская область" short_title="67 км" title="67 км" /><station direction="Ковровское" esr="240141" importance="4" lat="55.704376" lon="41.797976" popular_title="" region="Владимирская область" short_title="Сусановская" title="Сусановская" /><station direction="Московское" esr="243530" importance="4" lat="55.547036" lon="41.694551" popular_title="" region="Владимирская область" short_title="Кондаково" title="Кондаково" /><station direction="Арзамасское" esr="268626" importance="4" lat="55.527293" lon="43.809522" popular_title="" region="Нижегородская область" short_title="Ломовка" title="Ломовка" /><station direction="Арзамасское" esr="243915" importance="4" lat="55.480575" lon="43.097680" popular_title="" region="Нижегородская область" short_title="Саконы" title="Саконы" /><station city="Муром" direction="Арзамасское" esr="240029" importance="4" lat="55.563631" lon="42.059075" popular_title="" region="Владимирская область" short_title="Городская" title="Городская" /><station direction="Московское" esr="243544" importance="4" lat="55.548734" lon="41.740439" popular_title="" region="Владимирская область" short_title="Папулино" title="Папулино" /><station direction="Арзамасское" esr="244119" importance="4" lat="55.469344" lon="43.651500" popular_title="" region="Нижегородская область" short_title="Шумлейка" title="Шумлейка" /><station direction="Арзамасское" esr="243633" importance="4" lat="55.535402" lon="42.437983" popular_title="" region="Нижегородская область" short_title="Сонино" title="Сонино" /><station direction="Ковровское" esr="240175" importance="4" lat="55.795509" lon="41.731031" popular_title="" region="Владимирская область" short_title="Новлянка (34 км)" title="Новлянка (34 км)" /><station direction="Ковровское" esr="240187" importance="4" lat="55.837941" lon="41.758786" popular_title="" region="Владимирская область" short_title="Высоково" title="Высоково" /><station city="Нижний Новгород" direction="Арзамасское" esr="260022" importance="3" lat="56.278947" lon="43.834658" popular_title="" region="Нижегородская область" short_title="Кондукторская" title="Кондукторская" /><station city="Нижний Новгород" direction="Арзамасское" esr="260037" importance="3" lat="56.295541" lon="43.877401" popular_title="" region="Нижегородская область" short_title="435 км" title="435 км" /><station direction="Ковровское" esr="240813" importance="4" lat="56.216707" lon="41.448350" popular_title="" region="Владимирская область" short_title="89 км" title="89 км" /><station direction="Арзамасское" esr="244049" importance="4" lat="55.475638" lon="43.494863" popular_title="" region="Нижегородская область" short_title="386 км" title="386 км" /><station direction="Ковровское" esr="240715" importance="4" lat="56.149501" lon="41.496965" popular_title="" region="Владимирская область" short_title="81 км" title="81 км" /><station direction="Арзамасское" esr="244015" importance="4" lat="55.465271" lon="43.269152" popular_title="" region="Нижегородская область" short_title="Личадеево" title="Личадеево" /><station city="Арзамас" direction="Арзамасское" esr="244142" importance="3" lat="55.421441" lon="43.823610" popular_title="" region="Нижегородская область" short_title="409 км" title="409 км" /><station direction="Московское" esr="240048" importance="4" lat="55.564428" lon="41.945811" popular_title="" region="Владимирская область" short_title="284 км" title="284 км" /><station direction="Ковровское" esr="240137" importance="4" lat="55.664176" lon="41.850823" popular_title="" region="Владимирская область" short_title="Бурцевская" title="Бурцевская" /><station direction="Московское" esr="243116" importance="4" lat="55.500725" lon="41.152195" popular_title="" region="Владимирская область" short_title="232 км" title="232 км" /><station direction="Арзамасское" esr="243614" importance="4" lat="55.537263" lon="42.282140" popular_title="" region="Нижегородская область" short_title="306 км" title="306 км" /><station direction="Арзамасское" esr="243718" importance="4" lat="55.526881" lon="42.542935" popular_title="" region="Нижегородская область" short_title="324 км" title="324 км" /><station city="Арзамас" direction="Арзамасское" esr="244138" importance="3" lat="55.428420" lon="43.817379" popular_title="" region="Нижегородская область" short_title="408 км" title="408 км" /><station direction="Московское" esr="304" importance="4" lat="55.498029" lon="40.777328" popular_title="" region="Владимирская область" short_title="Депо (Вековка-западная)" title="Депо (Вековка-западная)" /><station city="Ковров" direction="Ковровское" esr="976" importance="4" lat="56.366352" lon="41.350510" popular_title="" region="Владимирская область" short_title="107 км" title="107 км" /><station city="Ковров" direction="Ковровское" esr="977" importance="4" lat="56.325277" lon="41.372671" popular_title="" region="Владимирская область" short_title="102 км" title="102 км" /><station direction="Ковровское" esr="978" importance="4" lat="55.931271" lon="41.646954" popular_title="" region="Владимирская область" short_title="55 км" title="55 км" /><station direction="Арзамасское" esr="973" importance="4" lat="55.456587" lon="43.805519" popular_title="" region="Нижегородская область" short_title="238 км" title="238 км" /><station direction="Арзамасское" esr="001350" importance="4" lat="55.451541" lon="43.764668" popular_title="" region="Нижегородская область" short_title="404 км" title="404 км" /><station direction="Арзамасское" esr="001351" importance="4" lat="55.472864" lon="43.600106" popular_title="" region="Нижегородская область" short_title="393 км" title="393 км" /></suburban_zone>