<?xml version='1.0' encoding='UTF-8'?>
<suburban_zone id="77"><station direction="Казанское" esr="251610" importance="4" lat="56.022617" lon="48.385122" popular_title="" region="Республика Марий Эл" short_title="Яльчевский" title="Яльчевский" /><station city="Казань" direction="Казанское" esr="250124" importance="4" lat="55.805601" lon="48.953276" popular_title="" region="Республика Татарстан" short_title="Новое Аракчино" title="Новое Аракчино" /><station city="Казань" direction="Казанское" esr="250116" importance="4" lat="55.801891" lon="48.970763" popular_title="" region="Республика Татарстан" short_title="Старое Аракчино" title="Старое Аракчино" /><station city="Казань" direction="Казанское" esr="250228" importance="4" lat="55.802775" lon="49.063721" popular_title="" region="Республика Татарстан" short_title="Адмиралтейская Слобода" title="Адмиралтейская Слобода" /><station city="Зеленодольск" direction="Казанское" esr="251201" importance="2" lat="55.842368" lon="48.562601" popular_title="" region="Республика Татарстан" short_title="Зелёный Дол" title="Зелёный Дол" /><station direction="Яранское" esr="252929" importance="4" lat="56.961832" lon="47.705955" popular_title="" region="Республика Марий Эл" short_title="Табашино" title="Табашино" /><station direction="Яранское" esr="252825" importance="4" lat="56.877029" lon="47.650155" popular_title="" region="Республика Марий Эл" short_title="Турша" title="Турша" /><station direction="Яранское" esr="252806" importance="4" lat="56.775842" lon="47.647257" popular_title="" region="Республика Марий Эл" short_title="Нужьялы" title="Нужьялы" /><station city="Йошкар-Ола" direction="Казанское" esr="252401" importance="2" lat="56.621692" lon="47.879443" popular_title="" region="Республика Марий Эл" short_title="Йошкар-Ола" title="Йошкар-Ола" /><station direction="Яранское" esr="252505" importance="4" lat="56.669099" lon="47.662960" popular_title="" region="Республика Марий Эл" short_title="Нолька" title="Нолька" /><station city="Йошкар-Ола" direction="Яранское" esr="252420" importance="4" lat="56.629399" lon="47.801759" popular_title="" region="Республика Марий Эл" short_title="Аксаматово" title="Аксаматово" /><station direction="Казанское" esr="252312" importance="4" lat="56.554251" lon="47.986261" popular_title="" region="Республика Марий Эл" short_title="Куяр" title="Куяр" /><station direction="Казанское" esr="252100" importance="4" lat="56.443065" lon="48.123882" popular_title="" region="Республика Марий Эл" short_title="Сурок" title="Сурок" /><station direction="Казанское" esr="252007" importance="4" lat="56.382113" lon="48.200762" popular_title="" region="Республика Марий Эл" short_title="Кундыш" title="Кундыш" /><station direction="Казанское" esr="251907" importance="4" lat="56.308061" lon="48.248912" popular_title="" region="Республика Марий Эл" short_title="Суслонгер" title="Суслонгер" /><station direction="Казанское" esr="251803" importance="4" lat="56.219300" lon="48.247836" popular_title="" region="Республика Марий Эл" short_title="Шелангер" title="Шелангер" /><station direction="Казанское" esr="251707" importance="4" lat="56.116014" lon="48.351546" popular_title="" region="Республика Марий Эл" short_title="Илеть" title="Илеть" /><station direction="Казанское" esr="251606" importance="4" lat="55.966697" lon="48.416030" popular_title="" region="Республика Марий Эл" short_title="Помары" title="Помары" /><station city="Казань" direction="Казанское" esr="250001" importance="3" lat="55.815849" lon="48.895110" popular_title="" region="Республика Татарстан" short_title="Юдино" title="Юдино" /><station city="Казань" direction="Казанское" esr="250209" importance="4" lat="55.801716" lon="49.007374" popular_title="" region="Республика Татарстан" short_title="Лагерная" title="Лагерная" /><station direction="Яранское" esr="252914" importance="4" lat="56.924046" lon="47.658829" popular_title="" region="Республика Марий Эл" short_title="151 км" title="151 км" /><station direction="Яранское" esr="252810" importance="4" lat="56.813394" lon="47.629657" popular_title="" region="Республика Марий Эл" short_title="137 км" title="137 км" /><station city="Васильево" direction="Казанское" esr="251127" importance="4" lat="55.849990" lon="48.638872" popular_title="" region="Республика Татарстан" short_title="766 км" title="766 км" /><station city="Васильево" direction="Казанское" esr="250069" importance="4" lat="55.842353" lon="48.742256" popular_title="" region="Республика Татарстан" short_title="771 км" title="771 км" /><station direction="Казанское" esr="250054" importance="4" lat="55.832490" lon="48.785114" popular_title="" region="Республика Татарстан" short_title="774 км" title="774 км" /><station city="Васильево" direction="Казанское" esr="251108" importance="1" lat="55.838441" lon="48.707304" popular_title="" region="Республика Татарстан" short_title="Васильево" title="Васильево" /><station city="Красногорский" direction="Казанское" esr="251714" importance="2" lat="56.152422" lon="48.324757" popular_title="" region="Республика Марий Эл" short_title="43 км" title="43 км" /><station direction="Казанское" esr="252219" importance="4" lat="56.511089" lon="48.049426" popular_title="" region="Республика Марий Эл" short_title="Пемба" title="Пемба" /><station city="Яранск" direction="Яранское" esr="253008" importance="2" lat="57.285675" lon="47.840659" popular_title="" region="Кировская область" short_title="Яранск" title="Яранск" /><station direction="Казанское" esr="251112" importance="4" lat="55.842510" lon="48.594218" popular_title="" region="Республика Татарстан" short_title="Атлашкино" title="Атлашкино" /><station direction="Казанское" esr="250040" importance="4" lat="55.828523" lon="48.809783" popular_title="" region="Республика Татарстан" short_title="Обсерватория" title="Обсерватория" /><station city="Казань" direction="Казанское" esr="250035" importance="4" lat="55.825557" lon="48.840393" popular_title="" region="Республика Татарстан" short_title="Займище" title="Займище" /><station direction="Казанское" esr="251216" importance="2" lat="55.874954" lon="48.532694" popular_title="" region="Республика Татарстан" short_title="Гари" title="Гари" /><station direction="Яранское" esr="252524" importance="4" lat="56.750222" lon="47.648772" popular_title="" region="Республика Марий Эл" short_title="131 км" title="131 км" /><station direction="Яранское" esr="252517" importance="4" lat="56.706972" lon="47.649601" popular_title="" region="Республика Марий Эл" short_title="126 км" title="126 км" /><station city="Йошкар-Ола" direction="Яранское" esr="252416" importance="4" lat="56.627825" lon="47.857897" popular_title="" region="Республика Марий Эл" short_title="108 км" title="108 км" /><station city="Казань" direction="Казанское" esr="250020" importance="4" lat="55.822368" lon="48.865040" popular_title="" region="Республика Татарстан" short_title="ВРД" title="ВРД" /><station city="Казань" direction="Казанское" esr="250302" importance="1" lat="55.788801" lon="49.098981" popular_title="" region="Республика Татарстан" short_title="Казань-Пасс." title="Казань-Пасс." /><station city="Казань" direction="Казанское" esr="001359" importance="3" lat="55.815549" lon="48.916998" popular_title="" region="Республика Татарстан" short_title="Юдино (восточный парк)" title="Юдино (восточный парк)" /><station direction="Казанское" esr="001366" importance="4" lat="56.532716" lon="48.011205" popular_title="" region="Республика Марий Эл" short_title="92 км" title="92 км" /><station direction="Яранское" esr="001389" importance="4" lat="57.027243" lon="47.695252" popular_title="" region="Кировская область" short_title="Майский" title="Майский" /><station direction="Яранское" esr="001390" importance="4" lat="57.071845" lon="47.705642" popular_title="" region="Кировская область" short_title="Зобенки" title="Зобенки" /><station direction="Яранское" esr="001391" importance="4" lat="57.247390" lon="47.822078" popular_title="" region="Кировская область" short_title="Знаменка" title="Знаменка" /></suburban_zone>