<?xml version='1.0' encoding='UTF-8'?>
<suburban_zone id="79"><station city="Санкт-Петербург" direction="Чудовское" esr="031812" importance="1" lat="59.928674" lon="30.362465" popular_title="Московский вокзал" region="Санкт-Петербург и Ленинградская область" short_title="СПб-Моск." title="Санкт-Петербург (Московский вокзал)" /><station city="Санкт-Петербург" direction="Новолисинское" esr="033061" importance="1" lat="59.919669" lon="30.329263" popular_title="Витебский вокзал" region="Санкт-Петербург и Ленинградская область" short_title="СПБ-Вит." title="Санкт-Петербург (Витебский вокзал)" /><station city="Санкт-Петербург" direction="Чудовское" esr="030006" importance="3" lat="59.868074" lon="30.423041" popular_title="" region="Санкт-Петербург и Ленинградская область" short_title="Сортировочная" title="Сортировочная" /><station direction="Лужское" esr="040525" importance="4" lat="58.627968" lon="30.429867" popular_title="" region="Новгородская область" short_title="Радом" title="Радом" /><station direction="Новолисинское" esr="040239" importance="4" lat="58.714561" lon="31.154025" popular_title="" region="Новгородская область" short_title="Татино" title="Татино" /><station direction="Новолисинское" esr="040243" importance="4" lat="58.794574" lon="31.126027" popular_title="" region="Новгородская область" short_title="Горенка" title="Горенка" /><station direction="Новолисинское" esr="040900" importance="4" lat="58.948782" lon="31.072810" popular_title="" region="Новгородская область" short_title="Рогавка" title="Рогавка" /><station direction="Новолисинское" esr="040915" importance="4" lat="59.026052" lon="30.963478" popular_title="" region="Новгородская область" short_title="Огорелье" title="Огорелье" /><station direction="Новолисинское" esr="041000" importance="4" lat="59.145513" lon="30.871037" popular_title="" region="Санкт-Петербург и Ленинградская область" short_title="Радофинниково" title="Радофинниково" /><station direction="Новолисинское" esr="041015" importance="4" lat="59.245657" lon="30.793349" popular_title="" region="Санкт-Петербург и Ленинградская область" short_title="Ёглино" title="Ёглино" /><station direction="Новолисинское" esr="041034" importance="4" lat="59.329895" lon="30.727332" popular_title="" region="Санкт-Петербург и Ленинградская область" short_title="Кастенская" title="Кастенская" /><station direction="Новолисинское" esr="041049" importance="4" lat="59.425258" lon="30.648649" popular_title="" region="Санкт-Петербург и Ленинградская область" short_title="Лустовка" title="Лустовка" /><station direction="Чудовское" esr="040703" importance="4" lat="58.703801" lon="31.365256" popular_title="" region="Новгородская область" short_title="Подберезье" title="Подберезье" /><station direction="Чудовское" esr="040652" importance="4" lat="58.816987" lon="31.464502" popular_title="" region="Новгородская область" short_title="Мясной Бор" title="Мясной Бор" /><station direction="Чудовское" esr="040671" importance="4" lat="58.930336" lon="31.506490" popular_title="" region="Новгородская область" short_title="Сп. Полисть" title="Спасская Полисть" /><station direction="Чудовское" esr="040614" importance="4" lat="58.992360" lon="31.541339" popular_title="" region="Новгородская область" short_title="Трегубово" title="Трегубово" /><station direction="Чудовское" esr="042342" importance="4" lat="59.241278" lon="31.457752" popular_title="" region="Санкт-Петербург и Ленинградская область" short_title="Бабино" title="Бабино" /><station direction="Чудовское" esr="042338" importance="4" lat="59.311618" lon="31.325239" popular_title="" region="Санкт-Петербург и Ленинградская область" short_title="Померанье" title="Померанье" /><station direction="Чудовское" esr="042501" importance="4" lat="59.417647" lon="31.124678" popular_title="" region="Санкт-Петербург и Ленинградская область" short_title="Рябово" title="Рябово" /><station direction="Чудовское" esr="031206" importance="3" lat="59.478327" lon="31.008757" popular_title="" region="Санкт-Петербург и Ленинградская область" short_title="Ушаки" title="Ушаки" /><station city="Тосно" direction="Чудовское" esr="031302" importance="2" lat="59.544472" lon="30.881842" popular_title="" region="Санкт-Петербург и Ленинградская область" short_title="Тосно" title="Тосно" /><station direction="Чудовское" esr="031333" importance="3" lat="59.635294" lon="30.757147" popular_title="" region="Санкт-Петербург и Ленинградская область" short_title="Саблино" title="Саблино" /><station direction="Чудовское" esr="031348" importance="3" lat="59.679030" lon="30.702280" popular_title="" region="Санкт-Петербург и Ленинградская область" short_title="Поповка" title="Поповка" /><station city="Санкт-Петербург" direction="Чудовское" esr="031009" importance="3" lat="59.848198" lon="30.455208" popular_title="" region="Санкт-Петербург и Ленинградская область" short_title="Обухово" title="Обухово" /><station city="Санкт-Петербург" direction="Чудовское" esr="031634" importance="4" lat="59.807021" lon="30.512793" popular_title="" region="Санкт-Петербург и Ленинградская область" short_title="Славянка" title="Славянка" /><station city="Колпино" direction="Чудовское" esr="031600" importance="2" lat="59.749671" lon="30.614464" popular_title="" region="Санкт-Петербург и Ленинградская область" short_title="Колпино" title="Колпино" /><station city="Павловск" direction="Новолисинское" esr="032508" importance="2" lat="59.692845" lon="30.431785" popular_title="" region="Санкт-Петербург и Ленинградская область" short_title="Павловск" title="Павловск" /><station city="Пушкин" direction="Новолисинское" esr="032707" importance="2" lat="59.723009" lon="30.429616" popular_title="" region="Санкт-Петербург и Ленинградская область" short_title="Цар.Село" title="Царское Село" /><station direction="Новолисинское" esr="032302" importance="3" lat="59.575096" lon="30.537445" popular_title="" region="Санкт-Петербург и Ленинградская область" short_title="Новолисино" title="Новолисино" /><station city="Великий Новгород" direction="Новолисинское" esr="040101" importance="1" lat="58.527203" lon="31.250484" popular_title="" region="Новгородская область" short_title="Новгород" title="Новгород-Великий" /><station direction="Лужское" esr="058317" importance="4" lat="58.650903" lon="30.204904" popular_title="" region="Новгородская область" short_title="Русыня" title="Русыня" /><station direction="Чудовское" esr="042200" importance="4" lat="59.177600" lon="31.576742" popular_title="" region="Новгородская область" short_title="Торфяное" title="Торфяное" /><station direction="Лужское" esr="058321" importance="4" lat="58.666952" lon="30.012691" popular_title="" region="Санкт-Петербург и Ленинградская область" short_title="Смычково" title="Смычково" /><station direction="Чудовское" esr="042516" importance="4" lat="59.445337" lon="31.071757" popular_title="" region="Санкт-Петербург и Ленинградская область" short_title="Георгиевская" title="Георгиевская" /><station city="Батецкий" direction="Лужское" esr="058302" importance="2" lat="58.646979" lon="30.314796" popular_title="" region="Новгородская область" short_title="Батецкая" title="Батецкая" /><station direction="Лужское" esr="040544" importance="4" lat="58.622358" lon="30.626553" popular_title="" region="Новгородская область" short_title="Мойка" title="Мойка" /><station direction="Лужское" esr="040173" importance="4" lat="58.612465" lon="30.832540" popular_title="" region="Новгородская область" short_title="Люболяды" title="Люболяды" /><station city="Чудово" direction="Чудовское" esr="042003" importance="1" lat="59.122678" lon="31.679335" popular_title="" region="Новгородская область" short_title="Чудово-моск" title="Чудово-московское" /><station city="Любань" direction="Чудовское" esr="042408" importance="2" lat="59.351251" lon="31.250213" popular_title="" region="Санкт-Петербург и Ленинградская область" short_title="Любань" title="Любань" /><station city="Луга" direction="Лужское" esr="072009" importance="1" lat="58.740562" lon="29.845119" popular_title="" region="Санкт-Петербург и Ленинградская область" short_title="Луга-1" title="Луга-1" /><station direction="Новолисинское" esr="032995" importance="4" lat="59.787664" lon="30.397363" popular_title="" region="Санкт-Петербург и Ленинградская область" short_title="Паров. музей" title="Паровозный музей" /><station direction="Лужское" esr="040510" importance="4" lat="58.619540" lon="30.557714" popular_title="" region="Новгородская область" short_title="50 км" title="50 км" /><station direction="Лужское" esr="040531" importance="4" lat="58.621309" lon="30.682950" popular_title="" region="Новгородская область" short_title="58 км" title="58 км" /><station direction="Лужское" esr="040188" importance="4" lat="58.622802" lon="30.751591" popular_title="" region="Новгородская область" short_title="63 км" title="63 км" /><station direction="Лужское" esr="040169" importance="4" lat="58.602093" lon="30.935462" popular_title="" region="Новгородская область" short_title="73 км" title="73 км" /><station direction="Лужское" esr="040146" importance="4" lat="58.587118" lon="31.067691" popular_title="" region="Новгородская область" short_title="82 км" title="82 км" /><station direction="Лужское" esr="040135" importance="4" lat="58.569317" lon="31.178871" popular_title="" region="Новгородская область" short_title="88 км" title="88 км" /><station city="Великий Новгород" direction="Новолисинское" esr="040741" importance="3" lat="58.547876" lon="31.257485" popular_title="" region="Новгородская область" short_title="Новгород-депо" title="Новгород-депо" /><station direction="Новолисинское" esr="032711" importance="4" lat="59.740619" lon="30.420819" popular_title="" region="Санкт-Петербург и Ленинградская область" short_title="Детскосельская (бывш. 21 км)" title="Детскосельская (бывш. 21 км)" /><station direction="Чудовское" esr="040722" importance="4" lat="58.604605" lon="31.292100" popular_title="" region="Новгородская область" short_title="64 км" title="64 км" /><station direction="Новолисинское" esr="041072" importance="4" lat="59.561251" lon="30.546414" popular_title="" region="Санкт-Петербург и Ленинградская область" short_title="46 км" title="46 км" /><station city="Санкт-Петербург" direction="Новолисинское" esr="033023" importance="4" lat="59.829125" lon="30.376813" popular_title="" region="Санкт-Петербург и Ленинградская область" short_title="Купчино" title="Купчино" /><station city="Санкт-Петербург" direction="Новолисинское" esr="033038" importance="4" lat="59.851442" lon="30.365695" popular_title="" region="Санкт-Петербург и Ленинградская область" short_title="Просп. Славы" title="Проспект Славы" /><station city="Санкт-Петербург" direction="Чудовское" esr="031013" importance="3" lat="59.879505" lon="30.407069" popular_title="" region="Санкт-Петербург и Ленинградская область" short_title="Фарфоровская" title="Фарфоровская" /><station city="Тосно" direction="Чудовское" esr="031314" importance="4" lat="59.561528" lon="30.849555" popular_title="" region="Санкт-Петербург и Ленинградская область" short_title="Тосно 2" title="Тосно 2" /><station direction="Новолисинское" esr="040262" importance="4" lat="58.906856" lon="31.087261" popular_title="" region="Новгородская область" short_title="Кересть" title="Кересть" /><station city="Санкт-Петербург" direction="Чудовское" esr="031032" importance="3" lat="59.907834" lon="30.370533" popular_title="" region="Санкт-Петербург и Ленинградская область" short_title="Навалочная" title="Навалочная" /><station direction="Новолисинское" esr="033004" importance="4" lat="59.805162" lon="30.388899" popular_title="" region="Санкт-Петербург и Ленинградская область" short_title="Шушары" title="Шушары" /><station city="Луга" direction="Лужское" esr="072013" importance="2" lat="58.710079" lon="29.833762" popular_title="" region="Санкт-Петербург и Ленинградская область" short_title="Луга-2" title="Луга-2" /><station direction="Чудовское" esr="031615" importance="4" lat="59.761808" lon="30.581183" popular_title="" region="Санкт-Петербург и Ленинградская область" short_title="Ижорский З-д" title="Ижорский Завод" /><station direction="Новолисинское" esr="032365" importance="4" lat="59.636658" lon="30.470645" popular_title="" region="Санкт-Петербург и Ленинградская область" short_title="34 км" title="34 км" /><station direction="Чудовское" esr="042427" importance="4" lat="59.403566" lon="31.151519" popular_title="" region="Санкт-Петербург и Ленинградская область" short_title="Соколов Ручей" title="Соколов Ручей" /><station direction="Чудовское" esr="031621" importance="4" lat="59.788139" lon="30.539185" popular_title="" region="Санкт-Петербург и Ленинградская область" short_title="Металлострой" title="Металлострой" /><station direction="Новолисинское" esr="040737" importance="2" lat="58.564602" lon="31.246096" popular_title="" region="Новгородская область" short_title="Павловская" title="Павловская" /><station city="Санкт-Петербург" direction="Новолисинское" esr="033042" importance="3" lat="59.891607" lon="30.345534" popular_title="" region="Санкт-Петербург и Ленинградская область" short_title="Возд. Парк" title="Воздухоплавательный Парк" /><station direction="Чудовское" esr="042412" importance="4" lat="59.383513" lon="31.189187" popular_title="" region="Санкт-Петербург и Ленинградская область" short_title="Болотницкая" title="Болотницкая" /><station direction="Чудовское" esr="042319" importance="4" lat="59.269894" lon="31.404364" popular_title="" region="Санкт-Петербург и Ленинградская область" short_title="Трубниково" title="Трубниково" /><station direction="Новолисинское" esr="041053" importance="4" lat="59.497911" lon="30.576627" popular_title="" region="Санкт-Петербург и Ленинградская область" short_title="53 км" title="53 км" /><station direction="Новолисинское" esr="040212" importance="4" lat="58.616512" lon="31.210705" popular_title="" region="Новгородская область" short_title="Вяжище" title="Вяжище" /><station direction="Лужское" esr="058336" importance="4" lat="58.686748" lon="29.910458" popular_title="" region="Санкт-Петербург и Ленинградская область" short_title="9 км" title="9 км" /><station city="Чудово" direction="Чудовское" esr="042018" importance="2" lat="59.113206" lon="31.644845" popular_title="" region="Новгородская область" short_title="Чудово-новг" title="Чудово-новгородское" /><station direction="Чудовское" esr="042291" importance="4" lat="59.222815" lon="31.492548" popular_title="" region="Санкт-Петербург и Ленинградская область" short_title="Бабино 2" title="Бабино 2" /><station direction="Новолисинское" esr="032321" importance="4" lat="59.623628" lon="30.487588" popular_title="" region="Санкт-Петербург и Ленинградская область" short_title="36 км" title="36 км" /><station direction="Новолисинское" esr="041022" importance="4" lat="59.300254" lon="30.751589" popular_title="" region="Санкт-Петербург и Ленинградская область" short_title="77 км" title="77 км" /><station city="Великий Новгород" direction="Лужское" esr="040120" importance="2" lat="58.550482" lon="31.238582" popular_title="" region="Новгородская область" short_title="Новгород-Лужский" title="Новгород-Лужский" /><station direction="Чудовское" esr="502" importance="4" lat="58.659038" lon="31.341109" popular_title="" region="Новгородская область" short_title="58 км" title="58 км" /><station direction="Новолисинское" esr="503" importance="3" lat="58.539270" lon="31.255649" popular_title="" region="Новгородская область" short_title="Менделеевская" title="Менделеевская" /><station city="Санкт-Петербург" direction="Новолисинское" esr="523" importance="4" lat="59.906371" lon="30.337837" popular_title="" region="Санкт-Петербург и Ленинградская область" short_title="Боровая" title="Боровая" /><station direction="Новолисинское" esr="532" importance="4" lat="59.079089" lon="30.922482" popular_title="" region="Санкт-Петербург и Ленинградская область" short_title="104 км" title="104 км" /><station direction="Новолисинское" esr="558" importance="4" lat="58.834210" lon="31.112467" popular_title="" region="Новгородская область" short_title="137 км" title="137 км" /><station direction="Новолисинское" esr="557" importance="4" lat="58.889309" lon="31.093494" popular_title="" region="Новгородская область" short_title="128 км" title="128 км" /><station direction="Новолисинское" esr="556" importance="4" lat="58.936688" lon="31.076753" popular_title="" region="Новгородская область" short_title="123 км" title="123 км" /><station direction="Новолисинское" esr="531" importance="4" lat="59.100753" lon="30.905917" popular_title="" region="Санкт-Петербург и Ленинградская область" short_title="101 км" title="101 км" /><station direction="Новолисинское" esr="555" importance="4" lat="59.115976" lon="30.893890" popular_title="" region="Санкт-Петербург и Ленинградская область" short_title="100 км" title="100 км" /><station direction="Новолисинское" esr="554" importance="4" lat="59.518234" lon="30.560434" popular_title="" region="Санкт-Петербург и Ленинградская область" short_title="51 км" title="51 км" /><station direction="Новолисинское" esr="553" importance="4" lat="59.540358" lon="30.554640" popular_title="" region="Санкт-Петербург и Ленинградская область" short_title="48 км" title="48 км" /><station direction="Новолисинское" esr="530" importance="4" lat="59.591298" lon="30.522405" popular_title="" region="Санкт-Петербург и Ленинградская область" short_title="40 км" title="40 км" /><station city="Санкт-Петербург" direction="Чудовское" esr="500" importance="3" lat="59.892917" lon="30.392278" popular_title="" region="Санкт-Петербург и Ленинградская область" short_title="5 км" title="5 км" /><station direction="Лужское" esr="570" importance="4" lat="58.605980" lon="30.896223" popular_title="" region="Новгородская область" short_title="70 км" title="70 км" /><station direction="Лужское" esr="571" importance="4" lat="58.621974" lon="30.711219" popular_title="" region="Новгородская область" short_title="60 км" title="60 км" /><station direction="Лужское" esr="572" importance="4" lat="58.632328" lon="30.398531" popular_title="" region="Новгородская область" short_title="38 км." title="38 км." /><station direction="Лужское" esr="573" importance="4" lat="58.651388" lon="30.160095" popular_title="" region="Новгородская область" short_title="25 км" title="25 км" /><station direction="Лужское" esr="574" importance="4" lat="58.671146" lon="29.956596" popular_title="" region="Санкт-Петербург и Ленинградская область" short_title="14 км" title="14 км" /></suburban_zone>