<?xml version='1.0' encoding='UTF-8'?>
<suburban_zone id="91"><station city="Донецк" direction="Енакиевское" esr="480403" importance="1" lat="48.044112" lon="37.745588" popular_title="" region="Донецкая область" short_title="Донецк" title="Донецк" /><station city="Ясиноватая" direction="Енакиевское" esr="480032" importance="1" lat="48.120890" lon="37.846038" popular_title="" region="Донецкая область" short_title="Ясиноватая-Пасс." title="Ясиноватая-Пасс." /><station city="Лиман" direction="Горловское" esr="490000" importance="2" lat="48.965130" lon="37.827273" popular_title="" region="Донецкая область" short_title="Красный Лиман" title="Красный Лиман" /><station city="Горловка" direction="Горловское" esr="493901" importance="2" lat="48.355792" lon="38.030158" popular_title="" region="Донецкая область" short_title="Никитовка" title="Никитовка" /><station city="Александровск" direction="Луганское" esr="506815" importance="1" lat="48.573103" lon="39.184962" popular_title="" region="Луганская область" short_title="Александровка" title="Александровка" /><station direction="Луганское" esr="506514" importance="4" lat="48.386772" lon="38.577785" popular_title="" region="Луганская область" short_title="14 км" title="14 км" /><station city="Ясиноватая" direction="Енакиевское" esr="480009" importance="3" lat="48.120025" lon="37.872788" popular_title="" region="Донецкая область" short_title="Ясиноватая-Западная" title="Ясиноватая-Западная" /><station city="Дебальцево" direction="Торезское" esr="500221" importance="3" lat="48.352503" lon="38.441875" popular_title="" region="Донецкая область" short_title="Площадка №1" title="Площадка №1" /><station city="Ясиноватая" direction="Енакиевское" esr="480028" importance="3" lat="48.121865" lon="37.861130" popular_title="" region="Донецкая область" short_title="Ясиноватая-горка" title="Ясиноватая-горка" /><station city="Донецк" direction="Енакиевское" esr="480307" importance="3" lat="48.093256" lon="37.786303" popular_title="" region="Донецкая область" short_title="Донецк-Северный" title="Донецк-Северный" /><station city="Славянск" direction="Горловское" esr="492006" importance="2" lat="48.830465" lon="37.560524" popular_title="" region="Донецкая область" short_title="Славянск" title="Славянск" /><station city="Очеретино" direction="Горловское" esr="482708" importance="1" lat="48.240768" lon="37.612121" popular_title="" region="Донецкая область" short_title="Очеретино" title="Очеретино" /><station direction="Горловское" esr="495108" importance="4" lat="48.945656" lon="37.970488" popular_title="" region="Донецкая область" short_title="Ямполь" title="Ямполь" /><station direction="Горловское" esr="495023" importance="4" lat="48.914638" lon="38.046737" popular_title="" region="Донецкая область" short_title="Прилежный" title="Прилежный" /><station city="Северск" direction="Горловское" esr="495004" importance="2" lat="48.869276" lon="38.093508" popular_title="" region="Донецкая область" short_title="Северск" title="Северск" /><station direction="Горловское" esr="494829" importance="4" lat="48.782685" lon="38.084056" popular_title="" region="Донецкая область" short_title="Зовная" title="Зовная" /><station direction="Горловское" esr="494815" importance="4" lat="48.756213" lon="38.071732" popular_title="" region="Донецкая область" short_title="Раздоловка" title="Раздоловка" /><station city="Соледар" direction="Горловское" esr="494800" importance="1" lat="48.716441" lon="38.034826" popular_title="" region="Донецкая область" short_title="Соль" title="Соль" /><station direction="Горловское" esr="494707" importance="4" lat="48.648156" lon="37.991298" popular_title="" region="Донецкая область" short_title="Шевченко" title="Шевченко" /><station direction="Горловское" esr="494618" importance="4" lat="48.619131" lon="37.981705" popular_title="" region="Донецкая область" short_title="Малоильшевская" title="Малоильшевская" /><station direction="Луганское" esr="506001" importance="3" lat="48.554312" lon="39.024599" popular_title="" region="Луганская область" short_title="Родаково" title="Родаково" /><station direction="Горловское" esr="494533" importance="4" lat="48.540075" lon="37.969174" popular_title="" region="Донецкая область" short_title="Клещеевка" title="Клещеевка" /><station city="Курдюмовка" direction="Горловское" esr="494500" importance="1" lat="48.463656" lon="37.959320" popular_title="" region="Донецкая область" short_title="Курдюмовка" title="Курдюмовка" /><station direction="Горловское" esr="494406" importance="4" lat="48.400752" lon="37.962507" popular_title="" region="Донецкая область" short_title="Майорская" title="Майорская" /><station direction="Горловское" esr="491906" importance="4" lat="48.753717" lon="37.559414" popular_title="" region="Донецкая область" short_title="Шпичкино" title="Шпичкино" /><station city="Дружковка" direction="Горловское" esr="491408" importance="2" lat="48.624917" lon="37.548025" popular_title="" region="Донецкая область" short_title="Дружковка" title="Дружковка" /><station city="Алчевск" direction="Луганское" esr="506209" importance="1" lat="48.483371" lon="38.778630" popular_title="" region="Луганская область" short_title="Коммунарск" title="Коммунарск" /><station city="Алексеево-Дружковка" direction="Горловское" esr="491304" importance="1" lat="48.578714" lon="37.616573" popular_title="" region="Донецкая область" short_title="Кондратьевка" title="Кондратьевка" /><station city="Артёмовск" direction="Луганское" esr="506302" importance="1" lat="48.439141" lon="38.698879" popular_title="" region="Луганская область" short_title="Кипучая" title="Кипучая" /><station direction="Горловское" esr="494529" importance="4" lat="48.504430" lon="37.970696" popular_title="" region="Донецкая область" short_title="Алебастровая" title="Алебастровая" /><station direction="Горловское" esr="491130" importance="4" lat="48.428962" lon="37.863072" popular_title="" region="Донецкая область" short_title="Дылеевка" title="Дылеевка" /><station city="Свято-Покровское" direction="Горловское" esr="491107" importance="1" lat="48.402954" lon="37.925267" popular_title="" region="Донецкая область" short_title="Магдалиновка" title="Магдалиновка" /><station direction="Горловское" esr="494711" importance="4" lat="48.692652" lon="38.028753" popular_title="" region="Донецкая область" short_title="470 км" title="470 км" /><station direction="Горловское" esr="494514" importance="4" lat="48.486472" lon="37.965206" popular_title="" region="Донецкая область" short_title="495 км" title="495 км" /><station city="Горловка" direction="Горловское" esr="491111" importance="3" lat="48.375698" lon="38.007062" popular_title="" region="Донецкая область" short_title="Терриконная" title="Терриконная" /><station city="Краматорск" direction="Горловское" esr="491802" importance="2" lat="48.726349" lon="37.543931" popular_title="" region="Донецкая область" short_title="Краматорск" title="Краматорск" /><station city="Ровеньки" direction="Должанское" esr="501506" importance="1" lat="48.095911" lon="39.370343" popular_title="" region="Луганская область" short_title="Ровеньки" title="Ровеньки" /><station city="Константиновка" direction="Горловское" esr="491200" importance="2" lat="48.512229" lon="37.727008" popular_title="" region="Донецкая область" short_title="Константиновка" title="Константиновка" /><station city="Зоринск" direction="Луганское" esr="506509" importance="1" lat="48.408505" lon="38.634422" popular_title="" region="Луганская область" short_title="Мануиловка" title="Мануиловка" /><station direction="Луганское" esr="506904" importance="4" lat="48.573726" lon="39.213954" popular_title="" region="Луганская область" short_title="Техникум" title="Техникум" /><station direction="Луганское" esr="506800" importance="4" lat="48.576068" lon="39.135627" popular_title="" region="Луганская область" short_title="Меловая" title="Меловая" /><station direction="Луганское" esr="506016" importance="4" lat="48.550543" lon="38.971574" popular_title="" region="Луганская область" short_title="Лотиково" title="Лотиково" /><station direction="Луганское" esr="506105" importance="4" lat="48.546977" lon="38.914303" popular_title="" region="Луганская область" short_title="Славяносербск" title="Славяносербск" /><station direction="Луганское" esr="506113" importance="4" lat="48.513577" lon="38.851531" popular_title="" region="Луганская область" short_title="Церковный" title="Церковный" /><station city="Енакиево" direction="Енакиевское" esr="488706" importance="2" lat="48.225882" lon="38.203135" popular_title="" region="Донецкая область" short_title="Енакиево" title="Енакиево" /><station city="Бахмут" direction="Горловское" esr="494603" importance="2" lat="48.588674" lon="37.986136" popular_title="" region="Донецкая область" short_title="Артёмовск-2" title="Артёмовск-2" /><station direction="Попаснянское" esr="500109" importance="4" lat="48.393605" lon="38.470564" popular_title="" region="Луганская область" short_title="Имени Крючкова" title="Имени Крючкова" /><station direction="Луганское" esr="500306" importance="4" lat="48.363399" lon="38.495543" popular_title="" region="Луганская область" short_title="Депрерадовка" title="Депрерадовка" /><station city="Чернухино" direction="Торезское" esr="503107" importance="1" lat="48.328610" lon="38.491119" popular_title="" region="Луганская область" short_title="Чернухино" title="Чернухино" /><station city="Фащевка" direction="Должанское" esr="503003" importance="1" lat="48.271572" lon="38.617754" popular_title="" region="Луганская область" short_title="Фащевка" title="Фащевка" /><station direction="Должанское" esr="502903" importance="4" lat="48.259864" lon="38.681394" popular_title="" region="Луганская область" short_title="Комендантская" title="Комендантская" /><station city="Петровское" direction="Должанское" esr="502807" importance="1" lat="48.286363" lon="38.842607" popular_title="" region="Луганская область" short_title="Петровеньки" title="Петровеньки" /><station city="Ивановка" direction="Должанское" esr="502301" importance="1" lat="48.219150" lon="38.959373" popular_title="" region="Луганская область" short_title="Штеровка" title="Штеровка" /><station city="Луганск" direction="Луганское" esr="507108" importance="1" lat="48.576186" lon="39.287988" popular_title="" region="Луганская область" short_title="Луганск" title="Луганск" /><station direction="Должанское" esr="502227" importance="4" lat="48.218407" lon="39.053346" popular_title="" region="Луганская область" short_title="Колпаково" title="Колпаково" /><station direction="Должанское" esr="501900" importance="3" lat="48.172865" lon="39.126034" popular_title="" region="Луганская область" short_title="Щётово" title="Щётово" /><station direction="Енакиевское" esr="500406" importance="3" lat="48.302128" lon="38.360987" popular_title="" region="Донецкая область" short_title="Булавин" title="Булавин" /><station city="Ясеновский" direction="Должанское" esr="501807" importance="1" lat="48.140054" lon="39.204043" popular_title="" region="Луганская область" short_title="Лобовские Копи" title="Лобовские Копи" /><station direction="Должанское" esr="501614" importance="4" lat="48.131807" lon="39.250295" popular_title="" region="Луганская область" short_title="Картушино" title="Картушино" /><station direction="Должанское" esr="501402" importance="4" lat="48.074642" lon="39.476997" popular_title="" region="Луганская область" short_title="Дарьевка" title="Дарьевка" /><station direction="Должанское" esr="501309" importance="4" lat="48.065797" lon="39.543706" popular_title="" region="Луганская область" short_title="Вальяновский" title="Вальяновский" /><station city="Краснопартизанск" direction="Должанское" esr="500804" importance="1" lat="48.087621" lon="39.787607" popular_title="" region="Луганская область" short_title="Красная Могила" title="Красная Могила" /><station direction="Должанское" esr="500946" importance="4" lat="48.055909" lon="39.600604" popular_title="" region="Луганская область" short_title="109 км" title="109 км" /><station direction="Торезское" esr="504504" importance="4" lat="48.268125" lon="38.522875" popular_title="" region="Донецкая область" short_title="Редкодуб" title="Редкодуб" /><station direction="Торезское" esr="504218" importance="4" lat="48.239939" lon="38.516521" popular_title="" region="Донецкая область" short_title="Никишино" title="Никишино" /><station direction="Торезское" esr="504203" importance="4" lat="48.203822" lon="38.507637" popular_title="" region="Донецкая область" short_title="Кумшацкий" title="Кумшацкий" /><station direction="Торезское" esr="504108" importance="4" lat="48.130662" lon="38.567244" popular_title="" region="Донецкая область" short_title="Рассыпная" title="Рассыпная" /><station direction="Торезское" esr="503906" importance="4" lat="48.091842" lon="38.594149" popular_title="" region="Донецкая область" short_title="Пелагеевский" title="Пелагеевский" /><station city="Торез" direction="Торезское" esr="503802" importance="2" lat="48.041352" lon="38.582858" popular_title="" region="Донецкая область" short_title="Торез" title="Торез" /><station city="Попасная" direction="Попаснянское" esr="496007" importance="2" lat="48.630257" lon="38.379787" popular_title="" region="Луганская область" short_title="Попасная" title="Попасная" /><station direction="Должанское" esr="501313" importance="4" lat="48.066570" lon="39.517901" popular_title="" region="Луганская область" short_title="103 км" title="103 км" /><station direction="Горловское" esr="488405" importance="4" lat="48.199698" lon="37.994806" popular_title="" region="Донецкая область" short_title="Пантелеймоновка" title="Пантелеймоновка" /><station direction="Енакиевское" esr="488104" importance="3" lat="48.126592" lon="38.026573" popular_title="" region="Донецкая область" short_title="Криничная" title="Криничная" /><station city="Енакиево" direction="Енакиевское" esr="488800" importance="4" lat="48.257707" lon="38.230031" popular_title="" region="Донецкая область" short_title="Волынцево" title="Волынцево" /><station direction="Енакиевское" esr="488509" importance="3" lat="48.194246" lon="38.141088" popular_title="" region="Донецкая область" short_title="Щебёнка" title="Щебёнка" /><station direction="Енакиевское" esr="488208" importance="4" lat="48.147968" lon="38.113075" popular_title="" region="Донецкая область" short_title="Монахово" title="Монахово" /><station direction="Торезское" esr="489003" importance="4" lat="47.964479" lon="38.224717" popular_title="" region="Донецкая область" short_title="Немчино" title="Немчино" /><station city="Горловка" direction="Горловское" esr="483007" importance="1" lat="48.311261" lon="38.043306" popular_title="" region="Донецкая область" short_title="Горловка" title="Горловка" /><station city="Зугрэс" direction="Торезское" esr="489200" importance="2" lat="48.025390" lon="38.262716" popular_title="" region="Донецкая область" short_title="Орлова Слобода" title="Орлова Слобода" /><station direction="Торезское" esr="489304" importance="4" lat="48.041440" lon="38.277338" popular_title="" region="Донецкая область" short_title="Сорочье" title="Сорочье" /><station city="Шахтерск" direction="Торезское" esr="489501" importance="2" lat="48.040483" lon="38.496826" popular_title="" region="Донецкая область" short_title="Постниково" title="Постниково" /><station city="Иловайск" direction="Енакиевское" esr="487807" importance="2" lat="47.921746" lon="38.196834" popular_title="" region="Донецкая область" short_title="Иловайск" title="Иловайск" /><station direction="Торезское" esr="489408" importance="4" lat="48.040167" lon="38.390622" popular_title="" region="Донецкая область" short_title="Сердитая" title="Сердитая" /><station direction="Енакиевское" esr="488000" importance="3" lat="48.085665" lon="38.077227" popular_title="" region="Донецкая область" short_title="Ханжёнково" title="Ханжёнково" /><station direction="Торезское" esr="489412" importance="4" lat="48.036109" lon="38.445840" popular_title="" region="Донецкая область" short_title="48 км" title="48 км" /><station city="Свердловск" direction="Должанское" esr="500908" importance="1" lat="48.049102" lon="39.651583" popular_title="" region="Луганская область" short_title="Должанская" title="Должанская" /><station city="Харцызск" direction="Енакиевское" esr="487900" importance="2" lat="48.030904" lon="38.153129" popular_title="" region="Донецкая область" short_title="Харцызск" title="Харцызск" /><station city="Макеевка" direction="Енакиевское" esr="480206" importance="1" lat="48.101785" lon="37.947667" popular_title="" region="Донецкая область" short_title="Макеевка-Пасс." title="Макеевка-Пасс." /><station city="Красный Луч" direction="Должанское" esr="502602" importance="1" lat="48.140877" lon="38.926085" popular_title="" region="Луганская область" short_title="Красный Луч" title="Красный Луч" /><station direction="Луганское" esr="506020" importance="4" lat="48.561546" lon="39.083289" popular_title="" region="Луганская область" short_title="61 км" title="61 км" /><station direction="Горловское" esr="494834" importance="4" lat="48.806198" lon="38.086348" popular_title="" region="Донецкая область" short_title="456 км" title="456 км" /><station city="Антрацит" direction="Должанское" esr="502104" importance="2" lat="48.109558" lon="39.080596" popular_title="" region="Луганская область" short_title="Антрацит" title="Антрацит" /><station direction="Горловское" esr="482771" importance="4" lat="48.240300" lon="37.841197" popular_title="" region="Донецкая область" short_title="Новобахмутовка" title="Новобахмутовка" /><station direction="Торезское" esr="503709" importance="4" lat="48.063207" lon="38.620063" popular_title="" region="Донецкая область" short_title="Дроново" title="Дроново" /><station direction="Енакиевское" esr="480210" importance="3" lat="48.112839" lon="37.982268" popular_title="" region="Донецкая область" short_title="1110 км" title="1110 км" /><station direction="Торезское" esr="503501" importance="4" lat="48.060319" lon="38.719152" popular_title="" region="Донецкая область" short_title="Мочалинский" title="Мочалинский" /><station city="Снежное" direction="Торезское" esr="503408" importance="2" lat="48.043757" lon="38.775711" popular_title="" region="Донецкая область" short_title="Софьино-Бродская" title="Софьино-Бродская" /><station direction="Енакиевское" esr="488602" importance="4" lat="48.129663" lon="38.207851" popular_title="" region="Донецкая область" short_title="Нижнекрынка" title="Нижнекрынка" /><station direction="Енакиевское" esr="002400" importance="3" lat="48.107092" lon="37.805694" popular_title="" region="Донецкая область" short_title="12 км" title="12 км" /><station direction="Енакиевское" esr="480051" importance="3" lat="48.109177" lon="37.894369" popular_title="" region="Донецкая область" short_title="1118 км" title="1118 км" /><station direction="Енакиевское" esr="487915" importance="3" lat="48.057803" lon="38.109503" popular_title="" region="Донецкая область" short_title="Канатный Завод" title="Канатный Завод" /><station direction="Горловское" esr="488424" importance="3" lat="48.142420" lon="38.040120" popular_title="" region="Донецкая область" short_title="Путепровод" title="Путепровод" /><station direction="Горловское" esr="002434" importance="4" lat="48.670286" lon="38.016951" popular_title="" region="Донецкая область" short_title="473 км" title="473 км" /><station direction="Горловское" esr="002433" importance="4" lat="48.840557" lon="38.103375" popular_title="" region="Донецкая область" short_title="Кохана" title="Кохана" /><station direction="Горловское" esr="495019" importance="4" lat="48.894389" lon="38.071153" popular_title="" region="Донецкая область" short_title="444 км" title="444 км" /><station direction="Горловское" esr="002432" importance="4" lat="48.929224" lon="38.022582" popular_title="" region="Донецкая область" short_title="438 км" title="438 км" /><station direction="Горловское" esr="495112" importance="4" lat="48.955989" lon="37.863052" popular_title="" region="Донецкая область" short_title="Медовый" title="Медовый" /><station direction="Горловское" esr="491126" importance="4" lat="48.415789" lon="37.880524" popular_title="" region="Донецкая область" short_title="1093 км" title="1093 км" /><station direction="Горловское" esr="491145" importance="4" lat="48.471286" lon="37.824565" popular_title="" region="Донецкая область" short_title="1086 км" title="1086 км" /><station direction="Горловское" esr="491156" importance="4" lat="48.495410" lon="37.765830" popular_title="" region="Донецкая область" short_title="1082 км" title="1082 км" /><station direction="Горловское" esr="491215" importance="4" lat="48.535905" lon="37.685078" popular_title="" region="Донецкая область" short_title="Дмитриевка" title="Дмитриевка" /><station direction="Горловское" esr="002429" importance="4" lat="48.602083" lon="37.580779" popular_title="" region="Донецкая область" short_title="1063 км" title="1063 км" /><station direction="Горловское" esr="491412" importance="4" lat="48.646127" lon="37.531554" popular_title="" region="Донецкая область" short_title="1057 км" title="1057 км" /><station direction="Горловское" esr="491427" importance="4" lat="48.665626" lon="37.516831" popular_title="" region="Донецкая область" short_title="Малотарановка" title="Малотарановка" /><station direction="Горловское" esr="491431" importance="4" lat="48.685125" lon="37.527739" popular_title="" region="Донецкая область" short_title="Пчёлкино" title="Пчёлкино" /><station direction="Горловское" esr="491446" importance="4" lat="48.704676" lon="37.534699" popular_title="" region="Донецкая область" short_title="Прокатчик" title="Прокатчик" /><station city="Краматорск" direction="Горловское" esr="491817" importance="4" lat="48.735800" lon="37.549576" popular_title="" region="Донецкая область" short_title="Ворота КМЗ" title="Ворота КМЗ" /><station city="Краматорск" direction="Горловское" esr="491821" importance="4" lat="48.744209" lon="37.553940" popular_title="" region="Донецкая область" short_title="Завод имени Ленина" title="Завод имени Ленина" /><station direction="Горловское" esr="491910" importance="4" lat="48.770972" lon="37.557981" popular_title="" region="Донецкая область" short_title="Ясногорка" title="Ясногорка" /><station direction="Горловское" esr="491925" importance="4" lat="48.786868" lon="37.563623" popular_title="" region="Донецкая область" short_title="Герасимовка" title="Герасимовка" /><station direction="Горловское" esr="491937" importance="3" lat="48.802364" lon="37.575923" popular_title="" region="Донецкая область" short_title="Совхоз" title="Совхоз" /><station direction="Горловское" esr="482786" importance="4" lat="48.243855" lon="37.942861" popular_title="" region="Донецкая область" short_title="Батманка" title="Батманка" /><station direction="Горловское" esr="482767" importance="4" lat="48.251866" lon="37.805886" popular_title="" region="Донецкая область" short_title="19 км" title="19 км" /><station direction="Горловское" esr="002414" importance="4" lat="48.254767" lon="37.755471" popular_title="" region="Донецкая область" short_title="16 км" title="16 км" /><station direction="Горловское" esr="482752" importance="4" lat="48.228558" lon="37.731550" popular_title="" region="Донецкая область" short_title="Борцы" title="Борцы" /><station direction="Горловское" esr="002413" importance="4" lat="48.216565" lon="37.709173" popular_title="" region="Донецкая область" short_title="10 км" title="10 км" /><station city="Горловка" direction="Горловское" esr="500611" importance="4" lat="48.320564" lon="38.077808" popular_title="" region="Донецкая область" short_title="6 км" title="6 км" /><station direction="Горловское" esr="500433" importance="4" lat="48.321173" lon="38.208550" popular_title="" region="Донецкая область" short_title="15 км" title="15 км" /><station direction="Енакиевское" esr="500414" importance="3" lat="48.304985" lon="38.316582" popular_title="" region="Донецкая область" short_title="1067 км" title="1067 км" /><station direction="Енакиевское" esr="500217" importance="3" lat="48.310551" lon="38.388298" popular_title="" region="Донецкая область" short_title="Абрикосовый" title="Абрикосовый" /><station city="Дебальцево" direction="Луганское" esr="500240" importance="4" lat="48.351747" lon="38.438793" popular_title="" region="Донецкая область" short_title="Площадка №3" title="Площадка №3" /><station city="Дебальцево" direction="Луганское" esr="500039" importance="4" lat="48.359235" lon="38.462917" popular_title="" region="Донецкая область" short_title="Площадка №5" title="Площадка №5" /><station city="Дебальцево" direction="Луганское" esr="500024" importance="4" lat="48.360717" lon="38.473565" popular_title="" region="Донецкая область" short_title="Площадка №6" title="Площадка №6" /><station direction="Луганское" esr="002444" importance="4" lat="48.376128" lon="38.524959" popular_title="" region="Луганская область" short_title="11 км" title="11 км" /><station direction="Луганское" esr="506618" importance="4" lat="48.382575" lon="38.544992" popular_title="" region="Луганская область" short_title="Баронская" title="Баронская" /><station direction="Луганское" esr="002445" importance="4" lat="48.391970" lon="38.595814" popular_title="" region="Луганская область" short_title="16 км" title="16 км" /><station direction="Луганское" esr="002446" importance="4" lat="48.569281" lon="39.242431" popular_title="" region="Луганская область" short_title="Имени Кашпарова" title="Имени Кашпарова" /><station city="Луганск" direction="Луганское" esr="002447" importance="4" lat="48.566999" lon="39.274256" popular_title="" region="Луганская область" short_title="РЭП" title="РЭП" /><station city="Горловка" direction="Горловское" esr="002436" importance="4" lat="48.335017" lon="38.077054" popular_title="" region="Донецкая область" short_title="Солнечный" title="Солнечный" /><station direction="Енакиевское" esr="488119" importance="4" lat="48.148366" lon="38.055664" popular_title="" region="Донецкая область" short_title="Каменоломни" title="Каменоломни" /><station direction="Енакиевское" esr="002462" importance="4" lat="48.153480" lon="38.092910" popular_title="" region="Донецкая область" short_title="1100 км" title="1100 км" /><station direction="Енакиевское" esr="488212" importance="4" lat="48.164738" lon="38.121468" popular_title="" region="Донецкая область" short_title="1094 км" title="1094 км" /><station direction="Енакиевское" esr="002425" importance="4" lat="48.178633" lon="38.122138" popular_title="" region="Донецкая область" short_title="1092 км" title="1092 км" /><station direction="Енакиевское" esr="002426" importance="4" lat="48.211566" lon="38.168022" popular_title="" region="Донецкая область" short_title="Виноградники" title="Виноградники" /><station direction="Енакиевское" esr="488814" importance="4" lat="48.297186" lon="38.237356" popular_title="" region="Донецкая область" short_title="1073 км" title="1073 км" /><station direction="Енакиевское" esr="488227" importance="4" lat="48.187598" lon="38.159909" popular_title="" region="Донецкая область" short_title="3 км" title="3 км" /><station direction="Енакиевское" esr="488231" importance="4" lat="48.162065" lon="38.151263" popular_title="" region="Донецкая область" short_title="Воля" title="Воля" /><station direction="Енакиевское" esr="002427" importance="4" lat="48.154340" lon="38.164569" popular_title="" region="Донецкая область" short_title="9 км" title="9 км" /><station direction="Торезское" esr="500236" importance="3" lat="48.352313" lon="38.462335" popular_title="" region="Луганская область" short_title="Площадка №2" title="Площадка №2" /><station direction="Должанское" esr="503022" importance="4" lat="48.299853" lon="38.534820" popular_title="" region="Луганская область" short_title="14 км" title="14 км" /><station direction="Должанское" esr="002437" importance="4" lat="48.291872" lon="38.761503" popular_title="" region="Луганская область" short_title="28 км" title="28 км" /><station direction="Должанское" esr="002438" importance="4" lat="48.297975" lon="38.802179" popular_title="" region="Луганская область" short_title="33 км" title="33 км" /><station direction="Должанское" esr="502320" importance="4" lat="48.244042" lon="38.905573" popular_title="" region="Луганская область" short_title="Эротейдовка" title="Эротейдовка" /><station direction="Должанское" esr="502316" importance="4" lat="48.231100" lon="38.914697" popular_title="" region="Луганская область" short_title="47 км" title="47 км" /><station direction="Должанское" esr="502212" importance="4" lat="48.220143" lon="39.013769" popular_title="" region="Луганская область" short_title="58 км" title="58 км" /><station direction="Должанское" esr="002439" importance="4" lat="48.192273" lon="39.097272" popular_title="" region="Луганская область" short_title="65 км" title="65 км" /><station direction="Должанское" esr="002440" importance="4" lat="48.058144" lon="39.679787" popular_title="" region="Луганская область" short_title="Пост Юго-Восточный" title="Пост Юго-Восточный" /><station direction="Должанское" esr="502335" importance="3" lat="48.215905" lon="38.938815" popular_title="" region="Луганская область" short_title="Приёмный" title="Приёмный" /><station direction="Должанское" esr="502345" importance="4" lat="48.206531" lon="38.887137" popular_title="" region="Луганская область" short_title="Сельский" title="Сельский" /><station direction="Должанское" esr="502405" importance="4" lat="48.178897" lon="38.847856" popular_title="" region="Луганская область" short_title="Брауновка" title="Брауновка" /><station direction="Должанское" esr="502411" importance="4" lat="48.164582" lon="38.827181" popular_title="" region="Луганская область" short_title="Скиповой" title="Скиповой" /><station city="Вахрушево" direction="Должанское" esr="502208" importance="1" lat="48.153140" lon="38.781949" popular_title="" region="Луганская область" short_title="Яновский" title="Яновский" /><station direction="Должанское" esr="502509" importance="4" lat="48.178270" lon="38.919350" popular_title="" region="Луганская область" short_title="Марусино" title="Марусино" /><station direction="Должанское" esr="002442" importance="4" lat="48.158419" lon="38.922290" popular_title="" region="Луганская область" short_title="Завод &quot;Стандарт&quot;" title="Завод &quot;Стандарт&quot;" /><station direction="Должанское" esr="002441" importance="4" lat="48.144879" lon="39.113053" popular_title="" region="Луганская область" short_title="5 км" title="5 км" /><station city="Антрацит" direction="Должанское" esr="502000" importance="4" lat="48.132899" lon="39.087103" popular_title="" region="Луганская область" short_title="Карахаш" title="Карахаш" /><station direction="Торезское" esr="504114" importance="4" lat="48.164845" lon="38.533858" popular_title="" region="Донецкая область" short_title="20 км" title="20 км" /><station direction="Торезское" esr="503817" importance="4" lat="48.069404" lon="38.601530" popular_title="" region="Донецкая область" short_title="33 км" title="33 км" /><station direction="Торезское" esr="503520" importance="4" lat="48.065317" lon="38.646456" popular_title="" region="Донецкая область" short_title="ВРП Дроново" title="ВРП Дроново" /><station city="Северное" direction="Торезское" esr="503516" importance="1" lat="48.069365" lon="38.683061" popular_title="" region="Донецкая область" short_title="9 км" title="9 км" /><station direction="Торезское" esr="002443" importance="4" lat="48.059405" lon="38.754942" popular_title="" region="Донецкая область" short_title="15 км" title="15 км" /><station direction="Торезское" esr="504222" importance="4" lat="48.203868" lon="38.449520" popular_title="" region="Донецкая область" short_title="Горняк" title="Горняк" /><station direction="Торезское" esr="504237" importance="4" lat="48.209140" lon="38.421213" popular_title="" region="Донецкая область" short_title="7 км" title="7 км" /><station direction="Торезское" esr="504307" importance="4" lat="48.184862" lon="38.368281" popular_title="" region="Донецкая область" short_title="Новый Юнком" title="Новый Юнком" /><station city="Кировское" direction="Торезское" esr="504400" importance="1" lat="48.144156" lon="38.349131" popular_title="" region="Донецкая область" short_title="Бункерная" title="Бункерная" /><station direction="Попаснянское" esr="495625" importance="4" lat="48.654447" lon="38.479184" popular_title="" region="Луганская область" short_title="Чутовка" title="Чутовка" /><station direction="Попаснянское" esr="495610" importance="4" lat="48.675083" lon="38.533291" popular_title="" region="Луганская область" short_title="Горняцкая" title="Горняцкая" /><station direction="Попаснянское" esr="495521" importance="4" lat="48.664821" lon="38.602117" popular_title="" region="Луганская область" short_title="1010 км" title="1010 км" /><station direction="Попаснянское" esr="495343" importance="4" lat="48.491589" lon="38.581015" popular_title="" region="Луганская область" short_title="Лазурная" title="Лазурная" /><station direction="Попаснянское" esr="495339" importance="4" lat="48.480560" lon="38.566652" popular_title="" region="Луганская область" short_title="Сабовка" title="Сабовка" /><station direction="Попаснянское" esr="495324" importance="4" lat="48.426691" lon="38.531507" popular_title="" region="Луганская область" short_title="1043 км" title="1043 км" /><station city="Дебальцево" direction="Попаснянское" esr="500128" importance="4" lat="48.356126" lon="38.432839" popular_title="" region="Донецкая область" short_title="Метеорологический" title="Метеорологический" /><station city="Дебальцево" direction="Попаснянское" esr="500132" importance="4" lat="48.351583" lon="38.422747" popular_title="" region="Донецкая область" short_title="Колёсный" title="Колёсный" /><station direction="Торезское" esr="489215" importance="4" lat="48.037507" lon="38.261758" popular_title="" region="Донецкая область" short_title="Зуевский" title="Зуевский" /><station direction="Торезское" esr="489030" importance="4" lat="47.983580" lon="38.277721" popular_title="" region="Донецкая область" short_title="68 км" title="68 км" /><station direction="Торезское" esr="489020" importance="4" lat="47.967191" lon="38.264130" popular_title="" region="Донецкая область" short_title="71 км" title="71 км" /><station direction="Торезское" esr="489018" importance="4" lat="47.970783" lon="38.208925" popular_title="" region="Донецкая область" short_title="78 км" title="78 км" /></suburban_zone>