<?xml version='1.0' encoding='UTF-8'?>
<suburban_zone id="94"><station direction="Таганрогское" esr="510907" importance="4" lat="47.691947" lon="38.673778" popular_title="" region="Ростовская область" short_title="Успенская" title="Успенская" /><station city="Донецк" direction="Моспинское" esr="480403" importance="1" lat="48.044112" lon="37.745588" popular_title="" region="Донецкая область" short_title="Донецк" title="Донецк" /><station city="Ясиноватая" direction="Моспинское" esr="480032" importance="1" lat="48.120890" lon="37.846038" popular_title="" region="Донецкая область" short_title="Ясиноватая-Пасс." title="Ясиноватая-Пасс." /><station city="Донецк" direction="Моспинское" esr="480507" importance="3" lat="47.967058" lon="37.685387" popular_title="" region="Донецкая область" short_title="Рутченково" title="Рутченково" /><station city="Горловка" direction="Горловское" esr="493901" importance="2" lat="48.355792" lon="38.030158" popular_title="" region="Донецкая область" short_title="Никитовка" title="Никитовка" /><station city="Ясиноватая" direction="Моспинское" esr="480009" importance="3" lat="48.120025" lon="37.872788" popular_title="" region="Донецкая область" short_title="Ясиноватая-Западная" title="Ясиноватая-Западная" /><station city="Дебальцево" direction="Дебальцевское" esr="500221" importance="3" lat="48.352503" lon="38.441875" popular_title="" region="Донецкая область" short_title="Площадка №1" title="Площадка №1" /><station city="Ясиноватая" direction="Моспинское" esr="480028" importance="3" lat="48.121865" lon="37.861130" popular_title="" region="Донецкая область" short_title="Ясиноватая-горка" title="Ясиноватая-горка" /><station city="Донецк" direction="Моспинское" esr="480307" importance="3" lat="48.093256" lon="37.786303" popular_title="" region="Донецкая область" short_title="Донецк-Северный" title="Донецк-Северный" /><station city="Очеретино" direction="Горловское" esr="482708" importance="1" lat="48.240768" lon="37.612121" popular_title="" region="Донецкая область" short_title="Очеретино" title="Очеретино" /><station city="Красноармейск" direction="Моспинское" esr="482004" importance="2" lat="48.284101" lon="37.180538" popular_title="" region="Донецкая область" short_title="Красноармейск" title="Красноармейск" /><station city="Енакиево" direction="Дебальцевское" esr="488706" importance="2" lat="48.225882" lon="38.203135" popular_title="" region="Донецкая область" short_title="Енакиево" title="Енакиево" /><station city="Чернухино" direction="Дебальцевское" esr="503107" importance="1" lat="48.328610" lon="38.491119" popular_title="" region="Луганская область" short_title="Чернухино" title="Чернухино" /><station city="Фащевка" direction="Дебальцевское" esr="503003" importance="1" lat="48.271572" lon="38.617754" popular_title="" region="Луганская область" short_title="Фащевка" title="Фащевка" /><station direction="Дебальцевское" esr="502903" importance="4" lat="48.259864" lon="38.681394" popular_title="" region="Луганская область" short_title="Комендантская" title="Комендантская" /><station city="Петровское" direction="Дебальцевское" esr="502807" importance="1" lat="48.286363" lon="38.842607" popular_title="" region="Луганская область" short_title="Петровеньки" title="Петровеньки" /><station city="Ивановка" direction="Дебальцевское" esr="502301" importance="1" lat="48.219150" lon="38.959373" popular_title="" region="Луганская область" short_title="Штеровка" title="Штеровка" /><station direction="Дебальцевское" esr="502227" importance="4" lat="48.218407" lon="39.053346" popular_title="" region="Луганская область" short_title="Колпаково" title="Колпаково" /><station direction="Дебальцевское" esr="501900" importance="3" lat="48.172865" lon="39.126034" popular_title="" region="Луганская область" short_title="Щётово" title="Щётово" /><station direction="Дебальцевское" esr="500406" importance="3" lat="48.302128" lon="38.360987" popular_title="" region="Донецкая область" short_title="Булавин" title="Булавин" /><station direction="Торезское" esr="504504" importance="4" lat="48.268125" lon="38.522875" popular_title="" region="Донецкая область" short_title="Редкодуб" title="Редкодуб" /><station direction="Торезское" esr="504218" importance="4" lat="48.239939" lon="38.516521" popular_title="" region="Донецкая область" short_title="Никишино" title="Никишино" /><station direction="Торезское" esr="504203" importance="4" lat="48.203822" lon="38.507637" popular_title="" region="Донецкая область" short_title="Кумшацкий" title="Кумшацкий" /><station direction="Торезское" esr="504108" importance="4" lat="48.130662" lon="38.567244" popular_title="" region="Донецкая область" short_title="Рассыпная" title="Рассыпная" /><station direction="Торезское" esr="503906" importance="4" lat="48.091842" lon="38.594149" popular_title="" region="Донецкая область" short_title="Пелагеевский" title="Пелагеевский" /><station city="Торез" direction="Торезское" esr="503802" importance="2" lat="48.041352" lon="38.582858" popular_title="" region="Донецкая область" short_title="Торез" title="Торез" /><station direction="Моспинское" esr="481105" importance="4" lat="48.084466" lon="37.306683" popular_title="" region="Донецкая область" short_title="Цукуриха" title="Цукуриха" /><station direction="Моспинское" esr="483806" importance="4" lat="47.888939" lon="37.925542" popular_title="" region="Донецкая область" short_title="Ларино" title="Ларино" /><station direction="Горловское" esr="488405" importance="4" lat="48.199698" lon="37.994806" popular_title="" region="Донецкая область" short_title="Пантелеймоновка" title="Пантелеймоновка" /><station direction="Дебальцевское" esr="488104" importance="3" lat="48.126592" lon="38.026573" popular_title="" region="Донецкая область" short_title="Криничная" title="Криничная" /><station city="Енакиево" direction="Дебальцевское" esr="488800" importance="4" lat="48.257707" lon="38.230031" popular_title="" region="Донецкая область" short_title="Волынцево" title="Волынцево" /><station direction="Дебальцевское" esr="488509" importance="3" lat="48.194246" lon="38.141088" popular_title="" region="Донецкая область" short_title="Щебёнка" title="Щебёнка" /><station direction="Дебальцевское" esr="488208" importance="4" lat="48.147968" lon="38.113075" popular_title="" region="Донецкая область" short_title="Монахово" title="Монахово" /><station direction="Торезское" esr="489003" importance="4" lat="47.964479" lon="38.224717" popular_title="" region="Донецкая область" short_title="Немчино" title="Немчино" /><station city="Горловка" direction="Горловское" esr="483007" importance="1" lat="48.311261" lon="38.043306" popular_title="" region="Донецкая область" short_title="Горловка" title="Горловка" /><station city="Зугрэс" direction="Торезское" esr="489200" importance="2" lat="48.025390" lon="38.262716" popular_title="" region="Донецкая область" short_title="Орлова Слобода" title="Орлова Слобода" /><station direction="Торезское" esr="489304" importance="4" lat="48.041440" lon="38.277338" popular_title="" region="Донецкая область" short_title="Сорочье" title="Сорочье" /><station city="Шахтерск" direction="Торезское" esr="489501" importance="2" lat="48.040483" lon="38.496826" popular_title="" region="Донецкая область" short_title="Постниково" title="Постниково" /><station direction="Таганрогское" esr="487402" importance="3" lat="47.811611" lon="38.293442" popular_title="" region="Донецкая область" short_title="Кутейниково" title="Кутейниково" /><station city="Иловайск" direction="Дебальцевское" esr="487807" importance="2" lat="47.921746" lon="38.196834" popular_title="" region="Донецкая область" short_title="Иловайск" title="Иловайск" /><station direction="Торезское" esr="489408" importance="4" lat="48.040167" lon="38.390622" popular_title="" region="Донецкая область" short_title="Сердитая" title="Сердитая" /><station direction="Дебальцевское" esr="488000" importance="3" lat="48.085665" lon="38.077227" popular_title="" region="Донецкая область" short_title="Ханжёнково" title="Ханжёнково" /><station direction="Торезское" esr="489412" importance="4" lat="48.036109" lon="38.445840" popular_title="" region="Донецкая область" short_title="48 км" title="48 км" /><station city="Харцызск" direction="Дебальцевское" esr="487900" importance="2" lat="48.030904" lon="38.153129" popular_title="" region="Донецкая область" short_title="Харцызск" title="Харцызск" /><station city="Макеевка" direction="Донецкое" esr="480206" importance="1" lat="48.101785" lon="37.947667" popular_title="" region="Донецкая область" short_title="Макеевка-Пасс." title="Макеевка-Пасс." /><station city="Красный Луч" direction="Дебальцевское" esr="502602" importance="1" lat="48.140877" lon="38.926085" popular_title="" region="Луганская область" short_title="Красный Луч" title="Красный Луч" /><station city="Донецк" direction="Моспинское" esr="484103" importance="2" lat="48.008975" lon="37.867784" popular_title="" region="Донецкая область" short_title="Донецк-2" title="Донецк-2" /><station city="Антрацит" direction="Дебальцевское" esr="502104" importance="2" lat="48.109558" lon="39.080596" popular_title="" region="Луганская область" short_title="Антрацит" title="Антрацит" /><station direction="Горловское" esr="482771" importance="4" lat="48.240300" lon="37.841197" popular_title="" region="Донецкая область" short_title="Новобахмутовка" title="Новобахмутовка" /><station direction="Торезское" esr="503709" importance="4" lat="48.063207" lon="38.620063" popular_title="" region="Донецкая область" short_title="Дроново" title="Дроново" /><station direction="Донецкое" esr="480210" importance="3" lat="48.112839" lon="37.982268" popular_title="" region="Донецкая область" short_title="1110 км" title="1110 км" /><station city="Моспино" direction="Моспинское" esr="483204" importance="2" lat="47.877140" lon="38.060752" popular_title="" region="Донецкая область" short_title="Моспино" title="Моспино" /><station direction="Торезское" esr="503501" importance="4" lat="48.060319" lon="38.719152" popular_title="" region="Донецкая область" short_title="Мочалинский" title="Мочалинский" /><station city="Курахово" direction="Моспинское" esr="481001" importance="1" lat="47.989175" lon="37.305495" popular_title="" region="Донецкая область" short_title="Роя" title="Роя" /><station city="Снежное" direction="Торезское" esr="503408" importance="2" lat="48.043757" lon="38.775711" popular_title="" region="Донецкая область" short_title="Софьино-Бродская" title="Софьино-Бродская" /><station direction="Моспинское" esr="483609" importance="3" lat="47.854377" lon="37.982747" popular_title="" region="Донецкая область" short_title="Менчугово" title="Менчугово" /><station direction="Моспинское" esr="481302" importance="4" lat="48.148509" lon="37.246412" popular_title="" region="Донецкая область" short_title="Селидовка" title="Селидовка" /><station city="Комсомольское" direction="Таганрогское" esr="487605" importance="1" lat="47.667158" lon="38.062892" popular_title="" region="Донецкая область" short_title="Каракуба" title="Каракуба" /><station city="Красногоровка" direction="Моспинское" esr="480808" importance="1" lat="47.992410" lon="37.508852" popular_title="" region="Донецкая область" short_title="Красногоровка" title="Красногоровка" /><station direction="Моспинское" esr="480901" importance="4" lat="47.995702" lon="37.393793" popular_title="" region="Донецкая область" short_title="Острый" title="Острый" /><station city="Донецк" direction="Моспинское" esr="484207" importance="4" lat="48.063829" lon="37.881647" popular_title="" region="Донецкая область" short_title="Кальмиус" title="Кальмиус" /><station city="Донецк" direction="Моспинское" esr="484009" importance="4" lat="47.977478" lon="37.858126" popular_title="" region="Донецкая область" short_title="Мушкетово" title="Мушкетово" /><station city="Донецк" direction="Моспинское" esr="483903" importance="4" lat="47.973876" lon="37.889625" popular_title="" region="Донецкая область" short_title="Чумаково" title="Чумаково" /><station direction="Моспинское" esr="002400" importance="3" lat="48.107092" lon="37.805694" popular_title="" region="Донецкая область" short_title="12 км" title="12 км" /><station city="Донецк" direction="Моспинское" esr="480418" importance="3" lat="48.000299" lon="37.717516" popular_title="" region="Донецкая область" short_title="Кварцитный" title="Кварцитный" /><station direction="Моспинское" esr="002407" importance="4" lat="47.968358" lon="37.620047" popular_title="" region="Донецкая область" short_title="4 км" title="4 км" /><station direction="Моспинское" esr="480511" importance="4" lat="47.975839" lon="37.566731" popular_title="" region="Донецкая область" short_title="Старомихайловка" title="Старомихайловка" /><station direction="Моспинское" esr="480916" importance="4" lat="47.999281" lon="37.346631" popular_title="" region="Донецкая область" short_title="Врубовщик" title="Врубовщик" /><station direction="Моспинское" esr="002408" importance="4" lat="48.003451" lon="37.277757" popular_title="" region="Донецкая область" short_title="35 км" title="35 км" /><station direction="Моспинское" esr="481016" importance="4" lat="48.015412" lon="37.264051" popular_title="" region="Донецкая область" short_title="37 км" title="37 км" /><station direction="Моспинское" esr="002409" importance="4" lat="48.040937" lon="37.243676" popular_title="" region="Донецкая область" short_title="38 км" title="38 км" /><station direction="Моспинское" esr="481020" importance="4" lat="48.058998" lon="37.262288" popular_title="" region="Донецкая область" short_title="Суворово" title="Суворово" /><station direction="Моспинское" esr="002410" importance="4" lat="48.067162" lon="37.272794" popular_title="" region="Донецкая область" short_title="45 км" title="45 км" /><station direction="Моспинское" esr="002411" importance="4" lat="48.068927" lon="37.290159" popular_title="" region="Донецкая область" short_title="46 км" title="46 км" /><station direction="Моспинское" esr="002412" importance="4" lat="48.159600" lon="37.215722" popular_title="" region="Донецкая область" short_title="60 км" title="60 км" /><station direction="Моспинское" esr="481317" importance="4" lat="48.177078" lon="37.186874" popular_title="" region="Донецкая область" short_title="Соленый" title="Соленый" /><station direction="Моспинское" esr="481321" importance="4" lat="48.211999" lon="37.161375" popular_title="" region="Донецкая область" short_title="69 км" title="69 км" /><station direction="Моспинское" esr="481406" importance="4" lat="48.235259" lon="37.203985" popular_title="" region="Донецкая область" short_title="Чунишино" title="Чунишино" /><station direction="Моспинское" esr="480013" importance="4" lat="48.091622" lon="37.895060" popular_title="" region="Донецкая область" short_title="3 км" title="3 км" /><station direction="Моспинское" esr="002415" importance="4" lat="48.077431" lon="37.890939" popular_title="" region="Донецкая область" short_title="6 км" title="6 км" /><station city="Донецк" direction="Моспинское" esr="484118" importance="4" lat="48.040899" lon="37.878493" popular_title="" region="Донецкая область" short_title="Щегловка" title="Щегловка" /><station city="Донецк" direction="Моспинское" esr="002416" importance="4" lat="47.987941" lon="37.875270" popular_title="" region="Донецкая область" short_title="Заперевальный" title="Заперевальный" /><station direction="Моспинское" esr="483810" importance="4" lat="47.936453" lon="37.891812" popular_title="" region="Донецкая область" short_title="Широкий" title="Широкий" /><station direction="Моспинское" esr="002417" importance="4" lat="47.865863" lon="37.948308" popular_title="" region="Донецкая область" short_title="36 км" title="36 км" /><station direction="Моспинское" esr="002418" importance="4" lat="47.860391" lon="38.006286" popular_title="" region="Донецкая область" short_title="39 км" title="39 км" /><station direction="Моспинское" esr="002419" importance="4" lat="47.864517" lon="38.018822" popular_title="" region="Донецкая область" short_title="41 км" title="41 км" /><station direction="Моспинское" esr="002420" importance="4" lat="47.871380" lon="38.042981" popular_title="" region="Донецкая область" short_title="44 км" title="44 км" /><station direction="Моспинское" esr="002421" importance="4" lat="47.884743" lon="38.111451" popular_title="" region="Донецкая область" short_title="49 км" title="49 км" /><station direction="Моспинское" esr="002422" importance="4" lat="47.901868" lon="38.149877" popular_title="" region="Донецкая область" short_title="53 км" title="53 км" /><station direction="Моспинское" esr="002423" importance="4" lat="47.914290" lon="38.192029" popular_title="" region="Донецкая область" short_title="ПМС" title="ПМС" /><station direction="Донецкое" esr="480051" importance="3" lat="48.109177" lon="37.894369" popular_title="" region="Донецкая область" short_title="1118 км" title="1118 км" /><station direction="Дебальцевское" esr="487915" importance="3" lat="48.057803" lon="38.109503" popular_title="" region="Донецкая область" short_title="Канатный Завод" title="Канатный Завод" /><station direction="Таганрогское" esr="487421" importance="4" lat="47.860474" lon="38.226679" popular_title="" region="Донецкая область" short_title="Агрономический" title="Агрономический" /><station direction="Таганрогское" esr="487417" importance="4" lat="47.835471" lon="38.266249" popular_title="" region="Донецкая область" short_title="1175 км" title="1175 км" /><station direction="Таганрогское" esr="002424" importance="4" lat="47.800606" lon="38.382012" popular_title="" region="Донецкая область" short_title="1186 км" title="1186 км" /><station direction="Таганрогское" esr="487436" importance="4" lat="47.762805" lon="38.301371" popular_title="" region="Донецкая область" short_title="7 км" title="7 км" /><station direction="Таганрогское" esr="487440" importance="4" lat="47.731227" lon="38.269780" popular_title="" region="Донецкая область" short_title="Зеркальный" title="Зеркальный" /><station direction="Таганрогское" esr="487506" importance="4" lat="47.699790" lon="38.233807" popular_title="" region="Донецкая область" short_title="Карбидный" title="Карбидный" /><station direction="Таганрогское" esr="487510" importance="4" lat="47.690485" lon="38.204319" popular_title="" region="Донецкая область" short_title="Колоски" title="Колоски" /><station city="Войковский" direction="Таганрогское" esr="487525" importance="1" lat="47.692616" lon="38.163930" popular_title="" region="Донецкая область" short_title="Войково" title="Войково" /><station direction="Таганрогское" esr="487539" importance="4" lat="47.690361" lon="38.087918" popular_title="" region="Донецкая область" short_title="Ребриково" title="Ребриково" /><station direction="Горловское" esr="488424" importance="3" lat="48.142420" lon="38.040120" popular_title="" region="Донецкая область" short_title="Путепровод" title="Путепровод" /><station direction="Горловское" esr="482786" importance="4" lat="48.243855" lon="37.942861" popular_title="" region="Донецкая область" short_title="Батманка" title="Батманка" /><station direction="Горловское" esr="482767" importance="4" lat="48.251866" lon="37.805886" popular_title="" region="Донецкая область" short_title="19 км" title="19 км" /><station direction="Горловское" esr="002414" importance="4" lat="48.254767" lon="37.755471" popular_title="" region="Донецкая область" short_title="16 км" title="16 км" /><station direction="Горловское" esr="482752" importance="4" lat="48.228558" lon="37.731550" popular_title="" region="Донецкая область" short_title="Борцы" title="Борцы" /><station direction="Горловское" esr="002413" importance="4" lat="48.216565" lon="37.709173" popular_title="" region="Донецкая область" short_title="10 км" title="10 км" /><station city="Горловка" direction="Горловское" esr="500611" importance="4" lat="48.320564" lon="38.077808" popular_title="" region="Донецкая область" short_title="6 км" title="6 км" /><station direction="Горловское" esr="500433" importance="4" lat="48.321173" lon="38.208550" popular_title="" region="Донецкая область" short_title="15 км" title="15 км" /><station direction="Дебальцевское" esr="500414" importance="3" lat="48.304985" lon="38.316582" popular_title="" region="Донецкая область" short_title="1067 км" title="1067 км" /><station direction="Дебальцевское" esr="500217" importance="3" lat="48.310551" lon="38.388298" popular_title="" region="Донецкая область" short_title="Абрикосовый" title="Абрикосовый" /><station direction="Дебальцевское" esr="488119" importance="4" lat="48.148366" lon="38.055664" popular_title="" region="Донецкая область" short_title="Каменоломни" title="Каменоломни" /><station direction="Дебальцевское" esr="002462" importance="4" lat="48.153480" lon="38.092910" popular_title="" region="Донецкая область" short_title="1100 км" title="1100 км" /><station direction="Дебальцевское" esr="488212" importance="4" lat="48.164738" lon="38.121468" popular_title="" region="Донецкая область" short_title="1094 км" title="1094 км" /><station direction="Дебальцевское" esr="002425" importance="4" lat="48.178633" lon="38.122138" popular_title="" region="Донецкая область" short_title="1092 км" title="1092 км" /><station direction="Дебальцевское" esr="002426" importance="4" lat="48.211566" lon="38.168022" popular_title="" region="Донецкая область" short_title="Виноградники" title="Виноградники" /><station direction="Дебальцевское" esr="488814" importance="4" lat="48.297186" lon="38.237356" popular_title="" region="Донецкая область" short_title="1073 км" title="1073 км" /><station direction="Дебальцевское" esr="500236" importance="3" lat="48.352313" lon="38.462335" popular_title="" region="Луганская область" short_title="Площадка №2" title="Площадка №2" /><station direction="Дебальцевское" esr="503022" importance="4" lat="48.299853" lon="38.534820" popular_title="" region="Луганская область" short_title="14 км" title="14 км" /><station direction="Дебальцевское" esr="002437" importance="4" lat="48.291872" lon="38.761503" popular_title="" region="Луганская область" short_title="28 км" title="28 км" /><station direction="Дебальцевское" esr="002438" importance="4" lat="48.297975" lon="38.802179" popular_title="" region="Луганская область" short_title="33 км" title="33 км" /><station direction="Дебальцевское" esr="502320" importance="4" lat="48.244042" lon="38.905573" popular_title="" region="Луганская область" short_title="Эротейдовка" title="Эротейдовка" /><station direction="Дебальцевское" esr="502316" importance="4" lat="48.231100" lon="38.914697" popular_title="" region="Луганская область" short_title="47 км" title="47 км" /><station direction="Дебальцевское" esr="502212" importance="4" lat="48.220143" lon="39.013769" popular_title="" region="Луганская область" short_title="58 км" title="58 км" /><station direction="Дебальцевское" esr="002439" importance="4" lat="48.192273" lon="39.097272" popular_title="" region="Луганская область" short_title="65 км" title="65 км" /><station direction="Дебальцевское" esr="502335" importance="3" lat="48.215905" lon="38.938815" popular_title="" region="Луганская область" short_title="Приёмный" title="Приёмный" /><station direction="Дебальцевское" esr="502509" importance="4" lat="48.178270" lon="38.919350" popular_title="" region="Луганская область" short_title="Марусино" title="Марусино" /><station direction="Дебальцевское" esr="002442" importance="4" lat="48.158419" lon="38.922290" popular_title="" region="Луганская область" short_title="Завод &quot;Стандарт&quot;" title="Завод &quot;Стандарт&quot;" /><station direction="Дебальцевское" esr="002441" importance="4" lat="48.144879" lon="39.113053" popular_title="" region="Луганская область" short_title="5 км" title="5 км" /><station city="Антрацит" direction="Дебальцевское" esr="502000" importance="4" lat="48.132899" lon="39.087103" popular_title="" region="Луганская область" short_title="Карахаш" title="Карахаш" /><station direction="Торезское" esr="504114" importance="4" lat="48.164845" lon="38.533858" popular_title="" region="Донецкая область" short_title="20 км" title="20 км" /><station direction="Торезское" esr="503817" importance="4" lat="48.069404" lon="38.601530" popular_title="" region="Донецкая область" short_title="33 км" title="33 км" /><station direction="Торезское" esr="503520" importance="4" lat="48.065317" lon="38.646456" popular_title="" region="Донецкая область" short_title="ВРП Дроново" title="ВРП Дроново" /><station city="Северное" direction="Торезское" esr="503516" importance="1" lat="48.069365" lon="38.683061" popular_title="" region="Донецкая область" short_title="9 км" title="9 км" /><station direction="Торезское" esr="002443" importance="4" lat="48.059405" lon="38.754942" popular_title="" region="Донецкая область" short_title="15 км" title="15 км" /><station direction="Торезское" esr="504222" importance="4" lat="48.203868" lon="38.449520" popular_title="" region="Донецкая область" short_title="Горняк" title="Горняк" /><station direction="Торезское" esr="504237" importance="4" lat="48.209140" lon="38.421213" popular_title="" region="Донецкая область" short_title="7 км" title="7 км" /><station direction="Торезское" esr="504307" importance="4" lat="48.184862" lon="38.368281" popular_title="" region="Донецкая область" short_title="Новый Юнком" title="Новый Юнком" /><station city="Кировское" direction="Торезское" esr="504400" importance="1" lat="48.144156" lon="38.349131" popular_title="" region="Донецкая область" short_title="Бункерная" title="Бункерная" /><station direction="Моспинское" esr="002463" importance="4" lat="47.990997" lon="37.326355" popular_title="" region="Донецкая область" short_title="30 км" title="30 км" /><station direction="Торезское" esr="489215" importance="4" lat="48.037507" lon="38.261758" popular_title="" region="Донецкая область" short_title="Зуевский" title="Зуевский" /><station direction="Торезское" esr="489030" importance="4" lat="47.983580" lon="38.277721" popular_title="" region="Донецкая область" short_title="68 км" title="68 км" /><station direction="Торезское" esr="489020" importance="4" lat="47.967191" lon="38.264130" popular_title="" region="Донецкая область" short_title="71 км" title="71 км" /><station direction="Торезское" esr="489018" importance="4" lat="47.970783" lon="38.208925" popular_title="" region="Донецкая область" short_title="78 км" title="78 км" /></suburban_zone>